,지번주소,도로명주소,위도,경도,사업장명,kakao_star,kakao_star_nums,kakao_blog_review
4865,합정동,서울특별시 마포구 월드컵로3길 31 지하1층 (합정동),37.5502124,126.9110497,보리노래연습장,0,0,0
5999,양평동4가,서울특별시 영등포구 양평로 93 지하1층 (양평동4가 양화빌딩)',37.5362182,126.8967565,파티파티노래연습장,0,0,0
7568,천호동,서울특별시 강동구 구천면로34길 48 (천호동),37.5423907,127.1338259,스카이노래연습장,0,0,0
10715,대림동,서울특별시 영등포구 도림천로 367 (대림동),37.492115,126.8960305,파티노래연습장,0,0,0
9193,서교동,서울특별시 마포구 와우산로21길 36 2.3층 (서교동)',37.5524767,126.9219826,Intro S 코인노래연습장,0,0,0
1049,공항동,서울특별시 강서구 공항대로 24 지층 (공항동)',37.561178,126.8099671,라이브 노래연습장,0,0,0
641,수유동,서울특별시 강북구 도봉로 379 2층 (수유동)',37.6410324,127.0284696,샤인노래연습장,0,0,0
10647,목동,서울특별시 양천구 목동동로 385 지1층 (목동 벽산미라지타워)',37.5359057,126.8795012,세븐스타코인노래연습장 목동점,0,0,1
4158,방학동,서울특별시 도봉구 방학로5길 10 (방학동지1층),37.6623196,127.0374171,지구노래연습장,0,0,0
1094,등촌동,서울특별시 강서구 화곡로63길 129 2층 (등촌동)',37.5587819,126.845967,엔젤스코인노래연습장,4.9,19,0
5509,구로동,서울특별시 구로구 구로동로18길 34 (구로동지층)',37.4876951,126.886327,수석노래연습장,0,0,0
10141,석촌동,서울특별시 송파구 삼학사로 72 지층 (석촌동)',37.5037443,127.0973468,빙고노래연습장,0,0,0
9280,홍제동,서울특별시 서대문구 통일로 470 (홍제동지층)',37.5903506,126.9428405,휘노래연습장,0,0,0
10706,도림동,서울특별시 영등포구 도영로 19 (도림동지하1층)',37.5085339,126.8955281,타이타닉,0,0,0
78,신사동,서울특별시 강남구 압구정로28길 21 지하1층 (신사동)',37.5250836,127.0278765,두드락노래연습장,4.5,2,0
8185,월계동,서울특별시 노원구 월계로 335 지층 (월계동 해성태권도체육관)',37.6291761,127.0578385,썬,0,0,0
9098,도화동,서울특별시 마포구 토정로37길 46 지하1층 27호 (도화동 정우빌딩)',37.5426083,126.9473125,번개 노래연습장,0,0,0
3835,수유동,서울특별시 강북구 노해로 20  (수유동3층)',37.6372621,127.0231667,킹노래연습장,0,0,0
6706,서초동,서울특별시 서초구 효령로52길 1  (서초동),37.4841375,127.0128439,알프스,0,0,0
740,미아동,서울특별시 강북구 솔매로46길 14 2층 (미아동)',37.6254715,127.0256091,로얄노래연습장,0,0,0
8193,하계동,서울특별시 노원구 공릉로58가길 12 지층 (하계동 경동약국)',37.6361173,127.072978,우리,3.5,2,0
8470,방학동,서울특별시 도봉구 도당로 122 (방학동지1층)',37.6671061,127.0398628,태평양노래연습장,0,0,0
11576,면목동,서울특별시 중랑구 면목로 373 (면목동),37.5853475,127.0882281,힐링노래연습장,0,0,0
5357,화곡동,서울특별시 강서구 화곡로 130 지층 (화곡동 동원빌딩)',37.5402385,126.8362032,골드노래연습장,0,0,0
2014,가리봉동,서울특별시 구로구 우마길 10 (가리봉동),37.4819728,126.887704,명품노래연습장,0,0,0
5498,구로동,서울특별시 구로구 구로동로26길 121  (구로동지층)',37.4900211,126.8907967,짱구 노래연습장,0,0,0
9494,방배동,서울특별시 서초구 방배중앙로 138 (방배동),37.4913411,126.9871336,파티파티노래연습장,0,0,0
2807,자양동,서울특별시 광진구 뚝섬로 514 (자양동),37.5354649,127.0673038,와와노래연습장,0,0,0
7704,성내동,서울특별시 강동구 양재대로89가길 42 지층 (성내동)',37.5247842,127.1341068,땡겨노래연습장,0,0,0
5662,가리봉동,서울특별시 구로구 구로동로 12 (가리봉동),37.4828531,126.887365,신선노래연습장,0,0,0
1223,봉천동,서울특별시 관악구 은천로 27 지상4층 (봉천동),37.4863999,126.9385803,소나타,5,1,0
10539,신월동,서울특별시 양천구 월정로 57 (신월동),37.5246677,126.8414209,훼밀리노래연습장,0,0,0
2576,성수동2가,서울특별시 성동구 아차산로7길 4 지하1층 (성수동2가)',37.5455846,127.0543956,대박노래연습장,0,0,0
2426,신당동,서울특별시 중구 다산로33가길 26 (신당동지하1층)',37.5633039,127.0146122,오디션노래연습장,0,0,0
6624,잠원동,서울특별시 서초구 신반포로 205  (잠원동반포쇼핑타운6동 지하1011)',37.5070249,127.0064782,모아,0,0,0
2020,가리봉동,서울특별시 구로구 우마길 23 지층 (가리봉동)',37.4809167,126.8888566,키스노래연습장,0,0,0
7059,역삼동,서울특별시 강남구 강남대로 364 미왕빌딩 지하2층 (역삼동)',37.4955498,127.0292939,뮤직이너스 노래연습장,5,3,0
5011,목동,서울특별시 양천구 목동중앙북로7가길 60 202호 (목동),37.5500361,126.8644217,뮤노래연습장,2.5,4,0
11128,대조동,서울특별시 은평구 통일로 747 (대조동),37.61186,126.9282529,빅스타노래방,0,0,0
2502,서계동,서울특별시 용산구 만리재로 134 지층 (서계동)',37.5513395,126.9625769,HOLLYWOOD,0,0,1
8496,방학동,서울특별시 도봉구 도당로 92 (방학동2층)',37.6654915,127.0371899,별노래연습장,0,0,0
4405,상계동,서울특별시 노원구 상계로 96-0 (상계동),37.656646,127.0655682,로또,2.4,19,15
2410,관철동,서울특별시 종로구 우정국로2길 42 지하1층 (관철동)',37.5694331,126.9854047,고래고래코인노래연습장,2,2,0
3370,망우동,서울특별시 중랑구 망우로71길 16 (망우동),37.6011251,127.1022286,쉼터노래연습장,0,0,0
1863,온수동,서울특별시 구로구 경인로3길 77 (온수동(지층))',37.4917335,126.8235519,질러노래연습장,0,0,0
3152,전농동,서울특별시 동대문구 서울시립대로 55 2층 (전농동)',37.5763668,127.0475708,딩동댕,0,0,0
6417,신림동,서울특별시 관악구 신림로29길 8 (신림동),37.4754742,126.9321206,웰빙노래연습장,0,0,0
217,신사동,서울특별시 강남구 압구정로54길 4 지하1층 (신사동),37.5277141,127.0395167,쏭 노래연습장,5,4,2
2901,중곡동,서울특별시 광진구 천호대로 647 (중곡동),37.5532471,127.0895583,쿨,0,0,0
6141,대림동,서울특별시 영등포구 도림로38길 6 (대림동),37.4925607,126.897301,노다지 노래연습장,0,0,0
9355,양재동,서울특별시 서초구 남부순환로356길 26 (양재동),37.4837315,127.0379194,코러스코인노래연습장,4.3,7,2
5469,오류동,서울특별시 구로구 오류로8길 85 (오류동지층)',37.4931308,126.8447226,명성노래연습장,0,0,0
2649,금호동1가,서울특별시 성동구 금호로 158-1  (금호동1가),37.5549848,127.0202285,스타노래연습실,0,0,0
11147,응암동,서울특별시 은평구 응암로 286 (응암동 성림빌딩),37.5969911,126.9200792,성림노래연습장,0,0,0
6754,양재동,서울특별시 서초구 매헌로 23 (양재동),37.4632194,127.0351895,도레미노래연습장,0,0,0
6964,일원동,서울특별시 강남구 양재대로35길 6 지하1층 (일원동)',37.4900895,127.0836949,허브 노래연습장,0,0,0
10872,양평동4가,서울특별시 영등포구 선유로49길 29  (양평동4가지하1층)',37.5368499,126.8944803,궁노래연습장,0,0,0
7998,관철동,서울특별시 종로구 삼일대로 391 4층 (관철동),37.5694896,126.9873981,뮤직파워노래연습장,1,2,0
9477,방배동,서울특별시 서초구 효령로31길 48  (방배동),37.4833541,126.9957149,실버노래연습장,0,0,0
10525,목동,서울특별시 양천구 목동동로 264 (목동지하1층),37.5256525,126.8751612,성원노래연습장,0,0,0
9612,방배동,서울특별시 서초구 방배로13길 7 지하1층 (방배동)',37.48297,126.9959656,악쓰는하마코인노래연습장,5,1,0
789,미아동,서울특별시 강북구 도봉로 45 숭인시장 3층 308호 (미아동)',37.6131312,127.029462,아지트코인 노래연습장,2,1,3
1887,가리봉동,서울특별시 구로구 남부순환로105길 134 (가리봉동(2층))',37.4821851,126.8867451,쿨노래연습장,0,0,0
6847,대치동,서울특별시 강남구 남부순환로 2933 지하1층 (대치동 대치상가)',37.4939352,127.0610543,신바람 노래연습장,0,0,0
11411,신당동,서울특별시 중구 다산로44길 56  (신당동지하1층)',37.5650328,127.0201147,신바람,0,0,0
9225,홍제동,서울특별시 서대문구 세무서길 12 (홍제동지하)',37.588526,126.9456599,와,0,0,0
3069,이문동,서울특별시 동대문구 휘경로2길 5-2 지하1층 (이문동)',37.5956415,127.0611001,오케바리붕붕,0,0,0
9523,양재동,서울특별시 서초구 남부순환로350길 21  (양재동),37.4838543,127.0360594,사운드노래연습장,0,0,0
9737,금호동2가,서울특별시 성동구 무수막길 94 (금호동2가),37.5540822,127.0201548,신금호 노래연습장,0,0,0
2367,창신동,서울특별시 종로구 종로 309-3  (창신동),37.5723377,127.0120408,한일노래방,0,0,0
1704,자양동,서울특별시 광진구 아차산로 370 지하1층 (자양동)',37.5364461,127.08403,빈티지 코인 노래연습장,0,0,3
8694,이문동,서울특별시 동대문구 휘경로2길 5-2 지하1층 (이문동)',37.5956415,127.0611001,오케바리붕붕,0,0,0
6020,영등포동,서울특별시 영등포구 영신로19길 7  (영등포동),37.5142548,126.9069185,롯데,3,33,83
5511,신도림동,서울특별시 구로구 신도림로11길 39 (신도림동지층)',37.5091668,126.8784878,딴따라노래연습장,0,0,0
6597,방배동,서울특별시 서초구 방배천로 5-2 지하1층 (방배동)',37.4773425,126.9822925,다모아노래연습장,0,0,0
5419,구로동,서울특별시 구로구 새말로16길 30 (구로동 지층)',37.5043026,126.8908635,럭셔리노래연습장,0,0,0
7848,불광동,서울특별시 은평구 불광로 78 (불광동),37.6138338,126.9322495,CF노래연습장,0,0,0
8006,화곡동,서울특별시 강서구 화곡로 141 지층 (화곡동),37.5410572,126.837385,빙고노래연습장,0,0,0
8569,쌍문동,서울특별시 도봉구 도봉로 463-1  (쌍문동2층)',37.6473364,127.0335102,스피드노래연습장,0,0,0
6396,신림동,서울특별시 관악구 신림로 329 4층 (신림동)',37.4836859,126.9294523,1.2.3,0,0,0
376,명일동,서울특별시 강동구 양재대로 1626 지층 (명일동)',37.5506521,127.1443104,SBS노래연습장,0,0,0
10452,신정동,서울특별시 양천구 중앙로46길 7 (신정동지하1층),37.5222131,126.852974,로또노래연습장,0,0,0
10194,문정동,서울특별시 송파구 새말로8길 21 (문정동),37.4808983,127.1268737,춘자,0,0,0
3500,면목동,서울특별시 중랑구 면목로49길 6 (면목동),37.5827944,127.0882161,무지개노래연습장,0,0,0
4883,염리동,서울특별시 마포구 숭문길 186 지하1층 (염리동)',37.5546864,126.9466612,모닥불 노래연습장,0,0,0
2298,고덕동,서울특별시 강동구 동남로81길 34 (고덕동),37.5601812,127.1548455,팡팡노래방,0,0,0
5765,가산동,서울특별시 금천구 벚꽃로 298 지1층 비101호 (가산동 대륭포스트타워6차)',37.4814002,126.8837813,오페라,0,0,0
4215,상계동,서울특별시 노원구 상계로5길 12 지층 (상계동 동양메이저아파트상가),37.6577059,127.0635679,도깨비,3,2,10
6769,서초동,서울특별시 서초구 서초대로52길 18 지하1층 (서초동)',37.4928918,127.014408,팡팡노래연습장,0,0,0
11188,응암동,서울특별시 은평구 응암로22길 5 (응암동),37.5938971,126.9188455,아싸노래연습장,0,0,0
856,방화동,서울특별시 강서구 방화동로 72 지층 (방화동),37.5668649,126.8128758,신바람노래연습장,0,0,0
8346,중계동,서울특별시 노원구 덕릉로83길 6 2층 (중계동)',37.6600171,127.0750501,MS 노래연습장,0,0,0
3345,묵동,서울특별시 중랑구 공릉로 59 (묵동),37.6160215,127.0791194,샤방샤방노래연습장,0,0,0
10163,가락동,서울특별시 송파구 오금로36길 71 시우빌딩 지층 (가락동),37.4981889,127.1211185,해운대노래연습장,0,0,0
3877,수유동,서울특별시 강북구 도봉로87길 7 3층 (수유동)',37.6381851,127.0250664,터보노래연습장,0,0,0
4811,망원동,서울특별시 마포구 월드컵로 133 2층 (망원동)',37.5598517,126.9063944,궁전 노래연습장,0,0,0
9396,방배동,서울특별시 서초구 방배천로 5-3  (방배동(지하1층))',37.4770623,126.9822612,2030노래방,0,0,0
10026,문정동,서울특별시 송파구 동남로 132  (문정동),37.4909602,127.1257406,스카이,0,0,9
5431,구로동,서울특별시 구로구 구로동로 222 (구로동2층)',37.4983192,126.8827453,노곤륜 노래연습장,0,0,0
10496,신정동,서울특별시 양천구 중앙로 269 (신정동지하1층),37.5204596,126.8525154,히트노래방,0,0,0
5737,독산동,서울특별시 금천구 독산로 195 지상2층 (독산동)',37.4643424,126.9027245,킹카 노래연습장,0,0,0
6406,신림동,서울특별시 관악구 난곡로 288 지하1층 (신림동 남진빌딩)',37.4796842,126.915171,팡팡,3.8,4,26
4772,망원동,서울특별시 마포구 월드컵로 95 지하1층 (망원동)',37.5571619,126.9087718,짱 노래연습장,0,0,0
8353,월계동,서울특별시 노원구 석계로 4 (월계동),37.615381,127.0647912,악쓰는하마 코인 노래연습장,1,1,0
5032,신월동,서울특별시 양천구 월정로 57 (신월동),37.5246677,126.8414209,훼밀리노래연습장,0,0,0
2557,보광동,서울특별시 용산구 보광로24길 12 (보광동 보광회관)',37.5284177,126.9997741,신바람,0,0,0
5830,시흥동,서울특별시 금천구 시흥대로41길 3  (시흥동),37.4476024,126.9026876,짱,1.5,4,4
7602,천호동,서울특별시 강동구 올림픽로 653 지하1층 (천호동)',37.5399341,127.1235095,오투,0,0,0
6192,신대방동,서울특별시 동작구 신대방길 116 (신대방동지층)',37.4905399,126.9083138,골드노래연습장,0,0,0
4391,목동,서울특별시 양천구 목동중앙북로7길 10 (목동지하1층),37.5483755,126.8673611,MBC노래방,0,0,0
8961,신대방동,서울특별시 동작구 보라매로5길 51  (신대방동롯데타워 201호202호)',37.490942,126.9232711,파크 노래연습장,0,0,0
7838,목동,서울특별시 양천구 목동중앙북로 25 (목동),37.5483522,126.8663573,테크노노래연습장,0,0,0
5574,고척동,서울특별시 구로구 고척로 144 (고척동),37.5026787,126.8499827,수노래연습장,1,1,0
7631,명일동,서울특별시 강동구 양재대로 1631 지층 (명일동)',37.5512462,127.1437839,파랑새노래연습장,0,0,0
6767,반포동,서울특별시 서초구 강남대로 547 (반포동지하1층)',37.5106493,127.0210456,명품노래연습장,0,0,0
11795,중화동,서울특별시 중랑구 중랑역로 16 지하1층 (중화동),37.5956164,127.0765403,썸노래연습장,0,0,0
11166,갈현동,서울특별시 은평구 서오릉로 216 (갈현동),37.6145648,126.9100739,가자노래연습장,0,0,0
1641,군자동,서울특별시 광진구 광나루로 381 (군자동),37.5480786,127.0722045,가야,0,0,0
6756,방배동,서울특별시 서초구 서초대로 95 (방배동),37.4876381,126.9926447,와 노래연습장,0,0,0
2692,하왕십리동,서울특별시 성동구 무학봉길 97  (하왕십리동),37.5627603,127.032224,킹 노래연습장,0,0,0
6032,대림동,서울특별시 영등포구 대림로 188 (대림동),37.4977453,126.8990479,25시 노래연습장,0,0,0
4412,상계동,서울특별시 노원구 한글비석로23길 34 2층 (상계동)',37.659394,127.0709732,황금 노래연습장,0,0,0
7399,방이동,서울특별시 송파구 오금로11길 22 지층 (방이동),37.5147856,127.1096733,럭셔리,0,0,0
7699,상일동,서울특별시 강동구 상일로 31-1 (상일동),37.5499406,127.1727626,짱노래연습장,0,0,0
4414,당산동3가,서울특별시 영등포구 당산로32길 1-15 지하1층 (당산동3가),37.527172,126.8972857,코인박스,2.3,3,1
4132,창동,서울특별시 도봉구 도봉로 464  (창동2층)',37.6470028,127.0342088,쿨 노래연습장,0,0,0
5157,화곡동,서울특별시 강서구 강서로45가길 19 (화곡동지층)',37.5471155,126.8356864,빙고노래연습장,0,0,0
1324,신림동,서울특별시 관악구 신림로 305 지하1층 (신림동)',37.4816299,126.9297391,샛별노래연습장,0,0,0
4302,상계동,서울특별시 노원구 상계로 51 202호 (상계동 노원프라자빌딩)',37.6559935,127.0608623,프라자노래연습장,0,0,0
10171,거여동,서울특별시 송파구 거마로2길 3 지하1층 (거여동)',37.493554,127.1451269,산들,0,0,0
450,길동,서울특별시 강동구 양재대로 1504 C동 지층 (길동)',37.5399368,127.1410979,갤럭시,0,0,0
5656,증산동,서울특별시 은평구 증산로 361 (증산동),37.5885817,126.9127395,참노래연습장,0,0,0
8168,공릉동,서울특별시 노원구 공릉로 115-1 지층 (공릉동)',37.6207015,127.0780099,우정,2,4,0
6481,신림동,서울특별시 관악구 신원로1길 2 (신림동),37.480241,126.9277837,스타,0,0,0
2028,신도림동,서울특별시 구로구 경인로67길 23 101동 B102호 (신도림동 신도림2차푸르지오),37.5105879,126.8894776,퀸비코인노래연습장 신도림역점,0,0,0
10009,송파동,서울특별시 송파구 가락로30길 14  (송파동),37.5065884,127.117767,썬,0,0,0
4598,개봉동,서울특별시 구로구 개봉로 8 (개봉동3층),37.4863579,126.8568556,K4노바노래연습장,0,0,0
11028,용문동,서울특별시 용산구 새창로14길 22 (용문동),37.5384943,126.9587316,열창,5,1,0
3164,전농동,서울특별시 동대문구 전농로 130 (전농동),37.5764791,127.0579372,딩동댕 노래연습장,0,0,0
1301,신림동,서울특별시 관악구 신림동5길 49 (신림동),37.4850491,126.9278816,돌고래 노래연습장,0,0,0
6953,도곡동,서울특별시 강남구 논현로38길 46 지하1층 (도곡동)',37.485695,127.0454146,썬 노래연습장,0,0,0
7632,상일동,서울특별시 강동구 상일로 39-11 (상일동),37.5504833,127.17193,둥지노래방,0,0,0
1278,봉천동,서울특별시 관악구 봉천로 446 (봉천동),37.4822689,126.9493671,우리노래연습장,0,0,0
5062,신월동,서울특별시 양천구 가로공원로 124 (신월동 지하1층)',37.5358238,126.8298062,수수노래연습장,0,0,0
9928,하월곡동,서울특별시 성북구 화랑로13길 10 (하월곡동),37.6038977,127.0427576,빈티지코인 노래연습장,0,0,0
2251,잠실동,서울특별시 송파구 백제고분로9길 37 지층 (잠실동),37.5099308,127.0832806,애플,0,1,0
11453,회현동1가,서울특별시 중구 퇴계로8길 10 (회현동1가),37.5589106,126.9798624,호박 노래연습장,0,0,0
8123,방학동,서울특별시 도봉구 도당로 142 (방학동),37.6670385,127.0420187,KBS노래연습장,0,0,0
36,개포동,서울특별시 강남구 선릉로6길 8 지하층 (개포동)',37.4825611,127.0617028,싸이 노래연습장,0,0,0
1044,화곡동,서울특별시 강서구 까치산로27길 18 (화곡동지층 (까치산로27길18))',37.5519991,126.8517497,J노래연습장,0,0,0
1196,봉천동,서울특별시 관악구 양녕로 13 (봉천동),37.4832657,126.9463088,라이브,5,1,0
3889,수유동,서울특별시 강북구 한천로139나길 7  (수유동),37.6391852,127.025082,꽃,3,4,0
11566,신내동,서울특별시 중랑구 신내로 56-1 (신내동),37.6042499,127.0957044,악쓰는하마노래연습장,0,0,0
302,둔촌동,서울특별시 강동구 진황도로 178 (둔촌동),37.5303545,127.1424586,전국노래연습장,0,0,0
10174,가락동,서울특별시 송파구 송파대로 278 (가락동),37.4942892,127.1177511,조은,0,0,0
7792,잠실동,서울특별시 송파구 백제고분로7길 28-13 (잠실동),37.5101352,127.0823248,선수입장 노래연습장,0,0,0
11152,응암동,서울특별시 은평구 은평로 150 (응암동),37.6006418,126.9243821,킹노래연습장,0,0,0
10572,목동,서울특별시 양천구 목동중앙서로 6 (목동),37.5323742,126.8645493,용가리노래연습장,0,0,0
6099,대림동,서울특별시 영등포구 도림로41길 15 (대림동 지하1층 우측)',37.4952712,126.8976541,수정노래연습장,0,0,0
5311,마곡동,서울특별시 강서구 양천로 344 마곡센트럴대방디엠시티오피스텔 2층 207호 (마곡동)',37.568266,126.8403595,대방코인노래연습장,0,0,0
5485,고척동,서울특별시 구로구 경인로 373 (고척동(지층))',37.4969239,126.8619052,엠노래연습장,0,0,0
10996,대림동,서울특별시 영등포구 디지털로 343 B02호 (대림동),37.488756,126.8989114,888노래연습장,0,0,0
10676,신길동,서울특별시 영등포구 신길로 108 (신길동),37.5015704,126.9111173,대지,5,1,0
6456,신림동,서울특별시 관악구 미성3길 4 지하1층 (신림동)',37.4741936,126.9162584,MBC,0,0,0
3375,상봉동,서울특별시 중랑구 망우로42길 25 (상봉동지하)',37.594414,127.0832809,행운노래연습장,0,0,0
1413,봉천동,서울특별시 관악구 남부순환로 1711 지1층 (봉천동)',37.4832101,126.9405021,코캉스코인노래연습장,5,10,0
8097,천호동,서울특별시 강동구 진황도로 15 (천호동),37.5396937,127.1293237,월드노래방,0,0,0
9829,하월곡동,서울특별시 성북구 종암로 176 지1층 (하월곡동)',37.6056327,127.0317522,퀸 노래연습장,0,0,0
6381,신림동,서울특별시 관악구 신원로 13 지하1층 (신림동)',37.4804887,126.9277155,월드컵,0,0,0
6681,서초동,서울특별시 서초구 서초중앙로22길 34 (서초동지하1층)',37.4931581,127.0158,뮤즈노래연습장,0,0,0
3989,쌍문동,서울특별시 도봉구 도봉로133길 9 (쌍문동지1층)',37.6573005,127.0391076,MBC 노래연습장,0,0,0
10866,대림동,서울특별시 영등포구 도림로31길 22 (대림동2층)',37.4942816,126.8951905,궁노래연습장,0,0,0
8032,휘경동,서울특별시 동대문구 망우로 78 지하1층 (휘경동),37.5897637,127.0620255,KBS,0,0,0
1632,자양동,서울특별시 광진구 아차산로 218 (자양동지하1층)',37.5407919,127.0674105,하트노래연습장,0,0,0
4460,갈현동,서울특별시 은평구 연서로29길 17-3 (갈현동),37.6189671,126.9185113,스타노래연습장,0,0,0
9655,성수동2가,서울특별시 성동구 성수이로 50 (성수동2가),37.5395594,127.0553356,하얀노래방,0,0,0
1646,중곡동,서울특별시 광진구 긴고랑로 48 (중곡동지하1층)',37.562419,127.0814534,아라,0,0,0
10435,목동,서울특별시 양천구 목동중앙서로 10 (목동지하1층)',37.5324242,126.8648501,메들리노래연습장,0,0,0
8938,사당동,서울특별시 동작구 동작대로27길 20-6 (사당동(지하1층))',37.4878372,126.9808985,허브 노래연습장,0,0,0
7644,길동,서울특별시 강동구 양재대로 1504 C동 지층 (길동)',37.5399368,127.1410979,갤럭시,0,0,0
5207,화곡동,서울특별시 강서구 강서로5나길 21 지층 (화곡동)',37.5284243,126.8470978,귀빈노래연습장,0,0,0
400,성내동,서울특별시 강동구 풍성로 215 지층 (성내동)',37.5291767,127.1357637,짱노래연습장,0,0,0
3708,수유동,서울특별시 강북구 한천로 1040 지층 1호 (수유동)',37.6403516,127.0267005,쉬리 노래연습장,1,1,0
313,길동,서울특별시 강동구 천중로 203 지층 (길동)',37.5410621,127.1427645,SBS노래연습장,0,0,0
8909,대방동,서울특별시 동작구 여의대방로24가길 16 (대방동),37.4990212,126.9211895,소리샘노래연습장,0,0,0
307,길동,서울특별시 강동구 양재대로124길 65 (길동),37.5424753,127.145757,만남노래연습장,0,0,0
5425,구로동,서울특별시 구로구 새말로 18 (구로동(지층))',37.5019944,126.8831468,피터팬노래연습장,0,0,0
8810,회기동,서울특별시 동대문구 회기로 143 3층 (회기동)',37.5917349,127.052477,질러질러,0,0,0
7303,문정동,서울특별시 송파구 새말로 157 (문정동),37.4848945,127.1307187,해피데이,0,0,0
5275,화곡동,서울특별시 강서구 가로공원로 186 지층 (화곡동)',37.5368621,126.8366942,다온 노래연습장,0,0,0
540,수유동,서울특별시 강북구 도봉로97길 45  (수유동지하)',37.64271,127.0270187,다정노래연습장,0,0,0
1427,중곡동,서울특별시 광진구 용마산로 44 지하1층 (중곡동)',37.5574724,127.0882668,세븐스타,5,1,0
11215,불광동,서울특별시 은평구 통일로 858 (불광동),37.6196853,126.9209971,와와노래연습장,0,0,0
458,길동,서울특별시 강동구 양재대로 1470 지하1층 (길동)',37.5370179,127.1399369,스타노래연습장,0,0,0
1422,구의동,서울특별시 광진구 아차산로49길 11  (구의동),37.5374017,127.0844769,스타노래방,0,0,0
7111,송파동,서울특별시 송파구 백제고분로41길 16 지층 (송파동),37.5074938,127.1079299,SBS 노래연습장,0,0,0
8761,답십리동,서울특별시 동대문구 답십리로 233 지하1층 (답십리동)',37.5729841,127.0661177,터보2,0,0,0
583,미아동,서울특별시 강북구 도봉로 40 (미아동6층)',37.6125873,127.0304487,스카이노래방,0,0,0
10079,가락동,서울특별시 송파구 중대로9길 62  (가락동),37.4977641,127.1203593,야화,5,1,3
2,삼성동,서울특별시 강남구 삼성로92길 27 2층 (삼성동)',37.5083801,127.0585572,더불러 노래연습장,0,0,0
8437,방학동,서울특별시 도봉구 방학로 130 (방학동),37.6630705,127.0378305,궁전노래연습장,0,0,0
6226,노량진동,서울특별시 동작구 노량진로8길 40  (노량진동지층)',37.5124246,126.9374586,파티파티노래연습장,0,0,0
2637,성수동2가,서울특별시 성동구 성덕정17길 4-10 (성수동2가),37.5374463,127.0556621,뚝섬노래방,0,0,0
4336,상계동,서울특별시 노원구 동일로 1551 지층 (상계동 삼전빌딩)',37.6668972,127.056869,소양강,0,0,0
10614,신월동,서울특별시 양천구 가로공원로 171 (신월동지하1층),37.5371327,126.8350378,24시 노래연습장,0,0,0
7110,마천동,서울특별시 송파구 마천로41길 15 (마천동),37.4973126,127.1493917,21세기,0,0,0
1780,개봉동,서울특별시 구로구 개봉로3길 6 (개봉동(3층))',37.4865267,126.8558845,영상시티노래연습장,0,0,0
517,우이동,서울특별시 강북구 삼양로 587 2층 (우이동)',37.6553273,127.012931,태양노래방,0,0,0
4477,서초동,서울특별시 서초구 서초대로50길 76 (서초동(지상2층)),37.4898193,127.0135659,웰빙노래연습장,0,0,0
11100,응암동,서울특별시 은평구 응암로13길 8 2층 (응암동)',37.589767,126.9162227,투데이투노래연습장,0,0,0
4915,도화동,서울특별시 마포구 삼개로3길 6 지하1층 (도화동)',37.5386487,126.9477396,발리 노래연습장,5,1,0
11400,북창동,서울특별시 중구 남대문로1길 26 (북창동),37.5622021,126.977548,동큐,0,0,0
5125,마곡동,서울특별시 강서구 강서로 375 지층 (마곡동)',37.5591316,126.8381019,마곡노래연습장,0,0,0
702,번동,서울특별시 강북구 도봉로98길 56 지1층 (번동),37.6408891,127.0327336,우이천노래연습장,0,0,0
7807,상계동,서울특별시 노원구 상계로3길 38-2 지층 (상계동),37.6578721,127.0627373,팡팡,0,0,0
5228,방화동,서울특별시 강서구 양천로14길 13-5 지층 (방화동 문화빌딩)',37.5725728,126.8104718,올레노래연습장,0,0,0
4610,창천동,서울특별시 서대문구 명물길 24 (창천동),37.5578041,126.9381557,더 스타 노래연습장,0,0,0
1487,화양동,서울특별시 광진구 동일로22길 71 지하층 (화양동)',37.5415045,127.0682153,영해노래방,1,2,0
10450,신정동,서울특별시 양천구 중앙로 268-1 (신정동),37.5203356,126.8531377,소양강노래연습장,0,0,0
5371,화곡동,서울특별시 강서구 화곡로42가길 9  (화곡동지층)',37.5461636,126.8458341,아싸노래방,0,0,0
11198,갈현동,서울특별시 은평구 통일로87길 16 (갈현동),37.6235831,126.9180598,도레미노래연습장,0,0,0
7220,가락동,서울특별시 송파구 중대로9길 23 2층 (가락동)',37.4952044,127.1187831,강추노래연습장,0,0,0
263,길동,서울특별시 강동구 진황도로 103 3층 (길동)',37.5357169,127.1378805,현대노래방,0,0,0
6074,대림동,서울특별시 영등포구 디지털로 410 (대림동),37.4929265,126.9040652,명성노래연습장,0,0,0
1125,신림동,서울특별시 관악구 조원로4길 25 (신림동),37.4824268,126.9051218,엑스포,2.3,3,0
4743,연남동,서울특별시 마포구 성미산로 199 지하1층 (연남동)',37.5625158,126.9271266,씨티 노래연습장,0,0,0
6378,남현동,서울특별시 관악구 남부순환로 2060 (남현동),37.4763843,126.9775264,앵콜,0,0,0
6627,신원동,서울특별시 서초구 청계산로 189 (신원동),37.4483161,127.0553844,대박노래연습장,0,0,0
4225,월계동,서울특별시 노원구 화랑로 353 지층 (월계동 푸른치과의원)',37.6154682,127.0670015,이오스,0,0,0
989,염창동,서울특별시 강서구 양천로 713 지층 (염창동)',37.5498387,126.8752582,테마노래연습장,0,0,0
8583,방학동,서울특별시 도봉구 도봉로150길 34 (방학동),37.6659291,127.0451045,SBS 노래연습장,0,0,0
8766,장안동,서울특별시 동대문구 장한로26길 55 지상2층 3호 (장안동)',37.5716188,127.0746138,팡팡,0,0,0
2797,군자동,서울특별시 광진구 동일로 282  (군자동),37.5563927,127.0723249,군자노래방,5,1,0
2859,봉천동,서울특별시 관악구 은천로2길 35 (봉천동),37.4856093,126.9388178,봉일,1,1,2
5571,구로동,서울특별시 구로구 도림로 99 (구로동),37.4913056,126.8939354,양귀비노래연습장,0,0,0
10626,신정동,서울특별시 양천구 신정중앙로 94 (신정동 목마빌딩 2층)',37.5262425,126.8620293,폭스노래연습장,0,0,0
9447,반포동,서울특별시 서초구 사평대로55길 45 (반포동),37.5059443,127.02192,도레미노래연습장,0,0,0
4492,응암동,서울특별시 은평구 은평로11길 6 (응암동),37.601426,126.9235278,동경노래연습장,0,0,0
3464,상봉동,서울특별시 중랑구 망우로 381 (상봉동),37.5988174,127.0946716,별빛코인노래연습장,0,0,0
1010,방화동,서울특별시 강서구 양천로 27 2층 (방화동)',37.572813,126.8068057,나이스 노래연습장,0,0,0
7306,가락동,서울특별시 송파구 양재대로62길 31-6 (가락동),37.4971778,127.120043,야옹이노래연습장,0,0,0
1991,구로동,서울특별시 구로구 가마산로21길 1 (구로동),37.4939517,126.8857534,영 노래연습장,0,0,0
4993,신월동,서울특별시 양천구 오목로 55 (신월동지층)',37.5222049,126.8436488,갈채노래연습장,0,0,0
1492,자양동,서울특별시 광진구 뚝섬로 509-1  (자양동지층)',37.5358091,127.067035,별들의,0,0,0
5344,내발산동,서울특별시 강서구 강서로 301 지층 (내발산동)',37.5527818,126.8360945,애플노래연습장,0,0,0
9493,양재동,서울특별시 서초구 동산로2길 13 (양재동),37.4692192,127.04208,팡팡노래연습장,0,0,0
8379,월계동,서울특별시 노원구 석계로3길 21 지층 (월계동)',37.6159711,127.0635145,노다지 노래연습장,0,0,0
9662,마장동,서울특별시 성동구 마장로 296  (마장동),37.5662828,127.0431635,세림노래방,0,0,0
11013,보광동,서울특별시 용산구 우사단로2길 1 지층 (보광동),37.5307898,126.9968885,왕십리,0,0,0
10136,마천동,서울특별시 송파구 마천로51길 4  (마천동),37.4956435,127.150685,청춘,0,0,1
3482,면목동,서울특별시 중랑구 면목로 303 (면목동),37.5794828,127.0871485,sbs노래연습장,0,0,0
832,화곡동,서울특별시 강서구 등촌로 19 (화곡동),37.5317356,126.8634874,MP3노래연습장,0,0,0
7994,신길동,서울특별시 영등포구 가마산로 582 지하1층 (신길동),37.5039663,126.920892,아리수,0,0,0
11112,응암동,서울특별시 은평구 응암로12길 9-10 (응암동),37.588302,126.9179984,SBS노래연습장,0,0,0
3114,청량리동,서울특별시 동대문구 제기로 132 4층 (청량리동)',37.5863207,127.0477919,MBC,0,0,0
122,역삼동,서울특별시 강남구 역삼로3길 22 지상2층 (역삼동)',37.4950089,127.0312405,부킹 노래연습장,0,0,0
3035,신설동,서울특별시 동대문구 왕산로 16 지하1층 (신설동)',37.5760059,127.0254728,도깨비코인노래연습장,0,0,0
6568,신림동,서울특별시 관악구 조원중앙로2길 122 (신림동),37.481904,126.9115987,샛별 노래연습장,0,0,0
9183,서교동,서울특별시 마포구 와우산로21길 26 2층 (서교동)',37.552456,126.9225599,클럽노래연습장,1,1,1
11012,한남동,서울특별시 용산구 대사관로30길 4 (한남동),37.5331172,127.0055127,썸,0,0,0
212,역삼동,서울특별시 강남구 논현로94길 13 지하1층 (역삼동)',37.5026051,127.0374007,명품 노래연습장,0,0,0
7409,문정동,서울특별시 송파구 문정로4길 10-46 지1층 (문정동),37.4854717,127.1236363,스타노래연습장,0,0,0
4971,신정동,서울특별시 양천구 신정중앙로23길 5 (신정동 지하1층),37.5267811,126.8633923,모델노래방,0,0,0
9824,종암동,서울특별시 성북구 종암로 108 기업은행종암동지점 지1층 (종암동),37.5998144,127.0344901,영 노래연습장,0,0,0
2915,화양동,서울특별시 광진구 아차산로33길 21  (화양동지하1층)',37.5413078,127.0702022,더소울,0,0,0
5875,대림동,서울특별시 영등포구 디지털로 354 (대림동 지하1층)',37.4891524,126.8998711,신동방,0,0,0
9746,성수동2가,서울특별시 성동구 성수이로 117 (성수동2가),37.545523,127.0569989,콘서트노래연습장,0,0,0
10543,신정동,서울특별시 양천구 은행정로7길 27  (신정동지하1층)',37.5220385,126.8565391,만남노래연습장,0,0,0
9871,종암동,서울특별시 성북구 종암로19길 6 지1층 (종암동)',37.5985359,127.034043,뮤즈피아 노래연습장,0,0,0
3204,답십리동,서울특별시 동대문구 한천로 45 지하1층 (답십리동)',37.5662243,127.0612924,필,0,0,0
9915,하월곡동,서울특별시 성북구 화랑로11길 37 지1층 (하월곡동)',37.6039474,127.0422339,영 노래연습장,0,0,0
10388,거여동,서울특별시 송파구 거마로3길 4 지1층 (거여동 뉴비전빌딩)',37.4941406,127.1442671,오렌지코인노래연습장,0,0,0
5678,가산동,서울특별시 금천구 남부순환로112길 52 (가산동),37.4774111,126.8933185,에이스,5,1,2
9166,서교동,서울특별시 마포구 동교로 156 지하1층 (서교동)',37.5554764,126.9194046,짱 노래연습장,0,0,0
7266,마천동,서울특별시 송파구 마천로51길 4  (마천동),37.4956435,127.150685,청춘,0,0,1
3047,제기동,서울특별시 동대문구 왕산로 179 (제기동),37.579786,127.0429688,제일,0,0,0
9789,하왕십리동,서울특별시 성동구 무학봉28길 6 (하왕십리동 금용빌딩)',37.5621407,127.0326911,도깨비코인노래연습장,3,2,0
7051,삼성동,서울특별시 강남구 삼성로96길 13 (삼성동),37.508995,127.0569642,엔비,0,0,0
6107,대림동,서울특별시 영등포구 도림로39길 11-8 지1층 좌측호 (대림동)',37.494398,126.8971883,라스베가스 노래연습장,0,0,0
9524,서초동,서울특별시 서초구 서초대로50길 76 (서초동(지상2층)),37.4898193,127.0135659,웰빙노래연습장,0,0,0
1025,화곡동,서울특별시 강서구 가로공원로 192 2층 (화곡동)',37.5368921,126.8372656,공원 노래연습장,0,0,0
156,역삼동,서울특별시 강남구 강남대로94길 88 지하1층 (역삼동)',37.50075,127.0342849,싱싱 노래연습장,0,0,0
9738,성수동2가,서울특별시 성동구 성수이로 108 (성수동2가),37.5445508,127.0573874,킹카 노래연습장,0,0,0
10400,가락동,서울특별시 송파구 중대로9길 23 2층 (가락동)',37.4952044,127.1187831,강추노래연습장,0,0,0
1588,중곡동,서울특별시 광진구 면목로 120 (중곡동지하1층)',37.5641174,127.0805267,캔디 노래연습장,0,0,0
10674,당산동3가,서울특별시 영등포구 당산로31길 18 (당산동3가),37.5268945,126.8947817,한마음노래연습장,0,0,0
2771,화양동,서울특별시 광진구 아차산로33길 63 지하1층 (화양동)',37.5430177,127.0709894,하비코인노래연습장,5,4,0
1719,자양동,서울특별시 광진구 동일로18길 51 지하1층 (자양동 옥동빌딩)',37.5393412,127.065698,짱 노래연습장,0,0,0
1868,구로동,서울특별시 구로구 구로중앙로28길 7 (구로동),37.4989885,126.886298,몸부림노래연습장,0,0,0
3008,자양동,서울특별시 광진구 뚝섬로 599  (자양동),37.533085,127.0765465,짱,0,0,0
9240,홍제동,서울특별시 서대문구 통일로37길 16  (홍제동),37.5876513,126.9441214,훼미리,0,0,0
5246,염창동,서울특별시 강서구 공항대로 555 지층 (염창동)',37.5498498,126.8676413,그린노래연습장,0,0,0
7376,방이동,서울특별시 송파구 가락로 241 (방이동),37.5098142,127.1177765,컴백,0,0,0
8677,청량리동,서울특별시 동대문구 회기로8길 36 (청량리동),37.5906102,127.0410887,홍능,0,0,0
10734,영등포동2가,서울특별시 영등포구 버드나루로7길 7 카보드동우빌딩 303호 (영등포동2가)',37.5228381,126.9100043,멋쟁이,0,0,0
1296,신림동,서울특별시 관악구 신림로65길 19 (신림동),37.4849698,126.928458,샤넬 노래연습장,0,0,0
5490,고척동,서울특별시 구로구 경인로47길 45 (고척동(2층))',37.5010797,126.8655821,로데오노래연습장,0,0,0
3319,중화동,서울특별시 중랑구 중랑역로 3 (중화동),37.5945031,127.076799,어머나노래연습장,0,0,0
4179,창동,서울특별시 도봉구 도봉로 486  (창동4층)',37.6487879,127.0351517,OK 노래연습장,5,1,0
157,논현동,서울특별시 강남구 학동로2길 54 (논현동),37.508155,127.023518,나는가수다 프리웨이 노래연습장,0,0,0
10992,문래동3가,서울특별시 영등포구 선유로 46 2층 (문래동3가)',37.5180429,126.8892637,문래코인노래연습장,5,3,0
6638,양재동,서울특별시 서초구 강남대로10길 29 (양재동지하1층)',37.4689472,127.040998,청계산 노래연습장,0,0,0
3109,휘경동,서울특별시 동대문구 회기로 194 3층 (휘경동)',37.5898561,127.0573619,더,1,2,1
1019,등촌동,서울특별시 강서구 공항대로59길 26 지층 (등촌동)',37.5528168,126.8638884,한마음노래연습장,0,0,0
5644,오류동,서울특별시 구로구 경인로 197 (오류동지층)',37.4958957,126.8429552,즐거운노래연습장,0,0,0
5734,시흥동,서울특별시 금천구 금하로 726 (시흥동),37.4503799,126.9102731,101코인노래연습장,0,0,0
5814,시흥동,서울특별시 금천구 금하로 658 지하1층 (시흥동)',37.4535422,126.903626,대명노래연습장,0,0,0
379,명일동,서울특별시 강동구 양재대로143길 6 지층 (명일동)',37.5516665,127.1436532,청개구리 노래방,0,0,0
3867,수유동,서울특별시 강북구 도봉로87길 9 3층 (수유동)',37.6382406,127.0249843,등대노래연습장,5,1,0
2059,독산동,서울특별시 금천구 가산로3길 51 (독산동),37.4721657,126.8926694,둘리,2,4,6
7843,대조동,서울특별시 은평구 통일로 747 (대조동),37.61186,126.9282529,빅스타노래방,0,0,0
11202,응암동,서울특별시 은평구 은평로8길 3 (응암동 한마음빌딩)',37.5997632,126.9211402,금영노래연습장,0,0,0
441,성내동,서울특별시 강동구 성안로 119 지층 (성내동)',37.5339812,127.1335237,파티파티노래연습장,0,0,0
7509,석촌동,서울특별시 송파구 삼학사로18길 13 (석촌동),37.5045452,127.0986337,허니노래연습장,0,0,0
3546,종암동,서울특별시 성북구 종암로19길 7 지1층 (종암동)',37.5984424,127.0342302,짱구 노래연습장,0,0,0
6575,신림동,서울특별시 관악구 신원로3길 32 (신림동),37.4822937,126.9269137,씽씽,0,0,0
3738,미아동,서울특별시 강북구 덕릉로28길 지하 63 1층 (미아동)',37.6339993,127.0167606,코코 노래연습장,0,0,0
7967,청량리동,서울특별시 동대문구 왕산로 209 (청량리동),37.5809861,127.0458897,밀레니엄,0,0,0
7140,가락동,서울특별시 송파구 오금로46길 39 지층 (가락동 오산빌딩),37.494356,127.1337771,쎈언니노래연습장,0,0,0
7858,녹번동,서울특별시 은평구 진흥로 184 (녹번동 제현빌딩),37.6082267,126.9298762,럭키노래연습장,0,0,0
464,길동,서울특별시 강동구 천중로 214 지층 (길동)',37.5406934,127.1439178,썸노래연습장,0,0,0
85,논현동,서울특별시 강남구 학동로2길 45 지하1층 (논현동)',37.5087126,127.0236188,에이치,4,4,11
957,방화동,서울특별시 강서구 양천로 52 (방화동),37.5729163,126.8096645,시공노래방,0,0,0
8870,노량진동,서울특별시 동작구 노량진로6길 6-9 (노량진동지층)',37.5128889,126.9353273,팡팡노래연습장,0,0,0
6224,노량진동,서울특별시 동작구 장승배기로19길 19  (노량진동),37.5080927,126.9389245,상록수노래연습장,0,0,0
5183,방화동,서울특별시 강서구 방화대로44길 5-1 지층 (방화동),37.5729918,126.817365,팡팡노래연습장,0,0,0
7697,암사동,서울특별시 강동구 상암로 105 (암사동),37.5472923,127.134512,청개구리,0,0,0
4188,신정동,서울특별시 양천구 중앙로 282 (신정동 지층),37.5215562,126.8525901,에이스노래연습장,0,0,0
9074,성산동,서울특별시 마포구 월드컵북로 221 지하1층 (성산동)',37.5692897,126.9043455,모두랑 노래연습장,0,0,0
4941,목동,서울특별시 양천구 공항대로 634 (목동1층)',37.5466891,126.8751713,팡팡노래방,0,0,0
5842,시흥동,서울특별시 금천구 탑골로 1 (시흥동지하1층)',37.4508567,126.9098067,한마음토마토,0,0,0
7669,둔촌동,서울특별시 강동구 진황도로 172 (둔촌동),37.5307641,127.1422178,발리 노래연습장,0,0,0
8550,창동,서울특별시 도봉구 노해로69길 21-11  (창동영진빌딩 501502호)',37.6531131,127.0500929,뉴월드,0,0,0
1624,화양동,서울특별시 광진구 동일로22길 69 (화양동),37.5415674,127.0680494,찐 노래연습장,0,0,0
5191,화곡동,서울특별시 강서구 강서로5나길 148 (화곡동4층(배다리서길82))',37.5283679,126.8399063,디바노래연습장,0,0,0
4332,월계동,서울특별시 노원구 석계로 98-1 (월계동),37.623518,127.0610827,휴코인노래연습장,0,0,0
9079,망원동,서울특별시 마포구 포은로 63 지하1층 (망원동)',37.5529472,126.9062336,두꺼비 노래연습장,0,0,0
3644,정릉동,서울특별시 성북구 보국문로11길 37 지1층 (정릉동)',37.6085673,127.0079905,스타 노래연습장,0,0,0
6761,양재동,서울특별시 서초구 동산로 92 (양재동지하1층)',37.4733005,127.0484059,모이라노래연습장,0,0,0
956,화곡동,서울특별시 강서구 가로공원로76길 107 (화곡동),37.532594,126.8393552,e 노래방,0,0,0
128,삼성동,서울특별시 강남구 테헤란로81길 47 지하1층 (삼성동 태령빌딩)',37.5102236,127.0557347,블링블링 노래연습장,3.7,3,0
6505,봉천동,서울특별시 관악구 봉천로 533 지하1층 (봉천동)',37.4790178,126.9572022,네박자,0,0,0
8186,상계동,서울특별시 노원구 노원로34길 66 지층 (상계동)',37.6619711,127.0660288,보람,4.4,5,2
10749,신길동,서울특별시 영등포구 도신로 222 지하1층 (신길동)',37.5116105,126.9160016,장윤정노래연습장,0,0,0
3920,수유동,서울특별시 강북구 노해로8길 1 지층 (수유동)',37.6378985,127.0231821,올,3,6,0
4858,서교동,서울특별시 마포구 홍익로3길 8 지하1층 (서교동)',37.5541334,126.922081,악쓰는하마 2호점 노래연습장,2.8,4,2
10308,가락동,서울특별시 송파구 송파대로30길 3 2층 (가락동)',37.4943499,127.1179311,AmPm,0,0,1
2063,독산동,서울특별시 금천구 독산로 240 (독산동),37.4682731,126.9023898,월드컵,0,0,0
7654,길동,서울특별시 강동구 천중로40길 58 (길동),37.538525,127.1377835,팡팡,0,0,0
4293,월계동,서울특별시 노원구 석계로3길 21 지층 (월계동)',37.6159711,127.0635145,노다지 노래연습장,0,0,0
4913,대흥동,서울특별시 마포구 대흥로 83 지하 1층 102호 (대흥동),37.5476005,126.9413616,팔도강산 노래연습장,0,0,0
2342,명륜2가,서울특별시 종로구 창경궁로 258-15 (명륜2가),37.5836167,127.000658,인디안노래방,0,0,0
9106,도화동,서울특별시 마포구 새창로 14 2층 (도화동)',37.5420534,126.9515333,고래고래 노래연습장,1,1,0
2353,창신동,서울특별시 종로구 종로50길 8 (창신동지하1층)',37.5715587,127.0124539,키스,0,0,0
4432,상계동,서울특별시 노원구 동일로218길 25 지층 (상계동 석창빌딩)',37.6539732,127.0622651,은하수,0,0,0
9216,망원동,서울특별시 마포구 월드컵로 89 지1층 (망원동),37.5567576,126.9091875,킹덤 노래연습장,0,0,0
5859,여의도동,서울특별시 영등포구 여의대방로 379 제일빌딩 304호 (여의도동)',37.5191451,126.9309372,민트박스,5,1,1
6246,대방동,서울특별시 동작구 여의대방로24가길 22 3층 (대방동)',37.4992232,126.9211787,일번지노래연습장,0,0,0
7270,잠실동,서울특별시 송파구 백제고분로15길 58 3층 (잠실동)',37.510364,127.0846161,페스티발 노래연습장,0,0,0
9005,노량진동,서울특별시 동작구 만양로18길 11 지층 (노량진동),37.5132037,126.9450597,동네스타 코인노래연습장,5,1,0
3330,면목동,서울특별시 중랑구 면목로27길 76 (면목동(지하)),37.57438,127.0812889,미소노래연습장,0,0,0
11171,응암동,서울특별시 은평구 응암로22길 11 (응암동),37.5938115,126.9193764,영상노래연습장,0,0,0
3938,수유동,서울특별시 강북구 도봉로67길 지하 8 지1층 (수유동)',37.6151172,127.0295942,딩동댕 노래연습장,0,0,0
4313,상계동,서울특별시 노원구 노해로75길 14-19 2층 (상계동 명성빌딩)',37.6547115,127.0584806,스타,0,0,0
2638,성수동2가,서울특별시 성동구 성덕정길 152  (성수동2가),37.5363028,127.0602058,테마 노래방,0,0,0
11209,갈현동,서울특별시 은평구 통일로 863-11 (갈현동),37.6198517,126.9194105,민지노래연습장,0,0,0
1581,자양동,서울특별시 광진구 뚝섬로 630 (자양동지층)',37.5319498,127.0794117,자양노래연습장,0,0,0
6562,봉천동,서울특별시 관악구 관악로14길 16 지하1층 (봉천동)',37.4790878,126.9534117,은혜,5,14,6
5943,영등포동,서울특별시 영등포구 영신로19길 1 (영등포동),37.5145749,126.9075062,퀸노래연습장,0,0,0
11638,망우동,서울특별시 중랑구 용마산로116길 38 (망우동),37.5994448,127.1026452,모모노래연습장,0,0,0
8640,도봉동,서울특별시 도봉구 마들로 742 거봉빌딩 지층 (도봉동),37.6759514,127.0482864,둥지노래연습장,0,0,0
4597,방학동,서울특별시 도봉구 도당로 137 (방학동),37.6673653,127.0416072,고고노래연습장,0,0,0
2324,통의동,서울특별시 종로구 자하문로 18-1 3층 (통의동)',37.5778157,126.9723288,락휴코인노래연습장,4.7,3,4
250,성내동,서울특별시 강동구 풍성로 117 (성내동),37.5320788,127.1252849,킹노래연습장,0,0,0
10379,가락동,서울특별시 송파구 중대로9길 24 지1층 (가락동)',37.4952737,127.1191641,블루 노래연습장,0,0,0
3329,면목동,서울특별시 중랑구 중랑천로10길 68 (면목동),37.5923456,127.0768256,올래노래연습장,0,0,0
2112,시흥동,서울특별시 금천구 시흥대로 94-1 (시흥동),37.4425167,126.9039906,파티파티,1,1,9
266,고덕동,서울특별시 강동구 동남로81길 34 (고덕동),37.5601812,127.1548455,팡팡노래방,0,0,0
10639,목동,서울특별시 양천구 목동중앙북로 13-1 (목동),37.5485624,126.865157,팡팡노래연습장,5,1,0
2193,독산동,서울특별시 금천구 독산로75길 15 (독산동지하1층),37.4689113,126.9015073,브아이피,0,0,0
5113,목동,서울특별시 양천구 목동중앙북로 3 (목동지하1층)',37.5488207,126.8640467,파티파티노래연습장,0,0,0
6002,대림동,서울특별시 영등포구 대림로29길 42 (대림동),37.4940823,126.895408,안전지대노래방,0,0,0
6062,신길동,서울특별시 영등포구 신풍로 92 (신길동지하1층)',37.4998316,126.9163744,따봉노래연습장,0,0,0
1348,신림동,서울특별시 관악구 난곡로66길 11 지하1층 (신림동)',37.482717,126.9150992,팡팡 노래연습장,0,0,0
3377,면목동,서울특별시 중랑구 사가정로 387  (면목동),37.5809287,127.0877536,다모아 노래연습장,0,0,0
9040,성산동,서울특별시 마포구 월드컵북로 184 3층 (성산동)',37.5681393,126.9083867,앵콜 노래연습장,0,0,0
2757,구의동,서울특별시 광진구 천호대로 673 (구의동 신제빌딩)',37.5511111,127.0905188,바람개비,0,0,0
998,방화동,서울특별시 강서구 양천로 85  (방화동),37.5736342,126.8132902,라이브노래연습장,0,0,0
5148,화곡동,서울특별시 강서구 공항대로46길 31 지층 (화곡동)',37.554236,126.8527091,땡큐노래연습장,0,0,0
5388,화곡동,서울특별시 강서구 화곡로58길 22-3 지층 (화곡동)',37.5527161,126.8521968,알파고노래연습장,0,0,0
4430,월계동,서울특별시 노원구 석계로 12-1 지하층 (월계동)',37.6159583,127.064616,필 노래연습장,5,1,0
8078,당산동3가,서울특별시 영등포구 국회대로34길 9 (당산동3가),37.5266065,126.8975182,짱노래연습장,1,1,0
8367,상계동,서울특별시 노원구 노해로81길 12-15 3층 (상계동)',37.6557495,127.0630951,락휴 노래연습장,1,1,0
288,암사동,서울특별시 강동구 암사길 27-1 (암사동),37.5518787,127.1324615,신바람노래연습장,0,0,0
60,신사동,서울특별시 강남구 강남대로154길 11 지하1층 (신사동),37.5177647,127.0201957,갈채 노래연습장,0,0,0
1308,봉천동,서울특별시 관악구 봉천로 616 지하1층 (봉천동),37.4754416,126.9655025,행운노래연습장,0,0,0
10376,마천동,서울특별시 송파구 마천로41길 1 지층 (마천동)',37.4974251,127.1477889,서울노래연습장,0,0,0
11025,이태원동,서울특별시 용산구 보광로60길 22 (이태원동),37.5339114,126.9954715,나이스,5,4,0
8328,중계동,서울특별시 노원구 한글비석로20길 38 지층 (중계동)',37.6608106,127.0743035,청개구리노래연습장,0,0,0
8769,답십리동,서울특별시 동대문구 한천로 45 지하1층 (답십리동)',37.5662243,127.0612924,필,0,0,0
7460,가락동,서울특별시 송파구 중대로23길 20 (가락동우정에쉐르 지층)',37.502641,127.1258029,부활,0,0,0
3178,회기동,서울특별시 동대문구 경희대로1길 8-8 지하1층 (회기동)',37.5920107,127.0519731,화이트,3,2,1
6113,대림동,서울특별시 영등포구 도림로 136 (대림동),37.4930286,126.8974206,차이나노래연습장,0,0,0
10177,가락동,서울특별시 송파구 송이로17길 41 (가락동),37.5009444,127.1242638,SBS,0,0,0
9563,방배동,서울특별시 서초구 방배천로 5-1 (방배동),37.4770145,126.9824911,문노래연습장,1.5,6,0
4324,공릉동,서울특별시 노원구 동일로 1053 지층 (공릉동 영진빌딩)',37.6240332,127.0732095,펑키,0,0,0
343,암사동,서울특별시 강동구 올림픽로 775 (암사동),37.5503818,127.1273239,나이스노래연습장,0,0,0
3556,하월곡동,서울특별시 성북구 종암로 182-1 2층 (하월곡동)',37.6061555,127.0315708,SBS 노래연습장,0,0,0
2437,역삼동,서울특별시 강남구 강남대로94길 83 지하층 (역삼동),37.5008574,127.0339545,홀릭노래연습장,0,0,0
6959,역삼동,서울특별시 강남구 언주로98길 10 지하1층 (역삼동)',37.5051012,127.0428171,물 노래연습장,0,0,0
2300,신사동,서울특별시 강남구 강남대로154길 11 지하1층 (신사동),37.5177647,127.0201957,갈채 노래연습장,0,0,0
7505,잠실동,서울특별시 송파구 백제고분로7길 48 (잠실동),37.5106853,127.0841541,뉴로데오노래연습장,0,0,0
5280,화곡동,서울특별시 강서구 우장산로15길 25 지층 (화곡동),37.5542855,126.8505546,JJ노래연습장,0,0,0
9802,정릉동,서울특별시 성북구 정릉로36길 47 지1층 (정릉동)',37.6022296,127.0161204,가족 노래연습장,0,0,0
9277,홍제동,서울특별시 서대문구 통일로 476  (홍제동지층)',37.5907562,126.9424348,당신의노래연습장,0,0,0
6856,삼성동,서울특별시 강남구 테헤란로81길 22 지하1층 (삼성동 구암빌딩)',37.5085085,127.0569583,비비텍노래연습장,0,0,0
4592,중곡동,서울특별시 광진구 용마산로 191 (중곡동),37.5707636,127.0859447,MBC노래연습장,0,0,0
11065,한강로1가,서울특별시 용산구 한강대로62길 13 (한강로1가),37.534292,126.9738731,낭낭노래연습장,0,0,0
2114,독산동,서울특별시 금천구 독산로 266 (독산동),37.4703965,126.9030345,유행가,0,0,0
5292,염창동,서울특별시 강서구 양천로 611 지층 (염창동)',37.555091,126.8660922,유토피아노래연습장,0,0,0
6282,사당동,서울특별시 동작구 동작대로3길 10 (사당동지하 2층)',37.4784697,126.9808439,해성 노래연습장,0,0,0
3624,하월곡동,서울특별시 성북구 화랑로 91 국민은행 월곡동지점 지1층 (하월곡동)',37.6029883,127.0421269,필 노래연습장,0,0,0
10087,잠실동,서울특별시 송파구 삼전로13길 4 지층 (잠실동)',37.5072876,127.0899077,진선미노래연습장,0,0,0
2257,신대방동,서울특별시 동작구 대림로 40-1 (신대방동),37.4875844,126.9089767,청와대노래연습장,0,0,0
9627,서초동,서울특별시 서초구 서초중앙로22길 43 (서초동),37.4934917,127.0163093,필드스타코인2노래연습장,0,0,0
7629,성내동,서울특별시 강동구 천호옛길 70 (성내동),37.5351198,127.1247882,가족노래연습장,0,0,0
5918,영등포동3가,서울특별시 영등포구 영등포로42길 17 (영등포동3가),37.5179327,126.9067607,팡팡노래연습장,0,0,0
8431,창동,서울특별시 도봉구 노해로63길 78 (창동지1층)',37.6525824,127.0463482,비젼 노래연습장,0,0,0
8354,상계동,서울특별시 노원구 노해로81길 12-21 4층 (상계동),37.6557669,127.0634066,악쓰는 하마,2,4,2
5251,화곡동,서울특별시 강서구 공항대로46길 85 (화곡동월드빌딩 5층),37.552301,126.8511607,오광노래연습장,0,0,0
10161,방이동,서울특별시 송파구 올림픽로32길 22 (방이동),37.5140651,127.1093412,아지트노래연습장,0,0,0
6240,상도1동,서울특별시 동작구 상도로 293 (상도1동),37.5016335,126.9493615,나가수노래연습장,0,0,0
943,화곡동,서울특별시 강서구 화곡로53길 11 지층 (화곡동),37.5511798,126.8481557,짱구노래연습장,0,0,0
3684,수유동,서울특별시 강북구 도봉로87길 13 (수유동 지층)',37.6384017,127.0248042,악쓰는하마코인 노래연습장,0,0,2
8995,노량진동,서울특별시 동작구 만양로 90-1 (노량진동 예뜰미술학원)',37.5115094,126.9445147,샤우팅노래연습장,4.8,5,0
9088,연남동,서울특별시 마포구 동교로27길 83 지하1층 (연남동)',37.5612185,126.9200289,질러 노래연습장,0,0,0
6244,노량진동,서울특별시 동작구 만양로18길 11 지층 (노량진동),37.5132037,126.9450597,동네스타 코인노래연습장,5,1,0
8542,방학동,서울특별시 도봉구 방학로 214  (방학동6층)',37.662104,127.0282523,탑노래연습장,0,0,0
6488,봉천동,서울특별시 관악구 남부순환로 1820 15층 (봉천동)',37.480976,126.9521426,O2,1,1,0
5886,영등포동3가,서울특별시 영등포구 영중로 22 3층 (영등포동3가 남서울빌딩)',37.5183463,126.9059623,싱어삘 코인 노래연습장,1,1,0
9826,동선동2가,서울특별시 성북구 보문로30가길 3 지1층 (동선동2가)',37.5894728,127.0199666,MBC 노래연습장,0,0,0
7875,구산동,서울특별시 은평구 갈현로11길 10 (구산동),37.6054915,126.9093928,아싸노래연습장,0,0,0
2171,독산동,서울특별시 금천구 시흥대로 405 (독산동),37.4699432,126.897573,샤넬,0,0,0
11303,묘동,서울특별시 종로구 돈화문로 29  (묘동(지하1층))',37.5711581,126.9917644,멜로디노래연습장,0,0,0
1171,신림동,서울특별시 관악구 대학길 31 지하1층 (신림동)',37.469331,126.9379148,피노키오,0,0,0
2679,성수동2가,서울특별시 성동구 성수이로 108 (성수동2가),37.5445508,127.0573874,킹카 노래연습장,0,0,0
11491,면목동,서울특별시 중랑구 면목로 396 (면목동),37.5872745,127.0881518,하나노래연습장,0,0,0
10101,방이동,서울특별시 송파구 가락로 245 지층 (방이동)',37.5101796,127.1179904,도레미,0,0,0
10705,영등포동,서울특별시 영등포구 영신로19길 7  (영등포동),37.5142548,126.9069185,롯데,3,33,83
7125,방이동,서울특별시 송파구 양재대로71길 9 지층 (방이동)',37.5104285,127.1255808,행운노래연습장,0,0,0
2290,공릉동,서울특별시 노원구 동일로 1063 2층 (공릉동),37.6249273,127.0729332,해성노래연습장,0,0,0
8002,내발산동,서울특별시 강서구 공항대로42길 16 2층 (내발산동),37.5572401,126.8436133,휴노래연습장,0,0,0
11493,면목동,서울특별시 중랑구 면목로 378 (면목동),37.5856772,127.088609,고래고래노래연습장,0,0,0
8351,공릉동,서울특별시 노원구 공릉로 131 지층 (공릉동),37.6218876,127.0790087,또행운,0,0,0
8362,상계동,서울특별시 노원구 상계로3길 21 3층 302호 (상계동)',37.6572217,127.0622925,스타동전 노래연습장,5,3,0
10635,목동,서울특별시 양천구 신목로 102 (목동 대경플라지 지하1층 B101호)',37.5235719,126.8757887,힐링 노래연습장,0,0,0
1205,신림동,서울특별시 관악구 남부순환로161길 3 2층 (신림동)',37.4834724,126.9213913,남부,5,1,1
2060,독산동,서울특별시 금천구 시흥대로122길 15 (독산동),37.4694856,126.8990551,궁전,0,0,0
8565,도봉동,서울특별시 도봉구 도봉로181길 15  (도봉동),37.6839417,127.0449603,스타노래연습장,0,0,0
6539,신림동,서울특별시 관악구 대학길 31 지하1층 (신림동)',37.469331,126.9379148,피노키오,0,0,0
6552,봉천동,서울특별시 관악구 은천로 1 2층 (봉천동)',37.4865373,126.9353984,ABC노래연습장,0,0,0
937,등촌동,서울특별시 강서구 화곡로61길 109 2층 (등촌동),37.5583057,126.8464748,마운틴노래연습장,0,0,0
11690,중화동,서울특별시 중랑구 동일로123길 43 (중화동),37.5978816,127.0775826,25시 노래연습장,0,0,0
10548,신월동,서울특별시 양천구 가로공원로 122 (신월동지하1층),37.5358192,126.8295666,파랑새노래연습장,0,0,0
5107,신정동,서울특별시 양천구 중앙로 269 (신정동지하1층),37.5204596,126.8525154,히트노래방,0,0,0
7889,중곡동,서울특별시 광진구 긴고랑로 79 2층 (중곡동),37.5612153,127.0847123,잇츠코인노래연습장,0,0,1
6076,영등포동6가,서울특별시 영등포구 영등포로 199 (영등포동6가),37.5203858,126.9037665,드림노래연습장,0,0,0
3427,망우동,서울특별시 중랑구 망우로 426 (망우동(지하2호)),37.5993579,127.0995284,영노래연습장,0,0,0
10283,방이동,서울특별시 송파구 오금로13길 3-20 지1층 (방이동)',37.5140538,127.1080473,다모아노래연습장,0,0,0
923,화곡동,서울특별시 강서구 곰달래로 269 지층 (화곡동),37.5324265,126.8629024,미소노래연습장,0,0,0
10053,마천동,서울특별시 송파구 마천로41길 22  (마천동),37.4969175,127.1499552,금강산,2,5,4
11569,망우동,서울특별시 중랑구 용마산로 501 (망우동),37.5958365,127.0999158,SBS노래연습장,0,0,0
3414,중화동,서울특별시 중랑구 동일로129길 42 (중화동(지하))',37.5997559,127.0775212,뮤직노래연습장,0,0,0
6873,역삼동,서울특별시 강남구 논현로 412 지하1층 (역삼동)',37.4969748,127.0391111,파티 노래연습장,0,0,0
4762,서교동,서울특별시 마포구 와우산로21길 26 2층 (서교동)',37.552456,126.9225599,클럽노래연습장,1,1,1
10318,문정동,서울특별시 송파구 동남로6길 9 (문정동),37.4894919,127.1245882,동호노래연습장,0,0,0
6017,당산동2가,서울특별시 영등포구 선유동1로 4 2층 (당산동2가)',37.5224552,126.8916547,샤방샤방노래연습장,0,0,0
8649,용두동,서울특별시 동대문구 왕산로26길 23 지하1층 (용두동),37.5770305,127.0365704,가족,4.3,3,0
4522,구로동,서울특별시 구로구 새말로 22 (구로동지층),37.5020834,126.8835417,나가수노래연습장,0,0,0
7821,개봉동,서울특별시 구로구 개봉로20길 66 (개봉동(지층)),37.4933966,126.8580499,월드노래방,0,0,0
9036,용강동,서울특별시 마포구 토정로 261 지하1층 (용강동),37.5430973,126.939393,소리샘 노래연습장,0,0,0
5856,영등포동3가,서울특별시 영등포구 영중로4길 3-1 2층 (영등포동3가)',37.5173766,126.9067919,슈퍼스타코인노래연습장 영등포점1,5,1,0
1294,신림동,서울특별시 관악구 신림로 375 (신림동),37.4876658,126.9285157,타임,4.1,13,2
1045,공항동,서울특별시 강서구 송정로 58 (공항동지층(송정로 58))',37.5599791,126.8103203,골드노래연습장,0,0,0
4885,아현동,서울특별시 마포구 마포대로 214 지하1층 (아현동)',37.5528559,126.95718,애플 노래연습장,0,0,0
4376,공릉동,서울특별시 노원구 동일로 1061 지층 (공릉동 남경빌딩)',37.6246908,127.072982,코리아나노래연습장,0,0,0
5891,대림동,서울특별시 영등포구 대림로 86 2층 (대림동)',37.4899218,126.9048263,킹카 노래연습장,0,0,0
1261,신림동,서울특별시 관악구 신림로65길 16 (신림동),37.4852121,126.9285155,발리,0,0,0
4245,성내동,서울특별시 강동구 양재대로85길 30 B1층 (성내동),37.5247688,127.1330637,팡팡노래연습장,0,0,0
7044,신사동,서울특별시 강남구 선릉로153길 25 지하1층 (신사동)',37.5246009,127.0373521,지,3.4,11,0
8539,방학동,서울특별시 도봉구 도당로 55  (방학동),37.6631625,127.034486,팝콘노래방,0,0,0
7068,삼전동,서울특별시 송파구 백제고분로 206 경인빌딩 지하1층 (삼전동)',37.5036709,127.0895418,코드코인노래연습장,5,4,0
8734,장안동,서울특별시 동대문구 한천로 142 지하1층 (장안동)',37.5734931,127.0670346,짱!,0,0,0
6153,문래동3가,서울특별시 영등포구 선유로 46 2층 (문래동3가)',37.5180429,126.8892637,문래코인노래연습장,5,3,0
3433,중화동,서울특별시 중랑구 동일로123길 68 (중화동),37.5985113,127.0765142,영노래연습장,0,0,0
9892,하월곡동,서울특별시 성북구 오패산로 12 대영빌딩 2층 (하월곡동)',37.6034627,127.0377022,씽 노래연습장,0,0,0
3530,석관동,서울특별시 성북구 돌곶이로8길 25 지1층 (석관동)',37.6070929,127.0626991,산천 노래연습장,0,0,0
8453,방학동,서울특별시 도봉구 도당로13길 17  (방학동2층)',37.6654704,127.0352497,무지개노래방,0,0,0
2713,성수동2가,서울특별시 성동구 연무장7길 12  (성수동2가),37.54367,127.0548547,환희노래방,0,0,0
9311,연희동,서울특별시 서대문구 연희로 102  (연희동지하1층)',37.5669857,126.9313663,연희노래연습장,3,2,0
1145,신림동,서울특별시 관악구 쑥고개로 3 지하1층 (신림동)',37.4774055,126.9376892,카멜레온,0,0,0
8016,구로동,서울특별시 구로구 구로중앙로34길 20 (구로동),37.5005041,126.8842441,애경노래연습장,0,0,0
1596,구의동,서울특별시 광진구 아차산로51길 67  (구의동(지층))',37.5400808,127.0848193,하마,0,0,0
521,미아동,서울특별시 강북구 도봉로 229  (미아동지하)',37.6290517,127.0247944,앵콜노래방,0,0,0
5722,독산동,서울특별시 금천구 시흥대로 476 (독산동),37.4759789,126.8991464,스타,5,1,3
407,고덕동,서울특별시 강동구 동남로85길 16 (고덕동),37.5614833,127.1558393,입큰,0,0,0
9051,도화동,서울특별시 마포구 도화길 42-1 지하1층 (도화동)',37.5415664,126.9504677,영희 노래연습장,0,0,0
3134,장안동,서울특별시 동대문구 사가정로25길 23 지하1층 (장안동)',37.5799736,127.0704022,그린,4.4,14,137
6888,수서동,서울특별시 강남구 광평로56길 8-13 지하1층 (수서동 수서타워)',37.4867657,127.1031943,오디션 노래연습장,2,2,0
2814,화양동,서울특별시 광진구 동일로22길 37 (화양동),37.542104,127.0664187,딩동댕,1,1,0
7085,방이동,서울특별시 송파구 양재대로71길 7 지하1층 (방이동)',37.510351,127.1258131,바다,2.3,3,14
2054,독산동,서울특별시 금천구 금하로1길 91 (독산동),37.454066,126.8896694,한신,4.8,5,0
620,수유동,서울특별시 강북구 도봉로87길 11 234층 (수유동)',37.6383347,127.0248818,라이브노래연습장,0,0,0
9622,잠원동,서울특별시 서초구 신반포로 165 반포쇼핑타운 2동 지층 18~20호 (잠원동)',37.5057266,127.0021903,핵인싸 코인 노래연습장,4.3,4,2
3023,중곡동,서울특별시 광진구 긴고랑로 60 (중곡동3층)',37.5619031,127.0826965,S 노래연습장,1,1,0
4618,남가좌동,서울특별시 서대문구 증가로10길 41 (남가좌동),37.5790294,126.9242862,솔바람노래연습장,0,0,0
2777,화양동,서울특별시 광진구 아차산로29길 28 지하1층 (화양동)',37.5421048,127.0688176,BJ stage 코인노래연습장,0,0,1
8585,도봉동,서울특별시 도봉구 도봉로153길 30 (도봉동),37.6700597,127.0417269,수 노래연습장,0,0,0
6736,서초동,서울특별시 서초구 반포대로26길 73 (서초동),37.491606,127.0129523,토토노래연습장,0,0,0
2813,봉천동,서울특별시 관악구 남부순환로 1713-20 (봉천동),37.4832409,126.9410086,24시노래방,0,0,0
2809,구의동,서울특별시 광진구 아차산로51길 37 (구의동),37.5386834,127.0847995,OK,5,2,0
11268,신사동,서울특별시 은평구 은평로 23 2층 203호 (신사동)',37.5981745,126.9103988,몬스터코인노래연습장,3.7,3,0
2335,재동,서울특별시 종로구 북촌로 2 (재동),37.5772626,126.9862043,재동,3.8,15,15
509,미아동,서울특별시 강북구 솔매로 93 (미아동(지하))',37.6254714,127.022694,모모 노래연습장,0,0,0
11347,내자동,서울특별시 종로구 사직로 103-4 (내자동),37.5764124,126.9706204,골드,0,0,0
1242,신림동,서울특별시 관악구 봉천로 216 지하1층 (신림동)',37.4896272,126.9255341,원 노래연습장,0,0,0
8072,상봉동,서울특별시 중랑구 면목로 495 (상봉동),37.5960575,127.0853429,솔로몬노래연습장,0,0,0
8808,장안동,서울특별시 동대문구 한천로 196 지하1층 (장안동),37.5782563,127.0684862,샤방샤방,0,0,0
8055,대림동,서울특별시 영등포구 디지털로 366 (대림동),37.4898978,126.9007022,럭셔리 노래연습장,0,0,0
6866,역삼동,서울특별시 강남구 봉은사로30길 74 지하1층 (역삼동)',37.5027699,127.0367303,조이 노래연습장,0,0,0
5921,대림동,서울특별시 영등포구 디지털로54길 3 지하1층 (대림동 동보빌딩)',37.4905064,126.9017221,동보노래연습장,0,0,0
6024,영등포동4가,서울특별시 영등포구 영등포로 208 (영등포동4가지하1층)',37.5196845,126.9042756,비노래연습장,1,1,0
6540,신림동,서울특별시 관악구 난곡로 347 지하1층 (신림동 이광빌딩)',37.4849263,126.9136513,뮤즈,0,0,0
902,화곡동,서울특별시 강서구 화곡로60길 26 지층 (화곡동)',37.5533357,126.8526321,신나는노래연습장,0,0,0
8642,이문동,서울특별시 동대문구 이문로 104 (이문동 지하)',37.5959879,127.060191,캠퍼스,5,2,0
11086,녹번동,서울특별시 은평구 은평로 203-3 지층 (녹번동),37.6017238,126.9300553,인연노래연습장,0,0,0
4292,중계동,서울특별시 노원구 덕릉로83길 22 2층 (중계동)',37.6601981,127.0742136,아지트 코인노래연습장,0,0,0
11383,관철동,서울특별시 종로구 삼일대로 391 4층 (관철동),37.5694896,126.9873981,뮤직파워노래연습장,1,2,0
9642,하왕십리동,서울특별시 성동구 무학봉길 83  (하왕십리동),37.5617304,127.0314983,아리랑노래방,0,0,0
674,수유동,서울특별시 강북구 도봉로 385 2층 (수유동)',37.6413941,127.0287728,홀인원 노래연습장,0,0,0
9571,방배동,서울특별시 서초구 방배로 83-11  (방배동지하1층)',37.4820945,126.9965242,샴푸노래연습장,0,0,0
5461,오류동,서울특별시 구로구 경인로15길 1 (오류동(지층))',37.4945688,126.8398472,달님노래연습장,0,0,0
5467,가리봉동,서울특별시 구로구 구로동로 33 (가리봉동(지층))',37.4845983,126.886052,천안문노래연습장,0,0,0
6945,신사동,서울특별시 강남구 압구정로54길 4 지하1층 (신사동),37.5277141,127.0395167,쏭 노래연습장,5,4,2
1450,군자동,서울특별시 광진구 동일로 282  (군자동),37.5563927,127.0723249,군자노래방,5,1,0
3961,번동,서울특별시 강북구 덕릉로 133  (번동지하)',37.635249,127.0285641,준노래연습장,0,0,0
8514,창동,서울특별시 도봉구 도봉로 460-1 (창동),37.6467653,127.0340786,아트 노래연습장,0,0,0
7417,마천동,서울특별시 송파구 마천로 335 (마천동),37.4936785,127.1521681,타타타노래연습장,0,0,0
8906,사당동,서울특별시 동작구 동작대로1길 9-1 (사당동외1(지하1층))',37.4770888,126.9808845,까치노래연습장,0,0,0
4264,가리봉동,서울특별시 구로구 남부순환로105라길 6 (가리봉동(지층)),37.4800661,126.8891855,동북노래연습장,0,0,0
8467,창동,서울특별시 도봉구 노해로63길 84-4  (창동지1층)',37.6526898,127.0466307,별노래방,0,0,0
1682,구의동,서울특별시 광진구 자양로43길 42 지하층 (구의동)',37.5525565,127.090463,히트 노래연습장,0,0,0
3430,묵동,서울특별시 중랑구 중랑역로 227 (묵동),37.613824,127.0752219,24시노래연습장,0,0,0
10483,신월동,서울특별시 양천구 곰달래로 20 (신월동지하1층)',37.5296713,126.8347195,무지개노래연습장,0,0,0
7774,갈현동,서울특별시 은평구 통일로87길 16 (갈현동),37.6235831,126.9180598,도레미노래연습장,0,0,0
5031,목동,서울특별시 양천구 등촌로 224 (목동지하1층)',37.5495549,126.8640515,보이스노래연습장,0,0,0
9112,합정동,서울특별시 마포구 동교로 24 지하1층 (합정동)',37.5520374,126.90527,웰빙 노래연습장,0,0,0
7024,역삼동,서울특별시 강남구 도곡로27길 6 지하1층 (역삼동)',37.4934214,127.0423711,골든벨 노래연습장,5,1,0
7588,천호동,서울특별시 강동구 구천면로 358 지층 (천호동)',37.5502488,127.1383938,풀잎노래연습장,0,0,0
898,화곡동,서울특별시 강서구 곰달래로 233-1 2층 (화곡동),37.5319211,126.8590224,파랑새노래연습장,0,0,0
8793,휘경동,서울특별시 동대문구 외대역동로 19 (휘경동),37.5911297,127.0673878,YTN,0,0,0
6580,봉천동,서울특별시 관악구 낙성대로 24 지하1층 (봉천동)',37.4763597,126.9587705,서울,1.9,18,2
10888,신길동,서울특별시 영등포구 도림로 224 지층 (신길동)',37.4982817,126.9046903,첨밀밀 노래연습장,0,0,0
7891,성내동,서울특별시 강동구 양재대로89가길 62 지층 (성내동),37.5238641,127.1338263,큐노래방,0,0,0
3991,창동,서울특별시 도봉구 해등로 129  (창동5층)',37.6550487,127.0404341,썬노래연습장,0,0,0
11649,면목동,서울특별시 중랑구 겸재로 200 (면목동),37.5886495,127.0898803,오렌지노래연습장,0,0,0
7178,거여동,서울특별시 송파구 오금로 481 지1층 (거여동 동진빌딩)',37.4941822,127.1427025,하트노래연습장,0,0,0
10280,거여동,서울특별시 송파구 거마로 55 (거여동지층)',37.4978579,127.1462713,퀸 노래연습장,0,0,0
1663,중곡동,서울특별시 광진구 긴고랑로 85 (중곡동2층 3층)',37.560905,127.085305,럭셔리락노래연습장,0,0,0
3705,미아동,서울특별시 강북구 도봉로20가길 64 (미아동),37.6214165,127.0291144,준노래연습장,0,0,0
5917,신길동,서울특별시 영등포구 영등포로 363-1 (신길동),37.5145167,126.9189142,첼로노래연습장,0,0,0
1766,오류동,서울특별시 구로구 경인로25길 22 (오류동지층)',37.4972542,126.8439422,엄지노래연습장,0,0,0
9526,잠원동,서울특별시 서초구 신반포로47길 105 (잠원동지하1층),37.5149496,127.0187442,SBS노래연습장,0,0,0
8364,중계동,서울특별시 노원구 덕릉로83길 5 지층 (중계동)',37.6597113,127.0749978,코코 노래연습장,0,0,0
7645,성내동,서울특별시 강동구 양재대로89가길 34 지하층 (성내동)',37.5251042,127.1342168,와와 노래연습장,0,0,0
7800,방이동,서울특별시 송파구 오금로17길 20 지층 (방이동),37.5123987,127.1123487,궁노래연습장,0,0,0
7394,문정동,서울특별시 송파구 새말로 167 지층 (문정동)',37.4854575,127.131367,수,3,4,2
7942,방화동,서울특별시 강서구 양천로 63-1 (방화동),37.5733987,126.8108932,앵콜노래방,0,0,0
3798,번동,서울특별시 강북구 한천로132길 48 지층 (번동)',37.6408444,127.0300143,고래고래 노래연습장,0,0,0
4698,남가좌동,서울특별시 서대문구 증가로 111  (남가좌동지층)',37.5766538,126.9248759,홍제노래연습장,0,0,0
6701,서초동,서울특별시 서초구 서초중앙로20길 18 (서초동),37.4922132,127.0151816,MBC노래연습장,0,0,0
1730,중곡동,서울특별시 광진구 긴고랑로 79 2층 (중곡동),37.5612153,127.0847123,잇츠코인노래연습장,0,0,1
563,수유동,서울특별시 강북구 한천로 1101 2층 (수유동)',37.6437265,127.0212936,샤방샤방 노래연습장,0,0,0
11559,상봉동,서울특별시 중랑구 봉우재로33길 86 (상봉동),37.5955542,127.0899297,힐링노래연습장,0,0,0
10589,목동,서울특별시 양천구 등촌로 36 (목동2층)',37.5331965,126.8639917,와우노래연습장,0,0,0
1227,봉천동,서울특별시 관악구 남부순환로 1891 지하1층 (봉천동)',37.4787881,126.959881,입큰하마 노래연습장,0,0,0
202,대치동,서울특별시 강남구 도곡로 441 (대치동 성동빌딩)',37.4979622,127.0588645,슈퍼스타 코인 노래연습장,1.3,3,0
10165,송파동,서울특별시 송파구 백제고분로41길 31 (송파동),37.5084378,127.1065067,놀이터 노래연습장,0,0,0
3391,거여동,서울특별시 송파구 오금로 527 (거여동),37.4930703,127.1473439,앵콜,0,0,0
6357,봉천동,서울특별시 관악구 관악로16길 13 (봉천동),37.4804322,126.9534644,타임노래연습장,0,0,0
5208,염창동,서울특별시 강서구 양천로 713 지층 (염창동)',37.5498387,126.8752582,테마노래연습장,0,0,0
10479,신월동,서울특별시 양천구 월정로 14 (신월동),37.5212766,126.8438808,아싸노래연습장,0,0,0
7255,석촌동,서울특별시 송파구 삼학사로18길 12 (석촌동),37.5043396,127.0986104,오디션,0,0,0
10186,방이동,서울특별시 송파구 오금로13길 10 (방이동),37.5132359,127.1088422,쿨노래연습장,0,0,0
2269,마천동,서울특별시 송파구 마천로51길 19 (마천동),37.4966961,127.1519262,신세대,0,0,0
4248,화곡동,서울특별시 강서구 가로공원로 197-1 (화곡동),37.5375661,126.8379214,잉꼬노래연습장,0,0,0
296,성내동,서울특별시 강동구 양재대로89가길 14 지층 (성내동 천우빌딩)',37.5260141,127.1345589,디바,0,0,0
4090,방학동,서울특별시 도봉구 도봉로 703  (방학동지1층)',37.6672719,127.0428413,월드노래방,0,0,0
4702,남가좌동,서울특별시 서대문구 거북골로 39 지층 (남가좌동)',37.5791494,126.9235892,명지 코인 노래연습장,5,1,0
6518,신림동,서울특별시 관악구 호암로24길 37 지하1층 (신림동)',37.4696535,126.9352814,킹 노래연습장,0,0,0
1788,가리봉동,서울특별시 구로구 우마1길 5 (가리봉동(지층)),37.4824785,126.8878121,북경노래연습장,0,0,0
3966,쌍문동,서울특별시 도봉구 도봉로 581 (쌍문동지층)',37.6570211,127.039346,SBS노래연습장,0,0,0
10522,신정동,서울특별시 양천구 목동남로4길 17 (신정동),37.5089619,126.8653319,메들리노래연습장,0,0,0
9653,행당동,서울특별시 성동구 마조로3가길 14 (행당동),37.5591474,127.0401369,팡팡노래연습장,3,1,0
5252,내발산동,서울특별시 강서구 수명로 68-35 302호 (내발산동 웨스트앤드중정)',37.5529875,126.8267708,나가수 노래연습장,0,0,0
7209,오금동,서울특별시 송파구 성내천로 45 지층 (오금동)',37.5040257,127.1372789,스크린노래연습장,0,0,0
8739,회기동,서울특별시 동대문구 회기로13길 10 지하1층 (회기동)',37.5919526,127.0510697,청하2,0,0,0
2086,시흥동,서울특별시 금천구 시흥대로 192 (시흥동정암산빌딩지하)',37.4511094,126.9023471,까르푸,0,0,0
2256,독산동,서울특별시 금천구 시흥대로138길 29 지하1층 (독산동),37.4728017,126.900137,행운노래연습장,0,0,0
10297,송파동,서울특별시 송파구 백제고분로41길 17 부림빌딩 지층 (송파동),37.5074938,127.1075463,비타민 노래연습장,1,1,0
1418,자양동,서울특별시 광진구 뚝섬로 514 (자양동),37.5354649,127.0673038,와와노래연습장,0,0,0
5873,대림동,서울특별시 영등포구 대림로29길 42 지하1층 (대림동)',37.4940823,126.895408,신안전지대 노래연습장,0,0,0
3934,수유동,서울특별시 강북구 도봉로97길 45  (수유동지하)',37.64271,127.0270187,다정노래연습장,0,0,0
10022,송파동,서울특별시 송파구 백제고분로42길 11 (송파동),37.5055238,127.1100479,테크노,0,0,0
4128,창동,서울특별시 도봉구 노해로63다길 6  204호 (창동)',37.6532151,127.046812,물 노래연습장,0,0,0
8587,도봉동,서울특별시 도봉구 마들로 735 (도봉동),37.6757141,127.0476672,에코 노래연습장,0,0,0
3013,군자동,서울특별시 광진구 광나루로 381 (군자동),37.5480786,127.0722045,가야,0,0,0
1877,구로동,서울특별시 구로구 디지털로32길 97-27 (구로동9)',37.4837477,126.9010254,야우노래연습장,0,0,0
3153,청량리동,서울특별시 동대문구 홍릉로 64-2 (청량리동),37.5860714,127.0435107,보고파,0,0,0
2525,한남동,서울특별시 용산구 대사관로30길 4 (한남동),37.5331172,127.0055127,썸,0,0,0
1157,신림동,서울특별시 관악구 신사로 104 3층 (신림동 혜성빌딩)',37.4871316,126.9139627,오렌지,0,0,0
3323,상봉동,서울특별시 중랑구 면목로 483 (상봉동),37.5950345,127.0856625,카스노래연습장,0,0,0
2547,한남동,서울특별시 용산구 한남대로21길 33 3층 (한남동)',37.5333565,127.0065951,25시 그리스,0,0,0
7781,상계동,서울특별시 노원구 노해로83길 10-1 4층 (상계동 대화빌딩),37.6559017,127.0644722,즐거운,0,0,0
3385,상봉동,서울특별시 중랑구 봉우재로33길 62 (상봉동(지하1층))',37.59491,127.0890083,썬노래연습장,0,0,0
10281,거여동,서울특별시 송파구 오금로 485 (거여동),37.4940047,127.1430315,M노래연습장,0,0,0
3649,정릉동,서울특별시 성북구 보국문로 75 대영빌딩 지1층 (정릉동)',37.6109864,127.0086693,KBS 노래연습장,0,0,0
4212,상계동,서울특별시 노원구 동일로 1545 지층 (상계동 현대골드씨티)',37.6664002,127.0569974,배트맨,5,1,0
8170,하계동,서울특별시 노원구 공릉로63길 20 지층 (하계동)',37.6350006,127.0700789,미성,5,1,1
1551,중곡동,서울특별시 광진구 천호대로127길 10 (중곡동지하1층)',37.5535002,127.089532,스카이,0,0,0
1178,봉천동,서울특별시 관악구 양녕로 66 (봉천동),37.4879713,126.9467283,스마일,0,0,0
7371,잠실동,서울특별시 송파구 백제고분로7길 23 (잠실동),37.5107758,127.0814411,락휴노래연습장 신천점,0,0,1
1126,봉천동,서울특별시 관악구 관악로 192 지하1층 (봉천동),37.4822025,126.9536387,청개구리,0,0,0
5258,화곡동,서울특별시 강서구 강서로5나길 83 3층 (화곡동)',37.5281847,126.8436264,팰리스노래연습장,5,3,0
9151,상암동,서울특별시 마포구 월드컵북로44길 46 2층 (상암동)',37.5767843,126.8950828,케이팝 노래연습장,0,0,0
10306,잠실동,서울특별시 송파구 백제고분로18길 3 (잠실동지층)',37.504758,127.0850659,매직노래연습장,0,0,0
2382,관철동,서울특별시 종로구 삼일대로19길 6  (관철동(23층))',37.5696639,126.9872446,질러봐,0,0,0
9001,대방동,서울특별시 동작구 상도로 84 (대방동 동양빌딩)',37.4995313,126.9300277,보가코인 노래연습장,4.2,5,3
1949,구로동,서울특별시 구로구 구로동로 132 (구로동),37.4904265,126.8843311,456노래연습장,0,0,0
9708,성수동2가,서울특별시 성동구 성덕정길 142 (성수동2가),37.5364191,127.0590365,킹콩노래연습장,0,0,0
5583,구로동,서울특별시 구로구 구로동로 104-1 (구로동),37.4880217,126.8849698,황제노래연습장,0,0,0
6707,방배동,서울특별시 서초구 동광로12가길 42  (방배동(지하1층))',37.4875211,126.9826143,째즈,0,0,0
2448,회현동1가,서울특별시 중구 퇴계로4길 25 (회현동1가지하1층)',37.557663,126.9787312,남산 노래연습장,0,0,0
4621,북아현동,서울특별시 서대문구 북아현로2안길 6  (북아현동지층)',37.558231,126.9568619,서울노래연습장,0,0,0
4654,홍제동,서울특별시 서대문구 세검정로4길 6  (홍제동),37.5943043,126.9486561,일육일노래연습장,0,0,0
3168,회기동,서울특별시 동대문구 회기로13길 22 지하1층 (회기동)',37.5924758,127.0512218,루비,1.5,2,0
1230,봉천동,서울특별시 관악구 관악로 173 지하1층 (봉천동)',37.4807089,126.9522824,슈가,5,3,0
4656,창천동,서울특별시 서대문구 연세로5가길 3  (창천동),37.5572133,126.9362079,코코노래연습장,0,0,0
8030,목동,서울특별시 양천구 목동중앙북로 90 (목동),37.5462402,126.8730737,까치노래연습장,0,0,0
6475,봉천동,서울특별시 관악구 봉천로 615 지하1층 (봉천동)',37.475752,126.9655541,비엔나,0,0,0
8952,상도동,서울특별시 동작구 상도로 88 (상도동),37.4996278,126.9306145,조아조아노래연습장,0,0,0
1938,신도림동,서울특별시 구로구 경인로 661 2층 (신도림동),37.5095178,126.8877039,궁 노래연습장,1.3,3,0
3004,화양동,서울특별시 광진구 동일로22길 22 (화양동지층)',37.5421723,127.0655703,아모르파티 노래연습장,0,0,0
10034,풍납동,서울특별시 송파구 강동대로9길 17 (풍납동),37.5279941,127.1164904,논스톱,0,0,0
9226,영천동,서울특별시 서대문구 통일로 189-1 (영천동),37.5703388,126.9618596,탤런트,0,0,0
1013,공항동,서울특별시 강서구 방화대로6길 37 지층 (공항동)',37.5548958,126.8187288,행운노래연습장,0,0,0
7627,암사동,서울특별시 강동구 구천면로 309 2층 (암사동),37.547403,127.134602,땡겨노래연습장,0,0,0
9565,양재동,서울특별시 서초구 남부순환로350길 8 (양재동지하1층)',37.4841628,127.0353174,어린왕자노래연습장,0,0,0
10290,가락동,서울특별시 송파구 오금로46길 28 중원빌딩 지층 (가락동)',37.49527,127.1343707,비타민 노래연습장,0,0,0
2892,방이동,서울특별시 송파구 오금로11길 11-8 현대드림밸리 5층 503504505호 (방이동),37.5149901,127.1087696,스타코인노래연습장,3.5,11,2
5714,가산동,서울특별시 금천구 가산로 149  (가산동),37.478535,126.8903891,웰빙,0,0,0
5232,방화동,서울특별시 강서구 양천로26길 57 (방화동2층)',37.5722022,126.8199225,스튜디오 노래연습장,0,0,0
2795,구의동,서울특별시 광진구 자양로18길 41 (구의동),37.5380967,127.0859504,갈채,0,0,0
597,수유동,서울특별시 강북구 수유로 83 지층 (수유동)',37.6363726,127.022781,차차차노래방,0,0,0
349,명일동,서울특별시 강동구 양재대로 1629 5층 (명일동)',37.5510595,127.1436984,악쓰는하마2 노래연습장,3,1,0
6601,방배동,서울특별시 서초구 방배로11길 3 지층 (방배동 성암빌딩)',37.4817111,126.9963904,K2노래연습장,0,0,0
8417,방학동,서울특별시 도봉구 도봉로145나길 12 (방학동지하)',37.6652416,127.0421081,퀸노래연습장,0,0,0
7675,천호동,서울특별시 강동구 구천면로41길 7 지하층 (천호동)',37.5462941,127.1334806,마이다스,0,0,0
567,수유동,서울특별시 강북구 한천로 1152 (수유동지하)',37.6469523,127.0174403,딩동댕노래연습장,0,0,0
5295,방화동,서울특별시 강서구 양천로 85  (방화동),37.5736342,126.8132902,라이브노래연습장,0,0,0
8270,공릉동,서울특별시 노원구 동일로 1039 2층 (공릉동 생명선교회)',37.6228865,127.0736087,우리들,0,0,0
369,명일동,서울특별시 강동구 양재대로143길 13 지층 (명일동)',37.551439,127.143167,알라딘노래연습장,0,0,0
564,수유동,서울특별시 강북구 노해로 56 지층호 (수유동),37.6406718,127.0227686,썸씽노래연습장,0,0,0
3629,장위동,서울특별시 성북구 장위로 42 2층 (장위동)',37.6141554,127.0411833,KBS 노래연습장,0,0,0
10016,석촌동,서울특별시 송파구 가락로 115 (석촌동),37.5017244,127.1088763,큐,0,0,0
541,수유동,서울특별시 강북구 한천로140길 29 2층 (수유동)',37.6411979,127.02776,앗싸 노래연습장,0,0,0
1373,신림동,서울특별시 관악구 신림로65길 15-2 지하1층 (신림동 YJ빌딩)',37.4849872,126.9286079,힐링노래연습장,0,0,0
11061,원효로2가,서울특별시 용산구 원효로53길 9 지하층 (원효로2가)',37.5360207,126.9619851,궁노래연습장,0,0,0
7061,역삼동,서울특별시 강남구 테헤란로27길 18 지하1층 (역삼동)',37.5025539,127.0379593,역삼 노래연습장,0,0,0
4928,신정동,서울특별시 양천구 중앙로 308 (신정동지하1층),37.5235824,126.8514572,신정노래연습장,0,0,0
6996,도곡동,서울특별시 강남구 논현로38길 34 지하1층 (도곡동)',37.4854128,127.0445063,SBS노래연습장,0,0,0
7482,가락동,서울특별시 송파구 양재대로62길 48 2층 (가락동)',37.4958131,127.1205117,에이스노래연습장,0,0,0
6935,대치동,서울특별시 강남구 영동대로86길 12 지하1층 (대치동 동남유화빌딩)',37.5078308,127.0652102,대박노래연습장,5,3,0
8004,화곡동,서울특별시 강서구 화곡로 143 지층 (화곡동),37.5411322,126.8376232,스타노래연습장,0,0,0
5382,등촌동,서울특별시 강서구 양천로 460 (등촌동),37.5625888,126.851709,sky,0,0,0
9691,행당동,서울특별시 성동구 마조로5길 6 (행당동),37.5601676,127.0404398,방가방가노래연습장,0,0,0
7529,둔촌동,서울특별시 강동구 진황도로 178 (둔촌동),37.5303545,127.1424586,전국노래연습장,0,0,0
5241,화곡동,서울특별시 강서구 강서로5나길 15 3층 (화곡동),37.5284068,126.847397,테마노래연습장,0,0,0
364,명일동,서울특별시 강동구 양재대로 1641 지층 (명일동)',37.5520888,127.1438699,파티노래연습장,5,1,0
11502,면목동,서울특별시 중랑구 동일로109길 72 (면목동),37.5912612,127.0762235,갈채노래연습장,0,0,0
10133,삼전동,서울특별시 송파구 백제고분로25길 33 (삼전동),37.5067031,127.0925411,엘비스,0,0,0
230,신사동,서울특별시 강남구 언주로172길 54 3층 (신사동)',37.5268488,127.0380501,KPOP코인노래연습장,0,0,0
9705,마장동,서울특별시 성동구 마장로 305 (마장동),37.5666671,127.0433283,팡팡노래연습장,0,0,0
6305,상도동,서울특별시 동작구 국사봉1길 4 (상도동),37.4987815,126.9288292,가수코인 노래연습장,0,0,0
2480,신당동,서울특별시 중구 동호로 186-3 2층 (신당동)',37.5547701,127.0111895,플로렌스노래연습장,0,0,0
4967,신정동,서울특별시 양천구 신월로 317 (신정동지하1층)',37.5217561,126.8561005,미소노래연습장,0,0,0
11761,상봉동,서울특별시 중랑구 봉우재로33길 42 지하1층 (상봉동),37.5942578,127.0883064,엔젤노래연습장,0,0,0
4790,용강동,서울특별시 마포구 토정로 294 지하1층 (용강동)',37.5408253,126.9418435,노래의 날개밑에 노래연습장,0,0,0
10732,영등포동,서울특별시 영등포구 영신로 37-3 (영등포동 지하)',37.5143188,126.9075639,해바라기 노래연습장,0,0,0
7837,역촌동,서울특별시 은평구 서오릉로 77 (역촌동),37.6071413,126.9217788,콘서트노래연습장,0,0,0
5549,구로동,서울특별시 구로구 새말로 36 (구로동),37.5026778,126.8849398,영 노래연습장,0,0,0
10714,당산동3가,서울특별시 영등포구 당산로 139 (당산동3가),37.5270824,126.8967287,스타노래방,0,0,0
7915,전농동,서울특별시 동대문구 서울시립대로 147 4층 (전농동 우성빌딩),37.583246,127.05317,K.POP코인노래연습장,0,0,0
1208,봉천동,서울특별시 관악구 봉천로 608 지하1층 (봉천동)',37.4757949,126.9646078,스타노래연습장,0,0,0
5713,시흥동,서울특별시 금천구 독산로 49 (시흥동),37.4517386,126.9057744,궁전,0,0,0
351,성내동,서울특별시 강동구 성내로 8 (성내동),37.530289,127.1215313,첼로노래연습장,0,0,0
7189,거여동,서울특별시 송파구 거마로 55 (거여동지층)',37.4978579,127.1462713,퀸 노래연습장,0,0,0
4692,북가좌동,서울특별시 서대문구 응암로 104 (북가좌동2층)',37.5817546,126.9130368,SBS 노래연습장,0,0,0
6882,삼성동,서울특별시 강남구 테헤란로 423 지하1층 (삼성동 현대타워)',37.5061634,127.0530665,멜로디 노래연습장,0,0,1
10887,대림동,서울특별시 영등포구 대림로29길 34-1 지하1층 (대림동)',37.4944872,126.8960627,천지노래연습장,0,0,0
8842,사당동,서울특별시 동작구 사당로16길 21  (사당동지층)',37.4824468,126.9733031,시작 노래연습장,0,0,0
11625,면목동,서울특별시 중랑구 면목로37길 13 (면목동),37.5789753,127.0855953,세븐노래연습장,0,0,0
4585,녹번동,서울특별시 은평구 진흥로 148 3층 (녹번동),37.6084623,126.9263856,큐코인노래연습장 불광2호점,5,4,2
4375,상계동,서울특별시 노원구 한글비석로23길 38 지층 (상계동)',37.6591493,127.0709024,노다지노래연습장,0,0,0
4646,창천동,서울특별시 서대문구 연세로5가길 15 (창천동지층)',37.5571944,126.9357671,코쿤노래연습장,0,0,0
8458,쌍문동,서울특별시 도봉구 도봉로 585  (쌍문동지1층)',37.6572283,127.039407,샤방 노래연습장,0,0,0
2959,자양동,서울특별시 광진구 아차산로 361 (자양동지층)',37.5369605,127.0828891,산타모,0,0,0
3982,도봉동,서울특별시 도봉구 도봉로153길 14  (도봉동지1층)',37.6699979,127.0427405,까치,0,0,1
8979,상도동,서울특별시 동작구 상도로 136 지층 (상도동),37.5021601,126.9350368,월드노래연습장,0,0,0
8140,상계동,서울특별시 노원구 동일로 1644 (상계동),37.675152,127.0555991,수락,5,1,3
1605,중곡동,서울특별시 광진구 용마산로 9 (중곡동지층)',37.5544396,127.0882021,유니버셜,0,0,0
7160,오금동,서울특별시 송파구 마천로 149 (오금동),37.5044336,127.1360655,MBC노래연습장,0,0,0
6611,역촌동,서울특별시 은평구 서오릉로 93 (역촌동),37.6082416,126.9208058,신남노래연습장,0,0,0
7257,잠실동,서울특별시 송파구 백제고분로9길 35 지층 (잠실동)',37.5098536,127.0830414,진노래연습장,0,0,0
678,수유동,서울특별시 강북구 노해로 97 2층 (수유동)',37.6443092,127.0229586,프랜드 노래연습장,0,0,0
8172,상계동,서울특별시 노원구 상계로37길 10 (상계동),37.6707312,127.0792676,은혜,0,0,0
9047,도화동,서울특별시 마포구 마포대로4길 30 지하1층 (도화동)',37.5384415,126.9465849,부부 노래연습장,0,0,0
2379,행촌동,서울특별시 종로구 통일로12길 8 (행촌동),37.573195,126.9601006,강변노래연습장,0,0,0
6454,봉천동,서울특별시 관악구 봉천로 333 (봉천동),37.485442,126.9376626,웃음잔치,0,0,0
7793,갈현동,서울특별시 은평구 통일로 863-17 (갈현동),37.6202281,126.9192472,파티노래연습장,0,0,0
11716,묵동,서울특별시 중랑구 동일로 858 (묵동지하1층)',37.6070162,127.0787365,미소노래연습장,0,0,0
11418,무학동,서울특별시 중구 다산로 243  (무학동),37.5647486,127.0158539,센스,0,0,0
2559,한강로3가,서울특별시 용산구 한강대로15길 9 (한강로3가),37.5257506,126.9638863,용산,4,61,81
7036,역삼동,서울특별시 강남구 테헤란로43길 26 지하1층 (역삼동)',37.5048529,127.0441731,짱 노래연습장,0,0,0
1553,능동,서울특별시 광진구 천호대로112길 10 (능동지층)',37.5557567,127.081345,팝콘 노래연습장,0,0,0
3417,묵동,서울특별시 중랑구 공릉로 52 (묵동),37.6152869,127.0788926,스타노래방,0,0,0
6561,봉천동,서울특별시 관악구 은천로 24 (봉천동),37.4861244,126.9379319,대흥,0,0,0
2935,군자동,서울특별시 광진구 군자로 145 (군자동2층)',37.554563,127.075334,양지,0,0,0
2249,봉천동,서울특별시 관악구 남부순환로214길 41 지하1층 (봉천동),37.4798364,126.947559,우정,3.8,10,0
1825,개봉동,서울특별시 구로구 개봉로 9 (개봉동),37.4865468,126.8561874,라이브노래연습장,0,0,0
8138,월계동,서울특별시 노원구 석계로 9 4층 (월계동 성문내과)',37.615691,127.0644433,심포니,0,0,0
6684,양재동,서울특별시 서초구 남부순환로356길 18-5  (양재동),37.4840396,127.0375695,팡팡노래연습장,0,0,0
440,천호동,서울특별시 강동구 구천면로 140 3층 (천호동)',37.5422758,127.1204648,스타노래연습장,0,0,0
10641,신정동,서울특별시 양천구 신정중앙로23길 7 지하1층 (신정동)',37.5269371,126.8634083,둥지노래연습장,0,0,0
9295,홍제동,서울특별시 서대문구 홍제내길 128 (홍제동),37.5880233,126.9367415,스위스노래연습장,5,14,1
1287,신림동,서울특별시 관악구 봉천로 234 (신림동),37.4892379,126.9273614,샛별,0,0,0
5704,시흥동,서울특별시 금천구 은행나무로 49 (시흥동),37.451072,126.9077906,희,0,0,0
249,성내동,서울특별시 강동구 성내로 4 지하층 (성내동)',37.5304146,127.1211957,SBS노래연습장,0,0,0
1175,신림동,서울특별시 관악구 신림로11길 18-7 지하1층 (신림동)',37.4695474,126.9384306,발렌타인,0,0,0
5100,신정동,서울특별시 양천구 오목로 128 (신정동),37.5240993,126.8518182,테마노래연습장,0,0,0
3475,면목동,서울특별시 중랑구 겸재로 209 (면목동),37.5892868,127.0908264,서일노래연습장,0,0,0
2717,성수동1가,서울특별시 성동구 상원10길 4-1 (성수동1가),37.5491065,127.0485475,코코 노래연습장,0,0,3
6975,개포동,서울특별시 강남구 개포로 218 지하1층 (개포동 영신빌딩)',37.4785043,127.0466279,애플노래연습장,0,0,0
3719,수유동,서울특별시 강북구 삼각산로 151 지하동 (수유동)',37.6416691,127.0209173,팡팡노래방,0,0,0
8077,상계동,서울특별시 노원구 상계로 97 지층 (상계동 노원위너스빌딩),37.6570573,127.065678,뽀뽀,5,1,0
3018,중화동,서울특별시 중랑구 중랑역로 73-1 (중화동),37.6000839,127.0778578,궁전노래연습장,0,0,0
3797,미아동,서울특별시 강북구 도봉로38길 10 (미아동),37.6226024,127.0283441,명랑노래연습장,0,0,0
5361,화곡동,서울특별시 강서구 가로공원로76길 94  (화곡동),37.53303,126.8387037,메카노래연습장,0,0,0
35,일원동,서울특별시 강남구 일원로9길 10 지하1층 (일원동)',37.489443,127.0823911,가왕 노래연습장,0,0,0
828,화곡동,서울특별시 강서구 등촌로5길 100 (화곡동),37.5327847,126.8579004,모퉁이노래연습장,0,0,0
3952,수유동,서울특별시 강북구 한천로 1065 2층 (수유동)',37.6416182,127.0242582,썬 노래연습장,0,0,0
5069,신월동,서울특별시 양천구 남부순환로59길 14 (신월동지하1층),37.5322705,126.832661,메아리노래연습장,0,0,0
6374,봉천동,서울특별시 관악구 봉천로 609 지하1층 (봉천동)',37.4759892,126.9649334,우정,3.8,10,0
9552,양재동,서울특별시 서초구 동산로19길 49 (양재동),37.4746923,127.0455861,쿨노래연습장,0,0,0
2443,필동2가,서울특별시 중구 퇴계로44길 8-10 (필동2가지하1층)',37.5613369,126.9969993,미쳐날뛸 창 노래방,0,0,0
11263,갈현동,서울특별시 은평구 연서로27길 8-7 지층 (갈현동),37.6181273,126.9188038,락휴코인노래연습장,3,2,0
6950,일원동,서울특별시 강남구 일원로9길 10 지하1층 (일원동)',37.489443,127.0823911,가왕 노래연습장,0,0,0
11226,응암동,서울특별시 은평구 응암로 173 (응암동),37.5875164,126.9163008,필노래연습장,0,0,0
10544,신정동,서울특별시 양천구 목동동로8길 27 (신정동),37.5164537,126.8717084,SBS노래연습장,0,0,0
10963,당산동3가,서울특별시 영등포구 당산로32길 1-15 지하1층 (당산동3가),37.527172,126.8972857,코인박스,2.3,3,1
2678,금호동2가,서울특별시 성동구 무수막길 94 (금호동2가),37.5540822,127.0201548,신금호 노래연습장,0,0,0
9533,잠원동,서울특별시 서초구 신반포로47길 18-3 (잠원동지하1층),37.511601,127.0195077,벅스노래연습장,0,0,0
4056,창동,서울특별시 도봉구 마들로11길 65 지하1층 지하1호 (창동)',37.6534225,127.0496878,유정,0,0,0
10019,방이동,서울특별시 송파구 오금로11길 6 (방이동),37.5142431,127.1079722,야호노래연습장,0,0,0
5400,구로동,서울특별시 구로구 도림로 35 지층 (구로동)',37.4874906,126.8882044,태영노래연습장,0,0,0
6583,신림동,서울특별시 관악구 대학길 30 지하1층 (신림동),37.4694604,126.9376831,룰루랄라,0,0,0
11539,면목동,서울특별시 중랑구 답십리로77길 3 (면목동),37.5718194,127.0814179,부영노래연습장,0,0,0
1768,개봉동,서울특별시 구로구 고척로21나길 18 (개봉동지층)',37.5028773,126.8446757,유성노래연습장,0,0,0
1480,화양동,서울특별시 광진구 능동로13길 58 (화양동),37.5443629,127.0696943,로또,5,2,2
3823,수유동,서울특별시 강북구 삼양로 434 2층 (수유동)',37.6422895,127.0167604,가족 노래연습장,0,0,0
6358,봉천동,서울특별시 관악구 보라매로 7 지하1층 (봉천동)',37.4901228,126.9273803,시티노래연습장,0,0,0
6470,봉천동,서울특별시 관악구 봉천로 463 (봉천동),37.4825549,126.9514895,전국,1,1,0
8021,독산동,서울특별시 금천구 시흥대로122길 15 (독산동),37.4694856,126.8990551,궁전,0,0,0
10078,가락동,서울특별시 송파구 중대로9길 46 지층 (가락동),37.4970315,127.1190174,77노래연습장,0,0,0
5925,대림동,서울특별시 영등포구 도림로41길 9 (대림동),37.4947998,126.8978224,뉴스타노래연습장,0,0,0
9061,대흥동,서울특별시 마포구 독막로 266 지층 (대흥동 태영아파트상가 중앙동)',37.5446727,126.9425574,태영콘서트 노래연습장,0,0,0
10372,잠실동,서울특별시 송파구 백제고분로7길 55 지하1층 (잠실동)',37.5106817,127.0849874,팝스타코인노래연습장,4,1,0
9045,염리동,서울특별시 마포구 백범로26길 8 지하1층 (염리동)',37.5455749,126.9459855,옥소리노래연습장,3,2,1
6689,잠원동,서울특별시 서초구 신반포로47길 36 (잠원동(지하1층))',37.5123486,127.019045,청춘노래연습장,0,0,0
4552,망우동,서울특별시 중랑구 망우로 454 (망우동),37.6000927,127.1026978,짱노래연습장,0,0,0
5589,구로동,서울특별시 구로구 구로중앙로 4 (구로동),37.4908918,126.8929255,팡팡노래연습장,0,0,0
5099,신월동,서울특별시 양천구 월정로 14 (신월동),37.5212766,126.8438808,아싸노래연습장,0,0,0
479,강일동,서울특별시 강동구 아리수로93길 27 강일타워 306307호 (강일동)',37.5656316,127.1738307,101코인노래연습장 강일점,0,0,2
6235,노량진동,서울특별시 동작구 노량진로12길 12-6 (노량진동),37.5129389,126.938105,진진노래연습장,0,0,0
187,논현동,서울특별시 강남구 강남대로114길 14 지하1층 (논현동)',37.5058257,127.0254405,물음표 노래연습장,0,0,0
9793,행당동,서울특별시 성동구 행당로17길 26 3층 (행당동)',37.5606848,127.0330451,락휴 코인노래연습장 왕십리점,0,0,2
1017,화곡동,서울특별시 강서구 강서로5나길 77 지층 (화곡동),37.5281543,126.8438883,등대노래연습장,0,0,0
5169,마곡동,서울특별시 강서구 마곡중앙로 161-8 두산더랜드파크 C동 312313호 (마곡동)',37.5688514,126.8273386,비트노래연습장,0,0,0
9873,길음동,서울특별시 성북구 동소문로 231 서우철강빌딩 (길음동)',37.6028701,127.0223893,뉴타운 노래연습장,0,0,0
1020,방화동,서울특별시 강서구 양천로 94-1  (방화동지층A)',37.5732588,126.8144179,락노래연습장,0,0,0
916,화곡동,서울특별시 강서구 강서로5나길 31 (화곡동지하),37.5283526,126.8465206,정다운노래방,0,0,0
2841,구의동,서울특별시 광진구 아차산로49길 11  (구의동),37.5374017,127.0844769,스타노래방,0,0,0
11305,관철동,서울특별시 종로구 삼일대로19길 28 (관철동),37.5696695,126.986015,칼라노래연습장,0,0,0
6161,노량진동,서울특별시 동작구 노량진로 152-1 (노량진동),37.5134407,126.9428869,코인노래연습장,5,1,0
7020,신사동,서울특별시 강남구 압구정로2길 60 지하2층동 (신사동)',37.5179388,127.0213304,물,0,0,0
282,암사동,서울특별시 강동구 구천면로 313 (암사동),37.5476825,127.1348282,정화,0,0,0
9944,안암동5가,서울특별시 성북구 고려대로24길 51 지1층 (안암동5가)',37.5839306,127.0297329,닥터브이 코인노래연습장,0,0,1
6870,대치동,서울특별시 강남구 테헤란로82길 11 지하1층 (대치동)',37.5062372,127.058096,스타 노래연습장,5,1,0
864,등촌동,서울특별시 강서구 양천로 460 (등촌동),37.5625888,126.851709,sky,0,0,0
2727,성수동1가,서울특별시 성동구 상원길 38 (성수동1가),37.5473043,127.0487997,팡팡노래연습장,0,0,0
8034,문래동3가,서울특별시 영등포구 선유로 54 2층 (문래동3가),37.5188037,126.8894076,헬로코인노래연습장,5,2,0
6273,사당동,서울특별시 동작구 동작대로27가길 6  (사당동5층)',37.4873131,126.9809888,프로방스 노래연습장,0,1,0
10351,가락동,서울특별시 송파구 송이로20길 20 지층 (가락동)',37.4955846,127.1194236,씽씽노래연습장,0,0,0
1717,화양동,서울특별시 광진구 아차산로29길 28 지하1층 (화양동)',37.5421048,127.0688176,BJ stage 코인노래연습장,0,0,1
4757,망원동,서울특별시 마포구 망원로 24 3층 (망원동)',37.556119,126.8996206,토마토노래연습장,2,1,0
6592,봉천동,서울특별시 관악구 봉천로 616 지하1층 (봉천동),37.4754416,126.9655025,행운노래연습장,0,0,0
8745,장안동,서울특별시 동대문구 사가정로25길 23 지하1층 (장안동)',37.5799736,127.0704022,그린,4.4,14,137
2148,가산동,서울특별시 금천구 남부순환로112길 31 (가산동),37.4774069,126.8942765,팡팡,0,0,0
7096,가락동,서울특별시 송파구 송이로17길 29 (가락동),37.4999627,127.1235566,투투,0,0,0
10383,마천동,서울특별시 송파구 마천로41길 1 3층 (마천동),37.4974251,127.1477889,힐링노래연습장,0,0,0
10669,대림동,서울특별시 영등포구 대림로29길 42 (대림동),37.4940823,126.895408,안전지대노래방,0,0,0
732,수유동,서울특별시 강북구 한천로140길 21 2층 (수유동)',37.6409226,127.0274278,마돈나 노래연습장,0,0,0
7305,방이동,서울특별시 송파구 올림픽로32길 24 지층 (방이동)',37.513892,127.1094706,SBS노래연습장,0,0,0
6846,역삼동,서울특별시 강남구 테헤란로6길 47 3층 (역삼동)',37.4955878,127.0318485,노래야노래야코인노래연습장,0,0,0
11129,신사동,서울특별시 은평구 갈현로1길 20 (신사동),37.5994601,126.9080806,가람노래연습장,0,0,0
8580,방학동,서울특별시 도봉구 방학로 155  (방학동지층)',37.6623268,127.0349522,황제노래연습장,0,0,0
8708,답십리동,서울특별시 동대문구 답십리로 145-1 지하1층 (답십리동)',37.5730792,127.0563406,킹,5,1,0
10125,석촌동,서울특별시 송파구 백제고분로 358  (석촌동),37.5043026,127.1061158,뉴타운,0,0,0
1318,신림동,서울특별시 관악구 신림로 359 3층 (신림동)',37.4863437,126.9290879,엔젤스코인노래연습장,5,2,4
2312,가락동,서울특별시 송파구 중대로9길 22 2층 (가락동),37.4950994,127.1193134,꿀잼노래연습장,0,0,0
9205,연남동,서울특별시 마포구 동교로 233 지하1층 B01호 (연남동)',37.5609199,126.9240616,솔 노래연습장,0,0,0
1408,봉천동,서울특별시 관악구 은천로 28 봉일프라자 가동 2층 (봉천동)',37.4858874,126.9383973,슈노래연습장,0,0,0
6105,대림동,서울특별시 영등포구 도림로38길 6-1 지하1층 (대림동)',37.4924357,126.8973723,오페라노래연습장,0,0,0
4102,도봉동,서울특별시 도봉구 도봉로 879 (도봉동지하 1층)',37.6829914,127.0456238,OK 노래연습장,0,0,0
2404,창신동,서울특별시 종로구 종로 325 (창신동 글라스타워)',37.5727551,127.0137248,파라오노래연습장,0,0,0
11106,역촌동,서울특별시 은평구 역말로 20 (역촌동 역촌빌딩),37.6054876,126.9125956,동네노래연습장,0,0,0
11694,중화동,서울특별시 중랑구 봉화산로 38 (중화동),37.6014483,127.078483,123 노래연습장,0,0,0
2455,신당동,서울특별시 중구 다산로 222 (신당동),37.5628689,127.0156043,쿨,0,0,0
11687,묵동,서울특별시 중랑구 동일로163길 17 (묵동),37.6118247,127.0763393,팝콘노래연습장,0,0,0
836,가양동,서울특별시 강서구 양천로57길 9-8 지층 (가양동),37.5636743,126.8517826,MBC노래연습장,0,0,0
3191,신설동,서울특별시 동대문구 왕산로2길 18 지하1층 (신설동)',37.5753686,127.025175,앵콜,0,0,0
11676,면목동,서울특별시 중랑구 면목로35길 35 (면목동),37.5787185,127.0840144,수노래연습장,0,0,0
6933,삼성동,서울특별시 강남구 삼성로 517 (삼성동 채널리저브 지하1층 107호),37.5079778,127.0555281,솔레미오 노래연습장,0,0,0
1432,자양동,서울특별시 광진구 뚝섬로 484  (자양동지층)',37.5362727,127.0640407,25시노래연습장,0,0,0
9672,행당동,서울특별시 성동구 행당로 76 (행당동),37.5562721,127.0276153,가보자 노래방,0,0,0
9783,행당동,서울특별시 성동구 마조로3가길 27 B1층 (행당동)',37.5597675,127.0400695,리코스타 코인노래연습장,3,1,0
4530,상봉동,서울특별시 중랑구 봉우재로33길 65 (상봉동지상2층),37.5952299,127.0888905,칸노래연습장,0,0,0
11734,망우동,서울특별시 중랑구 양원역로 5 (망우동지하1층)',37.6011076,127.1081352,킴스노래연습장,0,0,0
849,등촌동,서울특별시 강서구 화곡로63길 137 지층 (등촌동)',37.5588337,126.8454862,신선노래연습장,0,0,0
9836,동선동1가,서울특별시 성북구 동소문로24길 23 지1층 (동선동1가),37.5926417,127.0189936,로데오 노래연습장,0,0,0
545,우이동,서울특별시 강북구 삼양로173길 35 993동 0317호 (우이동)',37.6625638,127.0105699,백운대노래연습장,0,0,0
11746,상봉동,서울특별시 중랑구 망우로30길 22 (상봉동지하)',37.5923708,127.0746894,필노래연습장,0,0,0
9037,망원동,서울특별시 마포구 월드컵로 149 지하1층 (망원동)',37.5609695,126.9053264,즐거운 노래연습장,0,0,0
4206,신월동,서울특별시 양천구 가로공원로 119 (신월동지층),37.5363767,126.8291665,테마노래연습장,0,0,0
166,역삼동,서울특별시 강남구 강남대로110길 11 (역삼동),37.5040642,127.0257389,앵콜 노래연습장,0,0,0
10092,방이동,서울특별시 송파구 올림픽로32길 33 (방이동),37.5135819,127.1101098,당신노래연습장,0,0,0
9208,동교동,서울특별시 마포구 월드컵북로2길 93 지하1층 (동교동)',37.5587637,126.9248156,락휴 코인노래연습장 홍대연남점,0,0,3
2258,관철동,서울특별시 종로구 삼일대로19길 19 (관철동(34층)),37.5694803,126.9863469,프라하,3.2,13,0
6390,신림동,서울특별시 관악구 신림로 324 지하1층 (신림동)',37.4832016,126.9300025,스타버스코인노래연습장,5,1,1
7922,잠실동,서울특별시 송파구 백제고분로9길 25 (잠실동),37.5096981,127.081968,더원노래연습장,0,0,0
3456,상봉동,서울특별시 중랑구 봉우재로 157 (상봉동(2층))',37.5937292,127.0904737,앵콜노래연습장,0,0,0
2475,신당동,서울특별시 중구 다산로10길 26 (신당동지하1층)',37.5530165,127.0114814,신안,0,0,0
1958,구로동,서울특별시 구로구 새말로16길 18 (구로동),37.5047227,126.8905034,WA노래연습장,0,0,0
6316,사당동,서울특별시 동작구 동작대로1길 16 (사당동2층)',37.47742,126.9804827,짱노래연습장,0,0,0
10918,당산동3가,서울특별시 영등포구 당산로28길 4 지하1층 (당산동3가 송암빌딩)',37.5246691,126.8969432,OK노래연습장,0,0,0
9757,용답동,서울특별시 성동구 용답중앙15길 2  (용답동),37.5638109,127.0531153,파티파티 노래연습장,0,0,0
543,수유동,서울특별시 강북구 도봉로87길 8 3층동 (수유동)',37.6383972,127.0252009,스카이노래방,0,0,0
10697,영등포동,서울특별시 영등포구 영신로9길 4 (영등포동),37.5130996,126.9084564,코러스노래연습장,0,0,0
8709,이문동,서울특별시 동대문구 휘경로 29-5 지하1층 (이문동)',37.5953838,127.0633497,둥근달,0,0,0
5725,시흥동,서울특별시 금천구 독산로 74-1 2층 (시흥동)',37.4540155,126.9062881,아성,5,1,0
4340,상계동,서울특별시 노원구 상계로 55 지층 2호 (상계동 위성프라자),37.6560588,127.0611963,위성Q,0,0,0
7607,길동,서울특별시 강동구 양재대로 1466 지하1층 (길동)',37.5367599,127.1398828,로미오,0,0,0
5735,가산동,서울특별시 금천구 가산로 134 2층 (가산동)',37.4774789,126.8917933,중앙 노래연습장,0,0,0
4277,상계동,서울특별시 노원구 동일로241가길 6 지층 (상계동)',37.6765942,127.0546328,자메이카 코인노래연습장 수락산점,5,5,2
1,일원동,서울특별시 강남구 일원로5길 8 지하1층 (일원동),37.4907964,127.081603,로즈노래연습장,0,0,0
1249,봉천동,서울특별시 관악구 봉천로 485 2층 (봉천동)',37.482138,126.9539093,둥지,0,0,0
317,둔촌동,서울특별시 강동구 명일로13길 19 지층 (둔촌동),37.5336981,127.1437287,퍼플 노래연습장,0,0,0
9344,홍제동,서울특별시 서대문구 통일로 424 지하층 (홍제동)',37.5872139,126.9463831,베스타코인노래연습장,0,0,0
631,수유동,서울특별시 강북구 한천로140길 26 2층 (수유동)',37.6409648,127.0277764,스크린노래방,0,0,0
5623,구로동,서울특별시 구로구 공원로6나길 18 (구로동),37.5037653,126.8909805,퀸노래연습장,0,0,0
8277,상계동,서울특별시 노원구 동일로242가길 28 3층 (상계동),37.6771302,127.0560248,로또,2.4,19,15
1021,방화동,서울특별시 강서구 양천로 94-1  (방화동지층B)',37.5732588,126.8144179,맥스노래연습장,0,0,0
7662,성내동,서울특별시 강동구 풍성로37가길 17 (성내동),37.5333112,127.1273123,발리노래연습장,0,0,0
11511,면목동,서울특별시 중랑구 동일로109길 54 (면목동),37.5915337,127.0771861,큐노래연습장,0,0,0
8724,이문동,서울특별시 동대문구 신이문로28길 4 지하1층 (이문동),37.6027465,127.0668487,따봉,2.7,14,33
5030,목동,서울특별시 양천구 목동동로 293 (목동),37.5281774,126.8757769,타워노래연습장,0,0,0
10898,대림동,서울특별시 영등포구 대림로7나길 2 2층 (대림동),37.4894543,126.9037805,궁노래연습장,0,0,0
7545,둔촌동,서울특별시 강동구 명일로 171 지층 (둔촌동)',37.5341131,127.1446234,슈스K코인노래연습장,5,1,0
5106,신월동,서울특별시 양천구 오목로 62 지하1층 (신월동)',37.5223687,126.8444449,파브노래연습장,0,0,0
6869,논현동,서울특별시 강남구 강남대로114길 14 지하1층 (논현동)',37.5058257,127.0254405,물음표 노래연습장,0,0,0
486,수유동,서울특별시 강북구 도봉로67길 지하 8 지1층 (수유동)',37.6151172,127.0295942,딩동댕 노래연습장,0,0,0
406,길동,서울특별시 강동구 양재대로 1448 지층 (길동)',37.5350777,127.1393389,쟁반,0,0,0
7188,가락동,서울특별시 송파구 오금로46길 17 (가락동),37.4957776,127.1354966,앵콜,0,0,0
10187,오금동,서울특별시 송파구 마천로 143 지층 (오금동),37.5046347,127.1355178,친구노래연습장,0,0,0
11060,원효로2가,서울특별시 용산구 원효로 184 2층 (원효로2가)',37.535917,126.9630822,대박노래연습장,0,0,0
3304,상봉동,서울특별시 중랑구 망우로32길 23 (상봉동),37.5929548,127.0771231,팡팡노래연습장,0,0,0
5706,시흥동,서울특별시 금천구 시흥대로52길 24 (시흥동),37.4524538,126.9025116,쟁반,0,0,0
10574,신월동,서울특별시 양천구 신월로 173 (신월동),37.5187006,126.8422888,궁전노래연습장,0,0,0
4586,불광동,서울특별시 은평구 통일로 728 지하1층 (불광동),37.6105799,126.9301915,큐코인노래연습장,0,0,0
6854,개포동,서울특별시 강남구 선릉로6길 13 지하1층 (개포동)',37.4830158,127.0619948,파티 노래연습장,0,0,0
3872,번동,서울특별시 강북구 도봉로 382 지층 (번동)',37.6407906,127.0289866,만남 노래연습장,0,0,0
11291,관철동,서울특별시 종로구 종로10길 13 (관철동),37.5694554,126.9845961,락,0,0,0
5778,독산동,서울특별시 금천구 독산로64길 5 지하1층 (독산동)',37.4649976,126.9029444,현대,1.8,5,10
2446,황학동,서울특별시 중구 퇴계로 449-23 (황학동(지하1층))',37.5658986,127.022514,에쿠스,0,0,0
10770,대림동,서울특별시 영등포구 디지털로54길 3 지하1층 (대림동 동보빌딩)',37.4905064,126.9017221,동보노래연습장,0,0,0
895,화곡동,서울특별시 강서구 강서로5나길 47 (화곡동지층 (강서로5나길47)),37.528346,126.8455705,월드노래방,0,0,0
9569,양재동,서울특별시 서초구 남부순환로356길 37 (양재동2층)',37.483345,127.0383214,K2노래연습장,0,0,0
3371,면목동,서울특별시 중랑구 사가정로 363-1 (면목동),37.5811864,127.085043,작은별노래연습장,0,0,0
34,역삼동,서울특별시 강남구 강남대로96길 12 A동 지하1층 1호 (역삼동)',37.4997492,127.028088,마돈나 노래연습장,1,3,0
4005,쌍문동,서울특별시 도봉구 도봉로 451 지하층 (쌍문동),37.6463434,127.032972,쌍문25노래연습장,0,0,0
11458,을지로6가,서울특별시 중구 을지로43길 38 지하1층 (을지로6가)',37.5677105,127.0077855,뮤직이너스 노래연습장,2,1,3
3291,면목동,서울특별시 중랑구 겸재로 181 (면목동),37.5886591,127.0878011,초원노래방,1,1,0
251,성내동,서울특별시 강동구 천호대로158길 18 (성내동),37.5366884,127.1262363,썸 노래연습장,0,0,0
11325,인사동,서울특별시 종로구 삼일대로 401-16 (인사동),37.5705631,126.9865234,좋아좋아노래방,0,0,0
3054,답십리동,서울특별시 동대문구 답십리로 233 지하1층 (답십리동)',37.5729841,127.0661177,터보2,0,0,0
5037,신월동,서울특별시 양천구 화곡로 103 (신월동지층)',37.5399573,126.833356,브이아이피노래연습장,0,0,0
6775,방배동,서울특별시 서초구 방배천로 40-2 지층 (방배동)',37.4801458,126.9827209,나우노래연습장,0,0,0
4096,도봉동,서울특별시 도봉구 도봉로153길 30 (도봉동),37.6700597,127.0417269,수 노래연습장,0,0,0
10582,신정동,서울특별시 양천구 오목로50길 23 (신정동 지하1층)',37.523934,126.8643999,파티파티노래연습장,0,0,0
6242,사당동,서울특별시 동작구 동작대로 29 (사당동),37.4791409,126.9813586,궁전노래연습장,0,0,0
6302,사당동,서울특별시 동작구 동작대로7길 59 (사당동지하)',37.4781757,126.9792084,천지 노래연습장,5,1,0
4720,창천동,서울특별시 서대문구 연세로 20  (창천동지층)',37.5574794,126.9370688,X,3,2,21
10000,삼전동,서울특별시 송파구 백제고분로 257 (삼전동),37.5027748,127.0951632,앵콜,0,0,0
3415,신내동,서울특별시 중랑구 신내로 110 B동 지층 (신내동 상가)',37.6084327,127.0961334,거래처노래연습장,0,0,0
11678,상봉동,서울특별시 중랑구 상봉중앙로 62 (상봉동(지층))',37.6027832,127.0873743,성민노래연습장,0,0,0
4406,중계동,서울특별시 노원구 한글비석로22길 18 지층 (중계동)',37.6603791,127.0734423,팡팡,0,0,0
886,방화동,서울특별시 강서구 양천로14길 6 지층 (방화동)',37.5728755,126.8101145,천지노래연습장,0,0,0
9576,서초동,서울특별시 서초구 서초대로46길 99  (서초동),37.4901902,127.013499,조이노래연습장,0,0,0
706,수유동,서울특별시 강북구 노해로 41  (수유동2층)',37.6393128,127.0224701,삼삼노래연습장,0,0,0
8430,도봉동,서울특별시 도봉구 도봉로169나길 46  (도봉동지1층)',37.6775826,127.0435977,SBS노래연습장,0,0,0
8873,상도동,서울특별시 동작구 국사봉1길 33  (상도동),37.4991239,126.9303805,네박자노래연습장,0,0,0
10262,잠실동,서울특별시 송파구 올림픽로 104  (잠실동),37.5114721,127.0822888,엔,0,0,10
408,성내동,서울특별시 강동구 양재대로85길 14 2층 (성내동)',37.524597,127.1340446,락,0,0,0
851,화곡동,서울특별시 강서구 화곡로 226 지층 (화곡동)',37.5452415,126.844828,스타노래연습장,0,0,0
3309,망우동,서울특별시 중랑구 양원역로 14 (망우동),37.6017337,127.1083448,소리골 노래연습장,0,0,0
6346,신림동,서울특별시 관악구 난곡로66길 15 2층 (신림동),37.4827312,126.9152784,정,0,0,0
10869,대림동,서울특별시 영등포구 도림로 132 (대림동지하1층)',37.4927527,126.8970031,자기야노래연습장,0,0,0
4590,화곡동,서울특별시 강서구 곰달래로 233-1 2층 (화곡동),37.5319211,126.8590224,파랑새노래연습장,0,0,0
224,세곡동,서울특별시 강남구 헌릉로569길 13 2층 201202호 (세곡동 라온프라이빗시티강남)',37.466816,127.1000393,라온노래연습장,1,1,0
10511,신월동,서울특별시 양천구 오목로 55 (신월동지층)',37.5222049,126.8436488,갈채노래연습장,0,0,0
3286,면목동,서울특별시 중랑구 봉우재로 59 (면목동),37.5913427,127.0796425,로타리노래연습장,0,0,0
8408,쌍문동,서울특별시 도봉구 도봉로 519  (쌍문동2층)',37.6519557,127.0363417,사계절,0,0,0
7366,잠실동,서울특별시 송파구 백제고분로7길 20 (잠실동),37.5105115,127.0810293,뮤즈 노래연습장,0,0,0
2346,관철동,서울특별시 종로구 삼일대로19길 28 (관철동),37.5696695,126.986015,칼라노래연습장,0,0,0
11701,망우동,서울특별시 중랑구 용마산로 514 (망우동지하1층)',37.5968714,127.1005041,커플노래연습장,0,0,0
9956,문정동,서울특별시 송파구 문정로4길 34 (문정동),37.4834,127.1261973,MBC,0,0,0
4070,창동,서울특별시 도봉구 도봉로 586  (창동),37.6568669,127.0400276,큐 노래연습장,0,0,0
4388,상계동,서울특별시 노원구 노해로81길 12-21 4층 (상계동),37.6557669,127.0634066,악쓰는 하마,2,4,2
8604,창동,서울특별시 도봉구 덕릉로59길 25  (창동지층)',37.6407644,127.0381589,요요 노래연습장,0,0,0
7279,가락동,서울특별시 송파구 중대로12길 8 (가락동),37.4939987,127.1232764,열린,0,0,0
1896,개봉동,서울특별시 구로구 개봉로 49 (개봉동(지층))',37.490091,126.855808,스카이노래연습장,0,0,0
1370,신림동,서울특별시 관악구 난곡로26길 10 (신림동),37.4705455,126.920419,난곡노래연습장,0,0,0
9483,반포동,서울특별시 서초구 사평대로55길 20  (반포동지하1층)',37.5050046,127.0227216,119노래연습장,0,0,0
4985,신정동,서울특별시 양천구 중앙로46길 7 (신정동지하1층),37.5222131,126.852974,로또노래연습장,0,0,0
4491,창천동,서울특별시 서대문구 연세로9길 24 (창천동),37.5586414,126.9355015,오렌지노래연습장,0,0,0
7659,길동,서울특별시 강동구 명일로 249 (길동),37.5409501,127.1468819,악쓰는하마,3,1,0
10196,방이동,서울특별시 송파구 가락로 241 (방이동),37.5098142,127.1177765,컴백,0,0,0
4803,마곡동,서울특별시 강서구 마곡중앙8로 85 파인스퀘어Ⅱ B105B106B107호 (마곡동),37.5611255,126.8369854,K노래연습장,0,0,0
11608,상봉동,서울특별시 중랑구 면목로 465 (상봉동),37.5934963,127.0860449,MBC노래연습장,0,0,0
8547,창동,서울특별시 도봉구 덕릉로57길 14  (창동),37.6395097,127.0377467,앵콜노래방,0,0,0
10986,여의도동,서울특별시 영등포구 여의대방로 379 제일빌딩 304호 (여의도동)',37.5191451,126.9309372,민트박스,5,1,1
5300,등촌동,서울특별시 강서구 화곡로61길 100 2층 (등촌동 청석빌딩)',37.5584429,126.847031,원 노래연습장,0,0,0
10084,풍납동,서울특별시 송파구 풍성로25길 39 (풍납동),37.5368693,127.1213692,악쓰는하마,0,0,0
7551,명일동,서울특별시 강동구 양재대로134길 14 (명일동),37.5475709,127.1443374,스타노래연습장,0,0,0
7050,신사동,서울특별시 강남구 도산대로37길 18 2층 (신사동)',37.522124,127.0315304,입큰 노래연습장,0,0,0
6091,대림동,서울특별시 영등포구 도신로 36 지하1층 (대림동)',37.5045659,126.8970648,가보세노래연습장,0,0,0
3857,미아동,서울특별시 강북구 도봉로30길 16 지하동 (미아동)',37.6209589,127.0294298,스카이노래방,0,0,0
2509,원효로2가,서울특별시 용산구 원효로 184 2층 (원효로2가)',37.535917,126.9630822,대박노래연습장,0,0,0
2348,체부동,서울특별시 종로구 자하문로 5  (체부동(지상3층))',37.5766265,126.9722431,경희궁,4.1,17,88
4136,방학동,서울특별시 도봉구 도당로 90 지층 (방학동)',37.665324,127.0369254,대박,0,0,0
11603,묵동,서울특별시 중랑구 중랑역로 179 (묵동지하)',37.6094506,127.0760791,노래마을노래연습장,0,0,0
8313,상계동,서울특별시 노원구 동일로218길 29 지층 (상계동 우진빌딩)',37.6540254,127.0624899,제일노래연습장,0,0,0
2051,시흥동,서울특별시 금천구 금하로24길 4  (시흥동),37.4507891,126.9081187,뮤즈21,0,0,0
6703,잠원동,서울특별시 서초구 강남대로97길 17 (잠원동),37.5145988,127.0188582,열창노래연습장,0,0,0
10080,석촌동,서울특별시 송파구 백제고분로39길 5 (석촌동),37.5050576,127.1050116,팡팡노래연습장,0,0,0
1357,봉천동,서울특별시 관악구 남부순환로230길 14 지하1층 (봉천동)',37.4794518,126.9553111,월드 노래연습장,3.7,6,0
4994,신월동,서울특별시 양천구 오목로 77 (신월동지층)',37.5231196,126.8461062,아하노래연습장,0,0,0
4369,중계동,서울특별시 노원구 덕릉로 663 지층 (중계동 이화공인중개사)',37.656799,127.0745481,마들노래연습장,0,0,0
6434,신림동,서울특별시 관악구 봉천로 230 2층 (신림동)',37.4893285,126.9270827,뮤직박스,0,0,0
8545,방학동,서울특별시 도봉구 도당로 142 (방학동),37.6670385,127.0420187,KBS노래연습장,0,0,0
6102,도림동,서울특별시 영등포구 도신로 145 2층 (도림동),37.5096872,126.9076568,월드노래연습장,0,0,0
7564,명일동,서울특별시 강동구 양재대로141길 6 (명일동),37.5512507,127.143633,명일 코인노래연습장,0,0,0
5118,응암동,서울특별시 은평구 응암로 169 (응암동),37.5872194,126.9162239,피플노래연습장,0,0,0
3562,정릉동,서울특별시 성북구 보국문로 43 야원빌딩 지1층 (정릉동)',37.6081881,127.0098725,뮤젠 노래연습장,0,0,0
5189,공항동,서울특별시 강서구 송정로 70 (공항동지층[좌측] (송정로70))',37.5609625,126.8099786,스타노래연습장,0,0,0
5008,신정동,서울특별시 양천구 목동동로 65 202호 (신정동 센타프라자),37.5155786,126.8621824,슈퍼스타 코인노래연습장,5,1,0
6962,역삼동,서울특별시 강남구 논현로85길 7 (역삼동),37.4989891,127.0368362,뮤즈 노래연습장,0,0,0
2281,망원동,서울특별시 마포구 방울내로 67 2층 (망원동),37.5601331,126.9027725,두바이 노래연습장,0,0,0
11464,면목동,서울특별시 중랑구 사가정로 385 (면목동),37.5809504,127.0874748,썬 노래연습장,0,0,0
8904,노량진동,서울특별시 동작구 만양로 100 (노량진동),37.5123799,126.9444117,OK,5,1,1
3096,청량리동,서울특별시 동대문구 홍릉로 28 (청량리동),37.5828296,127.0446981,한양,2.3,3,0
9900,종암동,서울특별시 성북구 종암로21가길 4 세창한의원 2층 (종암동)',37.5990923,127.0339416,스타 노래연습장,0,0,0
10690,당산동2가,서울특별시 영등포구 선유동1로 4 2층 (당산동2가)',37.5224552,126.8916547,샤방샤방노래연습장,0,0,0
5796,가산동,서울특별시 금천구 가산로 147  (가산동),37.4783802,126.8904634,죠이,0,0,1
1065,화곡동,서울특별시 강서구 강서로5나길 83 3층 (화곡동)',37.5281847,126.8436264,팰리스노래연습장,5,3,0
426,성내동,서울특별시 강동구 양재대로89가길 42 지층 (성내동)',37.5247842,127.1341068,땡겨노래연습장,0,0,0
5854,신사동,서울특별시 은평구 가좌로 322 (신사동),37.5963637,126.9096493,동심초노래방,0,0,0
6319,상도동,서울특별시 동작구 상도로 88 (상도동),37.4996278,126.9306145,조아조아노래연습장,0,0,0
7101,방이동,서울특별시 송파구 오금로13길 12 (방이동),37.5133442,127.1092124,애플노래연습장,5,1,0
1053,화곡동,서울특별시 강서구 곰달래로60길 17 2층 (화곡동),37.5315213,126.8632443,세븐노래연습장,0,0,0
10420,삼전동,서울특별시 송파구 백제고분로 206 경인빌딩 지하1층 (삼전동)',37.5036709,127.0895418,코드코인노래연습장,5,4,0
6083,영등포동,서울특별시 영등포구 영신로19길 18 (영등포동(지하1층)),37.5139592,126.9057738,칸노래연습장,0,0,0
6237,노량진동,서울특별시 동작구 노량진로8길 20 지층 (노량진동 안정모치과)',37.5126162,126.9364947,뮤직박스 코인노래연습장,5,1,1
10742,대림동,서울특별시 영등포구 디지털로 392 (대림동지하1층)',37.491652,126.9027366,파란 노래연습장,0,0,0
1917,구로동,서울특별시 구로구 공원로6나길 26 (구로동),37.5040094,126.891432,앗싸 노래연습장,0,0,0
10124,잠실동,서울특별시 송파구 백제고분로9길 35 지층 (잠실동)',37.5098536,127.0830414,진노래연습장,0,0,0
6576,신림동,서울특별시 관악구 남부순환로149길 10 지하1층 (신림동)',37.4827068,126.9161422,체인지,0,0,0
3235,망우동,서울특별시 중랑구 용마산로115길 84 (망우동),37.5982886,127.0956999,스카이노래연습장,0,0,0
8318,상계동,서울특별시 노원구 한글비석로23길 38 지층 (상계동)',37.6591493,127.0709024,노다지노래연습장,0,0,0
2409,관철동,서울특별시 종로구 종로12길 14 3층 (관철동 해덕빌딩)',37.5694449,126.9855994,드림코인노래연습장,4.4,7,24
960,가양동,서울특별시 강서구 양천로 349 2층 (가양동),37.5685256,126.8416654,MBC노래연습장,0,0,0
6987,삼성동,서울특별시 강남구 봉은사로 467 (삼성동 2층202)',37.5125295,127.0506552,엠 노래연습장,0,0,0
2263,봉천동,서울특별시 관악구 관악로17길 46 아비숑 (봉천동),37.4810938,126.9492144,에이스,0,0,2
4932,신정동,서울특별시 양천구 신정중앙로 67 (신정동2층),37.5270692,126.8593919,채플린노래연습장신정점,0,0,0
8416,도봉동,서울특별시 도봉구 도봉로 891 (도봉동지하)',37.6840298,127.0457369,오란다,0,0,0
9831,석관동,서울특별시 성북구 돌곶이로8길 25 지1층 (석관동)',37.6070929,127.0626991,산천 노래연습장,0,0,0
11594,상봉동,서울특별시 중랑구 망우로 210 (상봉동),37.5936729,127.0760074,OK노래연습장,0,0,1
9218,상암동,서울특별시 마포구 월드컵북로44길 49 지하1층 (상암동)',37.5768334,126.8947454,럭키코인 노래연습장,3.5,2,0
7831,신사동,서울특별시 은평구 은평로 5 (신사동),37.5967735,126.9092234,도미솔노래방,0,0,0
1670,구의동,서울특별시 광진구 자양로18길 44 (구의동지하1층),37.5378775,127.0859724,올레,0,0,0
3578,삼선동1가,서울특별시 성북구 삼선교로10길 16 2층 (삼선동1가)',37.5872207,127.0091266,리코스타 코인노래연습장,5,1,0
5581,구로동,서울특별시 구로구 구로중앙로 6 (구로동),37.4911045,126.8927794,북경노래연습장,0,0,0
11578,면목동,서울특별시 중랑구 면목로 302 (면목동),37.5792568,127.0872833,소리모아노래연습장,0,0,0
492,미아동,서울특별시 강북구 솔매로 59 지층 (미아동)',37.6249909,127.0188365,대성 노래방,0,0,0
8866,사당동,서울특별시 동작구 사당로 192 (사당동지층)',37.4851788,126.9695349,라이브노래연습장,0,0,0
9087,노고산동,서울특별시 마포구 백범로 19 지하1층 (노고산동)',37.5529867,126.9375041,친구 노래연습장,0,0,0
4256,상계동,서울특별시 노원구 한글비석로24길 57 지층 (상계동),37.6630853,127.0733367,명가노래연습장,0,0,0
2642,금호동4가,서울특별시 성동구 장터길 22  (금호동4가),37.5482261,127.0182714,탈렌트노래연습장,0,0,0
3132,답십리동,서울특별시 동대문구 황물로 179 지상2층 (답십리동)',37.5649641,127.0574987,신선,0,0,0
9683,성수동2가,서울특별시 성동구 동일로 41  (성수동2가),37.5369345,127.0605962,호박노래연습장,0,0,0
6320,사당동,서울특별시 동작구 사당로 222-1 (사당동지하1층)',37.4837926,126.9724589,K2 노래연습장,0,0,0
3325,면목동,서울특별시 중랑구 면목로56길 26 (면목동),37.5839378,127.089778,SBS노래연습장,0,0,0
2204,가산동,서울특별시 금천구 가산로 147-7 지하1층 (가산동),37.4780281,126.8904028,빵빵노래연습장,0,0,0
7884,상계동,서울특별시 노원구 상계로 74 지층 (상계동),37.6560481,127.0631448,악쓰는하마코인,0,0,0
6705,잠원동,서울특별시 서초구 강남대로101안길 8  (잠원동),37.5166403,127.0180384,해피노래연습장,0,0,0
6036,대림동,서울특별시 영등포구 대림로 88 (대림동2층)',37.4901063,126.9045779,북경 노래연습장,0,0,0
10563,신월동,서울특별시 양천구 신월로10길 16 201호 (신월동 삼성상가)',37.5159339,126.8406723,앵두노래연습장,0,0,0
2675,행당동,서울특별시 성동구 마조로 15-3 (행당동),37.5590734,127.0405082,채널VJ노래연습장,5,1,0
815,등촌동,서울특별시 강서구 등촌로 223-1 (등촌동),37.5497542,126.8634318,에이스노래연습장,0,0,0
3126,답십리동,서울특별시 동대문구 전농로 91 지하1층 (답십리동)',37.573302,127.0570221,웰빙,0,0,0
8594,창동,서울특별시 도봉구 덕릉로54길 8 (창동지1층)',37.6374928,127.0377302,세븐 노래연습장,5,1,1
90,역삼동,서울특별시 강남구 역삼로20길 12 지하1층 (역삼동 성우빌딩)',37.4944557,127.0376446,스타 노래연습장,0,0,0
584,미아동,서울특별시 강북구 도봉로8길 35 지층 (미아동)',37.6122502,127.0320864,카스,0,0,0
8063,정릉동,서울특별시 성북구 정릉로38나길 2 지1층 (정릉동),37.60189,127.018902,컬투 노래연습장,0,0,0
7182,석촌동,서울특별시 송파구 백제고분로40길 35 (석촌동),37.5018655,127.1081014,황제노래연습장,0,0,0
7557,성내동,서울특별시 강동구 천호대로176길 19 지하1층 (성내동)',37.5335768,127.1363062,MBC노래연습장,0,0,0
2883,구의동,서울특별시 광진구 천호대로129길 16  (구의동(지상2층))',37.5526236,127.0906806,BMW노래연습장,0,0,0
7601,명일동,서울특별시 강동구 동남로75길 13-10 지층 (명일동)',37.5539195,127.1550552,악쓰는하마,0,0,0
1152,신림동,서울특별시 관악구 조원로 6 정화빌딩 (신림동)',37.4834141,126.9027618,둘리노래연습장,0,0,0
11760,상봉동,서울특별시 중랑구 면목로 484 2층 (상봉동)',37.5952009,127.0860825,OK,0,0,0
11461,중화동,서울특별시 중랑구 봉화산로 40 (중화동),37.6014157,127.078696,도레미노래연습장,0,0,0
7516,불광동,서울특별시 은평구 통일로 858 (불광동),37.6196853,126.9209971,와와노래연습장,0,0,0
5803,독산동,서울특별시 금천구 독산로 352 (독산동),37.4781585,126.9039597,핑크,0,0,0
6164,사당동,서울특별시 동작구 동작대로25길 9-8  (사당동),37.4860178,126.9813999,열린노래연습장,0,0,0
10779,당산동3가,서울특별시 영등포구 국회대로36길 2 (당산동3가),37.5271886,126.8980709,초콜릿노래연습장,3,2,0
2607,성수동2가,서울특별시 성동구 성덕정길 142 (성수동2가),37.5364191,127.0590365,킹콩노래연습장,0,0,0
3646,하월곡동,서울특별시 성북구 오패산로 22 지1층 (하월곡동)',37.6042271,127.0376898,테마 노래연습장,0,0,0
6674,잠원동,서울특별시 서초구 강남대로99길 19  (잠원동),37.5149815,127.0185538,스타워즈노래연습장,0,0,0
7362,방이동,서울특별시 송파구 백제고분로48길 17 (방이동),37.511247,127.1152698,뉴스타노래연습장,0,0,0
1012,등촌동,서울특별시 강서구 공항대로 337 지층101호 (등촌동 태현빌딩)',37.5581314,126.845171,방방 노래연습장,0,0,0
4715,창천동,서울특별시 서대문구 명물길 17 31동 32호 (창천동지층)',37.5579004,126.9375343,고래고래노래연습장,0,0,0
8052,동교동,서울특별시 마포구 홍익로6길 15 지하층 (동교동 삼주빌딩),37.5553603,126.922698,홍대 코인 노래연습장,1.7,3,1
5,논현동,서울특별시 강남구 언주로146길 37 (논현동),37.5206423,127.0378971,홈 노래연습장,0,0,0
10231,잠실동,서울특별시 송파구 백제고분로7길 29 (잠실동지하1층)',37.510914,127.0821781,멜론노래연습장,5,3,0
777,수유동,서울특별시 강북구 한천로140길 38 (수유동),37.6412294,127.0282081,즐거운노래연습장,0,0,0
3280,면목동,서울특별시 중랑구 사가정로51길 27 (면목동),37.5821501,127.0878611,붐붐노래연습장,0,0,0
3358,면목동,서울특별시 중랑구 면목로 316 (면목동 김현규치과),37.5800772,127.0883521,K스타 노래연습장,0,0,0
2808,구의동,서울특별시 광진구 구의로 10-1 (구의동지층)',37.5389492,127.0894711,강변노래연습장,0,0,1
2645,행당동,서울특별시 성동구 행당로17길 20 (행당동),37.5601392,127.0332627,소리꾼노래방,0,0,0
722,미아동,서울특별시 강북구 월계로3길 지하 50 지1층 (미아동),37.6095768,127.0306615,투노래연습장,5,1,0
7929,상도동,서울특별시 동작구 사당로 18 지층 (상도동),37.4952233,126.9562673,리코스타 코인 노래연습장,4.5,2,1
6579,봉천동,서울특별시 관악구 남부순환로230길 20 지하1층 (봉천동)',37.4791719,126.9553633,샛별,0,0,0
7195,문정동,서울특별시 송파구 동남로4길 20 지층 (문정동)',37.4883878,127.124545,로데오노래연습장,2,2,0
11707,상봉동,서울특별시 중랑구 상봉중앙로1길 12 (상봉동),37.5996326,127.0874444,열린노래연습장,0,0,0
9847,동소문동5가,서울특별시 성북구 동소문로20길 28-3 (동소문동5가),37.5911625,127.0164882,궁전 노래연습장,0,0,0
2165,가산동,서울특별시 금천구 가산로 148 (가산동),37.4785598,126.8908726,벤허,0,0,0
2190,독산동,서울특별시 금천구 독산로 352 (독산동),37.4781585,126.9039597,핑크,0,0,0
3642,석관동,서울특별시 성북구 돌곶이로 77 석산빌딩 지1층 (석관동)',37.6103322,127.0573128,진 노래연습장,0,0,0
9290,창천동,서울특별시 서대문구 연세로5나길 14 (창천동),37.5570428,126.9355461,스타렛노래연습장,0,0,0
2447,신당동,서울특별시 중구 다산로 117 (신당동지상4층)',37.5546001,127.0102606,용가리 노래연습장,4.5,4,0
6421,신림동,서울특별시 관악구 신원로1길 1 지하1층 (신림동)',37.4801112,126.927818,둘리,0,0,0
9613,반포동,서울특별시 서초구 고무래로 26 지1층 (반포동 쌍동빌딩)',37.502353,127.0112636,슈퍼스타코인노래연습장 반포점,0,0,1
8554,방학동,서울특별시 도봉구 방학로6길 12  (방학동),37.6634944,127.0374122,앵콜노래연습장,0,0,0
8951,신대방동,서울특별시 동작구 시흥대로 664-1 (신대방동지층)',37.4908364,126.9085227,팡팡노래연습장,0,0,0
4566,갈현동,서울특별시 은평구 통일로85길 6-4 (갈현동),37.622323,126.9190928,산울림노래연습장,0,0,0
9123,창전동,서울특별시 마포구 와우산로32길 20 2층 (창전동)',37.5546045,126.9312879,땡땡이 노래연습장,0,0,0
1331,신림동,서울특별시 관악구 관천로 54 지하1층 (신림동)',37.4844262,126.9265533,팝콘,0,0,0
3485,상봉동,서울특별시 중랑구 중랑천로10길 39 (상봉동지하1층)',37.5921329,127.0751339,더블노래연습장,0,0,0
3735,수유동,서울특별시 강북구 노해로33길 4 지층 (수유동)',37.6460698,127.0243016,도도 노래연습장,0,0,0
9745,성수동2가,서울특별시 성동구 아차산로7길 8 (성수동2가),37.5458664,127.0544923,민트 노래연습장,0,0,0
4129,방학동,서울특별시 도봉구 도봉로145길 5  지1층호 (방학동)',37.6644989,127.0422188,쎄븐 노래연습장,0,0,0
5383,화곡동,서울특별시 강서구 월정로 160 (화곡동대림상가),37.5336919,126.837241,훼미리노래연습장,0,0,0
4534,망우동,서울특별시 중랑구 망우로 431 (망우동지하),37.6000478,127.1000555,둘리 노래연습장,0,0,0
6669,양재동,서울특별시 서초구 남부순환로356길 26 (양재동),37.4837315,127.0379194,코러스코인노래연습장,4.3,7,2
8312,월계동,서울특별시 노원구 석계로 15 지층 (월계동)',37.6161414,127.0643122,킹,0,0,0
870,방화동,서울특별시 강서구 방화대로21길 84  (방화동),37.5641312,126.8122395,특급노래연습장,0,0,0
6976,삼성동,서울특별시 강남구 삼성로104길 23 2층 (삼성동 성지빌딩)',37.5113954,127.0566018,엘리트 노래연습장,5,2,0
6420,남현동,서울특별시 관악구 남현1길 53 (남현동),37.4759583,126.9805838,밀레니엄,0,0,0
10535,신월동,서울특별시 양천구 지양로 87 (신월동),37.5228296,126.8323216,특급노래연습장,0,0,0
725,수유동,서울특별시 강북구 도봉로87길 14 6층 (수유동)',37.6385193,127.0250069,고음불가 노래연습장,0,0,0
11315,창신동,서울특별시 종로구 창신길 21 (창신동),37.5727203,127.0106075,우정노래방,0,0,0
9755,행당동,서울특별시 성동구 마조로3가길 15 (행당동),37.5592765,127.0399101,킹노래방,5,3,0
3123,장안동,서울특별시 동대문구 한천로18길 15 지하1층 (장안동)',37.5689067,127.0649459,궁전,0,0,0
7683,고덕동,서울특별시 강동구 동남로85길 16 (고덕동),37.5614833,127.1558393,입큰,0,0,0
3831,미아동,서울특별시 강북구 솔샘로 233 (미아동),37.6201527,127.0187184,앵콜노래연습장,0,0,0
8707,이문동,서울특별시 동대문구 신이문로 33 지하1층 (이문동)',37.603156,127.0658773,콘서트,0,0,0
4024,창동,서울특별시 도봉구 노해로63길 79 (창동지1층)',37.6530918,127.0463398,스마일 코인 노래연습장,1,1,2
7684,성내동,서울특별시 강동구 양재대로85길 14 2층 (성내동)',37.524597,127.1340446,락,0,0,0
5866,대림동,서울특별시 영등포구 도림로 155 (대림동),37.494422,126.8988361,신세계 노래연습장,0,0,0
7284,가락동,서울특별시 송파구 오금로44가길 8 (가락동),37.4973232,127.1353697,고래고래노래연습장,0,0,0
3012,자양동,서울특별시 광진구 뚝섬로27길 48  (자양동(지층))',37.5379085,127.0665259,노다지노래방,0,0,0
6301,상도동,서울특별시 동작구 성대로2길 12 (상도동(지하1층))',37.4994503,126.931252,어머나 노래연습장,0,0,0
6858,개포동,서울특별시 강남구 선릉로6길 5 지하층 (개포동)',37.4826737,127.061527,스타 노래연습장,0,0,0
10475,신월동,서울특별시 양천구 화곡로 98 (신월동),37.5393666,126.8328724,아싸노래연습장,0,0,0
2337,종로6가,서울특별시 종로구 종로41길 9  (종로6가지하1층)',37.5717386,127.0065074,놀이터,3.5,2,32
6998,역삼동,서울특별시 강남구 역삼로 211 담곡빌딩 지하1층 (역삼동)',37.4965026,127.0402563,둘리 노래연습장,0,0,0
1179,신림동,서울특별시 관악구 시흥대로 548 2층 (신림동)',37.4818003,126.9011076,필 노래연습장,0,0,0
2747,자양동,서울특별시 광진구 동일로18길 65 (자양동 지하)',37.5390948,127.066431,차이나,0,0,0
7717,둔촌동,서울특별시 강동구 천호대로 1172 (둔촌동),37.533523,127.1415602,SBS노래연습장,0,0,0
7287,석촌동,서울특별시 송파구 삼학사로12길 13 (석촌동),37.5017435,127.0984565,골드스타 노래연습장,0,0,0
737,미아동,서울특별시 강북구 도봉로8길 37 지층호 (미아동)',37.6121331,127.0322137,앗싸 노래연습장,0,0,0
9935,동선동1가,서울특별시 성북구 동소문로24길 13 용빌딩 2층 (동선동1가),37.5931093,127.0187533,코인쏭 코인노래연습장,0,0,0
6232,사당동,서울특별시 동작구 사당로 279  (사당동),37.4844119,126.9785076,해피데이,0,0,0
8993,상도동,서울특별시 동작구 상도로61길 34 지층 (상도동)',37.4947873,126.956811,비트코인동전노래연습장,0,0,0
8380,중계동,서울특별시 노원구 한글비석로20길 10 (중계동),37.6596621,127.0737215,24시 앗싸동전노래연습장,0,0,0
5992,영등포동3가,서울특별시 영등포구 영중로10길 5 (영등포동3가),37.5193234,126.9060712,씨에프노래연습장,0,0,0
1428,화양동,서울특별시 광진구 광나루로 344 (화양동),37.5480774,127.0680372,들국화노래연습장,0,0,0
10751,도림동,서울특별시 영등포구 도영로 45-1 (도림동),37.5100223,126.8978066,친구노래연습장,0,0,0
10704,영등포동5가,서울특별시 영등포구 영등포로43길 3-2 (영등포동5가지하1층)',37.5197744,126.9076322,대영,0,0,0
496,미아동,서울특별시 강북구 도봉로34길 23  (미아동),37.622153,127.0293675,하나로,4.5,2,1
3613,가리봉동,서울특별시 구로구 우마1길 5 (가리봉동(지층)),37.4824785,126.8878121,북경노래연습장,0,0,0
5256,방화동,서울특별시 강서구 양천로 93 지층 (방화동)',37.5735909,126.8142198,오디션노래연습장,0,0,0
4452,상계동,서울특별시 노원구 동일로242길 25 지층 (상계동 재성빌딩)',37.6755463,127.0569747,귀빈노래연습장,0,0,0
2816,구의동,서울특별시 광진구 아차산로51길 96 (구의동),37.5411512,127.0855206,25시노래방,0,0,0
2779,자양동,서울특별시 광진구 동일로18길 51 지하1층 (자양동 옥동빌딩)',37.5393412,127.065698,짱 노래연습장,0,0,0
711,번동,서울특별시 강북구 도봉로96길 지하 8 지1층 (번동)',37.6176379,127.02989,현 노래연습장,0,0,0
5369,화곡동,서울특별시 강서구 화곡로 226 지층 (화곡동)',37.5452415,126.844828,스타노래연습장,0,0,0
10076,방이동,서울특별시 송파구 가락로 274  (방이동),37.5125132,127.1194382,가자,2.8,5,6
142,역삼동,서울특별시 강남구 논현로 339 (역삼동 양양빌딩),37.4954498,127.0391382,보스노래연습장,0,0,0
6842,역삼동,서울특별시 강남구 강남대로 428 만이빌딩 지하2층 (역삼동)',37.5008145,127.026849,삼삼코인노래연습장,5,2,1
10514,신정동,서울특별시 양천구 신정중앙로 88 (신정동지하1층),37.5264634,126.8613137,123노래연습장,0,0,0
437,명일동,서울특별시 강동구 동남로75길 13-21 지층 (명일동)',37.5533222,127.1554886,룰라코인노래연습장,0,0,0
9284,창천동,서울특별시 서대문구 명물길 24 (창천동),37.5578041,126.9381557,더 스타 노래연습장,0,0,0
3005,자양동,서울특별시 광진구 동일로20길 116  (자양동지층)',37.539483,127.0697683,큐노래연습장,0,0,0
7739,응암동,서울특별시 은평구 응암로 340-1 대진빌딩 2층 202호 (응암동),37.6015016,126.9228496,비젼노래연습장,0,0,0
8440,방학동,서울특별시 도봉구 도봉로 703  (방학동지1층)',37.6672719,127.0428413,월드노래방,0,0,0
9698,성수동2가,서울특별시 성동구 연무장7길 5  (성수동2가지하)',37.5432416,127.0543509,우주노래연습장,0,0,0
2705,성수동2가,서울특별시 성동구 성수일로8길 40 B1층 (성수동2가)',37.5455619,127.0546013,씽 노래연습장,0,0,0
9476,서초동,서울특별시 서초구 반포대로28길 69 (서초동),37.4918324,127.0120915,에프엠노래연습장,0,0,0
10523,신정동,서울특별시 양천구 중앙로 292-1 (신정동2층)',37.5224401,126.8520679,특급노래방,0,0,0
6618,서초동,서울특별시 서초구 서초대로77길 45 3층 (서초동 실버타운오피스텔)',37.5015245,127.0248476,엔젤코인노래연습장,3.7,6,1
525,수유동,서울특별시 강북구 한천로 1068 지층 (수유동)',37.6420352,127.0243289,궁전 노래 연습장,0,0,0
5920,대림동,서울특별시 영등포구 대림로7길 15 (대림동),37.4886867,126.9035031,네박자 노래연습장,0,0,0
2119,독산동,서울특별시 금천구 가산로 49-16 (독산동지하1층),37.4708747,126.8967043,하하,0,0,0
6158,신대방동,서울특별시 동작구 보라매로 99 (신대방동),37.4981863,126.9277698,무조건 노래연습장,0,0,0
8858,사당동,서울특별시 동작구 동작대로25길 9-8  (사당동),37.4860178,126.9813999,열린노래연습장,0,0,0
3455,묵동,서울특별시 중랑구 동일로 873 (묵동),37.6083614,127.07788,룰루랄라노래연습장,0,0,0
4363,상계동,서울특별시 노원구 노해로81길 16 3층 (상계동)',37.6556099,127.0628825,킹덤,0,0,0
325,성내동,서울특별시 강동구 풍성로 209 2층 (성내동)',37.5293543,127.1351131,스카이 노래연습장,0,0,0
4275,신정동,서울특별시 양천구 목동로25길 2 (신정동지하1층),37.5279684,126.8635595,애플노래연습장,0,0,0
2076,독산동,서울특별시 금천구 시흥대로141길 66 (독산동지하)',37.475775,126.8978859,MC,0,0,0
4976,목동,서울특별시 양천구 공항대로 620 (목동지하1층)',37.5465741,126.8738281,찬찬찬노래연습장,0,0,0
5059,신월동,서울특별시 양천구 남부순환로40길 2 (신월동),37.5351545,126.8281824,꾀꼬리코인노래연습장,0,0,0
10608,신정동,서울특별시 양천구 목동동로10길 16 (신정동지하1층)',37.51895,126.8715361,파티랑노래연습장,0,0,0
8265,공릉동,서울특별시 노원구 공릉로 133 2층 (공릉동)',37.622081,127.0790063,SBS,0,0,0
9244,창천동,서울특별시 서대문구 연세로7안길 10-7 (창천동),37.5584448,126.9362244,테크노노래방,0,0,1
1237,신림동,서울특별시 관악구 신원로 8 지하1층 (신림동)',37.4800458,126.9280923,명품노래연습장,0,0,0
8976,노량진동,서울특별시 동작구 노량진로10길 28 (노량진동),37.5121607,126.937452,베토벤노래연습장,5,1,0
5054,신정동,서울특별시 양천구 중앙로46길 2  (신정동지하1층(좌측))',37.5220202,126.852606,귀빈노래연습장,0,0,0
10254,석촌동,서울특별시 송파구 백제고분로40길 31 지층 (석촌동)',37.5020244,127.1079241,궁노래연습장,0,0,0
625,미아동,서울특별시 강북구 솔샘로 272 지층 (미아동)',37.6188506,127.0226736,동굴속노래방,0,0,0
10367,가락동,서울특별시 송파구 양재대로62길 43 3층 (가락동),37.4963247,127.1205273,공룡노래연습장,0,0,0
11765,면목동,서울특별시 중랑구 용마산로90길 10 (면목동),37.5876442,127.0965801,코인조이노래연습장,0,0,0
1680,자양동,서울특별시 광진구 뚝섬로 628 (자양동 지층)',37.531996,127.0792498,드라마,5,1,0
3283,면목동,서울특별시 중랑구 면목천로6길 24 (면목동),37.5778383,127.0823058,짱노래연습장,0,0,0
1496,자양동,서울특별시 광진구 뚝섬로56길 47 (자양동),37.5292879,127.082867,둥근달,0,0,0
784,수유동,서울특별시 강북구 한천로139길 42 (수유동 영남빌딩)',37.6388784,127.0251023,와라코인노래연습장,4,1,2
967,방화동,서울특별시 강서구 양천로 25 지층 (방화동)',37.5728099,126.8066184,파티파티노래연습장,1,1,0
7572,길동,서울특별시 강동구 양재대로111길 15 3층 (길동)',37.536962,127.1385757,탑노래연습장,0,0,0
9441,서초동,서울특별시 서초구 반포대로24길 96 지층 (서초동 구산빌딩)',37.4888452,127.0140333,럭셔리노래연습장,0,0,0
8491,창동,서울특별시 도봉구 덕릉로59가길 26 (창동),37.6396368,127.0378778,웃긴다,5,1,0
431,천호동,서울특별시 강동구 진황도로 7 3층 (천호동)',37.5401462,127.1286563,환희 노래연습장,0,0,0
910,화곡동,서울특별시 강서구 공항대로46길 31 지층 (화곡동)',37.554236,126.8527091,땡큐노래연습장,0,0,0
9665,성수동2가,서울특별시 성동구 성덕정길 92-1  (성수동2가),37.5374629,127.0537767,타타타노래연습실,0,0,0
1395,신림동,서울특별시 관악구 신림로65길 42 지하1층 (신림동)',37.4849006,126.9270703,햇살 노래연습장,0,0,0
10607,신월동,서울특별시 양천구 가로공원로 124 (신월동 지하1층)',37.5358238,126.8298062,수수노래연습장,0,0,0
371,천호동,서울특별시 강동구 구천면로 358 지층 (천호동)',37.5502488,127.1383938,풀잎노래연습장,0,0,0
9029,동교동,서울특별시 마포구 어울마당로 109 지하1층 (동교동)',37.5547652,126.922677,노래마을 노래연습장,0,0,0
7522,성내동,서울특별시 강동구 양재대로103길 29 (성내동),37.5331585,127.1361083,가야,3.3,10,5
8279,공릉동,서울특별시 노원구 공릉로 137 2층 (공릉동)',37.6224578,127.079074,쟁반,0,0,0
8981,상도동,서울특별시 동작구 등용로 9 지하1층 (상도동),37.5049672,126.937007,쟁반노래연습장,4,1,0
5990,영등포동,서울특별시 영등포구 경인로 836-1 (영등포동),37.5159121,126.9058361,영심이노래연습장,0,0,0
6433,신림동,서울특별시 관악구 봉천로 234 (신림동),37.4892379,126.9273614,샛별,0,0,0
4326,중계동,서울특별시 노원구 한글비석로20길 10 (중계동),37.6596621,127.0737215,24시 앗싸동전노래연습장,0,0,0
8963,사당동,서울특별시 동작구 동작대로27가길 6  (사당동5층)',37.4873131,126.9809888,프로방스 노래연습장,0,1,0
6599,잠원동,서울특별시 서초구 신반포로 165 반포쇼핑타운 2동 지층 18~20호 (잠원동)',37.5057266,127.0021903,핵인싸 코인 노래연습장,4.3,4,2
1817,개봉동,서울특별시 구로구 개봉로20길 78 (개봉동(지층))',37.4932678,126.858706,휘파람노래연습장,0,0,0
6744,서초동,서울특별시 서초구 서초대로46길 99  (서초동),37.4901902,127.013499,조이노래연습장,0,0,0
87,개포동,서울특별시 강남구 논현로 64 지하1층 (개포동 삼우빌딩)',37.4759149,127.0468937,토마토 노래연습장,0,0,0
8720,제기동,서울특별시 동대문구 정릉천동로 90 지하1층 (제기동)',37.5799573,127.0357839,현대,0,0,0
11477,면목동,서울특별시 중랑구 겸재로 215 (면목동),37.5894667,127.0914886,힐링노래연습장,0,0,0
968,화곡동,서울특별시 강서구 강서로5나길 15 3층 (화곡동),37.5284068,126.847397,테마노래연습장,0,0,0
10226,가락동,서울특별시 송파구 오금로 300 지1층 (가락동 김해빌딩)',37.5033108,127.125685,일신 노래연습장,0,0,0
5477,개봉동,서울특별시 구로구 고척로21길 3 (개봉동(지층))',37.5016975,126.846199,쟁반노래연습장,0,0,0
3369,면목동,서울특별시 중랑구 면목로 283 (면목동),37.5782001,127.0857552,우리 노래연습장,0,0,0
6810,서초동,서울특별시 서초구 서초중앙로20길 18  (서초동),37.4922132,127.0151816,MBC노래방,0,0,0
780,미아동,서울특별시 강북구 월계로7길 지하 60 (미아동),37.6097206,127.0310786,설탕노래연습장,0,0,0
2265,천호동,서울특별시 강동구 구천면로41길 13 지층 (천호동),37.5464291,127.1331904,천궁노래연습장,0,0,0
10147,마천동,서울특별시 송파구 거마로24길 5 (마천동),37.499895,127.148218,팡팡노래연습장,0,0,0
415,상일동,서울특별시 강동구 상일로 21 (상일동),37.5489558,127.1729654,2080,0,0,0
9267,홍은동,서울특별시 서대문구 홍은중앙로 75-6 (홍은동지층)',37.598098,126.946329,열창노래연습장,0,0,0
6906,논현동,서울특별시 강남구 학동로2길 39 지하1층 (논현동 LS빌딩)',37.5090246,127.0234745,거침없이달려 노래연습장,0,0,0
6163,사당동,서울특별시 동작구 동작대로13길 7 (사당동),37.4816219,126.9809702,태양노래방,0,0,0
5598,구로동,서울특별시 구로구 시흥대로 571 (구로동(지층))',37.4839945,126.9018264,슈퍼스타코인노래연습장,1.3,6,2
7013,역삼동,서울특별시 강남구 테헤란로13길 8-10 지하1층 (역삼동 동영빌딩)',37.500356,127.0332762,비비,0,0,0
9148,도화동,서울특별시 마포구 도화길 20-1 지하1층 (도화동)',37.5402806,126.9483637,홍노래연습장,0,0,0
5928,대림동,서울특별시 영등포구 대림로22길 44-1 (대림동),37.4958992,126.9051335,앵콜노래연습장,0,0,0
714,우이동,서울특별시 강북구 삼양로 681  (우이동4층)',37.6634347,127.0120435,왕가,3.8,19,19
8614,도봉동,서울특별시 도봉구 도봉로181길 18 (도봉동),37.6841626,127.0449033,게코 노래연습장,0,0,0
1968,신도림동,서울특별시 구로구 경인로 584 (신도림동),37.5040586,126.8818326,비엔나노래연습장,0,0,0
3321,중화동,서울특별시 중랑구 중랑역로 99-1 (중화동),37.6024525,127.0774371,또와노래연습장,0,0,0
3985,방학동,서울특별시 도봉구 방학로6길 30  (방학동지층)',37.6642609,127.0369859,악쓰는하마,0,0,0
4353,상계동,서울특별시 노원구 동일로241길 44 2층 (상계동 수락네스트존)',37.6780963,127.0542336,O2,5,1,0
1279,신림동,서울특별시 관악구 대학길 16 지하1층 (신림동)',37.4700518,126.9379194,BE 노래연습장,0,0,0
6181,신대방동,서울특별시 동작구 신대방길 113 (신대방동2층)',37.4902684,126.9082737,땡큐노래연습장,0,0,0
3679,미아동,서울특별시 강북구 도봉로 45 숭인시장 3층 308호 (미아동)',37.6131312,127.029462,아지트코인 노래연습장,2,1,3
3611,석관동,서울특별시 성북구 한천로 578 2층 (석관동),37.6112658,127.0627033,스마일 노래연습장,0,0,0
1138,신림동,서울특별시 관악구 관천로19길 75 지하1층 (신림동)',37.4869378,126.9178252,뉴월드,0,0,0
10709,대림동,서울특별시 영등포구 도림로 128 (대림동),37.4925238,126.8966167,코리아노래연습장,0,0,0
1781,구로동,서울특별시 구로구 디지털로32길 87 (구로동(지층))',37.4832604,126.9001203,블랙홀 노래연습장,0,0,0
4147,방학동,서울특별시 도봉구 방학로2길 11 (방학동),37.6634158,127.0408051,친구노래방,0,0,0
3251,상봉동,서울특별시 중랑구 망우로 206 (상봉동지하1층)',37.5935972,127.0758091,SM노래연습장,0,0,0
5824,독산동,서울특별시 금천구 가산로3길 87 (독산동),37.4721906,126.8906903,뮤직,0,0,0
9281,창천동,서울특별시 서대문구 연세로5다길 8  (창천동),37.556452,126.9351289,엘비스,0,0,0
3050,이문동,서울특별시 동대문구 신이문로 33 지하1층 (이문동)',37.603156,127.0658773,콘서트,0,0,0
787,미아동,서울특별시 강북구 솔매로 89 2층 (미아동)',37.6253232,127.0220885,비트코인 노래연습장,4,2,0
9081,도화동,서울특별시 마포구 도화길 20 지하1층 (도화동)',37.5402493,126.9482372,스팅 노래연습장,0,0,0
8395,공릉동,서울특별시 노원구 공릉로 191-4 (공릉동),37.6269845,127.0786776,썸,4.8,5,3
6786,양재동,서울특별시 서초구 매헌로 25 (양재동),37.4633349,127.0350973,수노래연습장,4,1,0
10285,방이동,서울특별시 송파구 올림픽로32길 56 (방이동),37.5122148,127.1122439,땡겨노래연습장,0,0,0
320,천호동,서울특별시 강동구 구천면로41길 14 2층 (천호동)',37.5466805,127.1332912,팡팡노래연습장,0,0,0
11755,묵동,서울특별시 중랑구 공릉로 18 2층 (묵동),37.6124896,127.0780519,W노래연습장,1,1,0
8521,도봉동,서울특별시 도봉구 시루봉로 306 (도봉동지1층)',37.6711539,127.0431374,오렌지 노래연습장,0,0,0
1356,신림동,서울특별시 관악구 남부순환로 1631-1 (신림동),37.4848361,126.9320278,파티 노래연습장,0,0,0
4912,서교동,서울특별시 마포구 양화로6길 67 지하1층 (서교동),37.5487036,126.9179959,원투 노래연습장,0,0,0
4175,신정동,서울특별시 양천구 신정중앙로 86 (신정동),37.5264952,126.8610987,컵앤팝 노래연습장,0,0,0
2991,중곡동,서울특별시 광진구 면목로 158 (중곡동 영조빌딩)',37.567216,127.0821728,럭셔리,0,0,0
8264,상계동,서울특별시 노원구 상계로1길 38-11 지층 (상계동 우창프라자)',37.6579785,127.0621185,SBS,0,0,0
9534,양재동,서울특별시 서초구 강남대로34길 69 (양재동지하1층)',37.4841133,127.0396669,뉴칼라노래연습장,0,0,0
8737,장안동,서울특별시 동대문구 한천로 86 지층 (장안동)',37.5691078,127.0641659,소리바다,0,0,0
255,성내동,서울특별시 강동구 성안로3길 124 (성내동),37.5283234,127.1234091,도레미,0,0,0
10763,신길동,서울특별시 영등포구 도신로 193 (신길동),37.5114384,126.912727,아리노래연습장,0,0,0
9716,홍익동,서울특별시 성동구 고산자로 293  (홍익동동아상가 지층 A2)',37.5658446,127.0360799,동아노래연습장,0,0,0
980,등촌동,서울특별시 강서구 강서로54길 42 (등촌동지하1층),37.5588147,126.8411109,쿨노래연습장,0,0,0
7546,강일동,서울특별시 강동구 아리수로93길 27 강일타워 306307호 (강일동)',37.5656316,127.1738307,101코인노래연습장 강일점,0,0,2
3789,미아동,서울특별시 강북구 솔샘로 293 (미아동지하)',37.6183775,127.0251268,가족노래연습장,0,0,0
6227,노량진동,서울특별시 동작구 노량진로 110 (노량진동),37.5132094,126.9380558,SBS노래연습장,5,2,0
11311,명륜2가,서울특별시 종로구 창경궁로 258-15 (명륜2가),37.5836167,127.000658,인디안노래방,0,0,0
326,천호동,서울특별시 강동구 천호대로157길 18 1층 (천호동)',37.5385014,127.1275006,악쓰는 하마 2,3,1,0
1836,구로동,서울특별시 구로구 새말로12길 33 (구로동지층)',37.502023,126.8867912,쌍쌍노래연습장,4,1,0
552,미아동,서울특별시 강북구 솔샘로 237 2층 (미아동)',37.6201187,127.0192683,갈채노래연습장,0,0,0
8155,상계동,서울특별시 노원구 상계로3길 32 지층 (상계동)',37.6576258,127.0626898,앵콜,0,0,0
1345,봉천동,서울특별시 관악구 청룡길 9 지층 (봉천동)',37.4815264,126.9465401,영노래연습장,0,0,0
8672,장안동,서울특별시 동대문구 장한로 165 지하1층 (장안동)',37.575146,127.0716834,아지트,0,0,0
4639,창천동,서울특별시 서대문구 연세로5가길 8-3  (창천동),37.5574664,126.9361822,콜노래연습장,0,0,1
11257,갈현동,서울특별시 은평구 통일로 863-4 (갈현동),37.6199487,126.9198472,리코스타 코인 노래연습장,4.5,2,0
1317,봉천동,서울특별시 관악구 은천로 33 2층 (봉천동),37.4863572,126.9389768,스타노래연습장,0,0,0
9176,합정동,서울특별시 마포구 월드컵로3길 31 지하1층 (합정동),37.5502124,126.9110497,보리노래연습장,0,0,0
8495,방학동,서울특별시 도봉구 방학로6길 30  (방학동지층)',37.6642609,127.0369859,악쓰는하마,0,0,0
1686,구의동,서울특별시 광진구 천호대로 667 (구의동 지하)',37.5515474,127.0902519,락 노래연습장,0,0,0
4693,연희동,서울특별시 서대문구 연희로 102  (연희동지하1층)',37.5669857,126.9313663,연희노래연습장,3,2,0
1565,중곡동,서울특별시 광진구 긴고랑로 91 (중곡동지층)',37.5606685,127.0858485,아롱이노래연습장,0,0,0
6196,대방동,서울특별시 동작구 여의대방로 134-1  (대방동),37.4990402,126.9207254,신바람노래연습장,0,0,0
5410,구로동,서울특별시 구로구 시흥대로 577-11 A동 지층 (구로동)',37.4845008,126.9018837,별노래연습장,0,0,0
2235,신정동,서울특별시 양천구 오목로 151 지층 (신정동),37.5249111,126.8541428,잇츠코인 노래연습장,3.7,3,0
11333,관철동,서울특별시 종로구 삼일대로19길 16 (관철동),37.5696614,126.9867721,럭셔리,0,0,0
9572,반포동,서울특별시 서초구 강남대로79길 16  (반포동3층)',37.5051529,127.0230521,아싸노래연습장,0,0,0
10260,방이동,서울특별시 송파구 가락로 243 (방이동),37.5099621,127.1178854,수궁,0,0,1
1888,신도림동,서울특별시 구로구 경인로59길 8 (신도림동(2층))',37.5064034,126.8833762,K-POP코인노래연습장,2.5,2,0
10112,방이동,서울특별시 송파구 올림픽로32길 19 (방이동),37.5143417,127.1095491,째즈,5,1,6
9026,공덕동,서울특별시 마포구 만리재로 23 2층 (공덕동)',37.5447875,126.9537336,토토노래연습장,0,0,0
7439,가락동,서울특별시 송파구 중대로9길 62  (가락동),37.4977641,127.1203593,야화,5,1,3
1344,신림동,서울특별시 관악구 관천로 19 2층 (신림동)',37.4817978,126.9282384,로얄노래연습장,0,0,0
1752,개봉동,서울특별시 구로구 고척로21길 17-1 (개봉동),37.5021854,126.8459518,따봉노래연습장,0,0,0
3078,전농동,서울특별시 동대문구 서울시립대로 160 (전농동),37.5834294,127.0545403,엔젤코인,2.5,2,0
4645,창동,서울특별시 도봉구 덕릉로 223 2층 (창동),37.6381457,127.0373497,카라 노래연습장,0,0,0
11043,이태원동,서울특별시 용산구 보광로 123 (이태원동),37.5337144,126.9940239,라이브,1,1,0
6718,방배동,서울특별시 서초구 효령로31길 48  (방배동),37.4833541,126.9957149,실버노래연습장,0,0,0
6207,사당동,서울특별시 동작구 동작대로25길 41 (사당동),37.4853354,126.9802479,일번지노래연습장,0,0,0
919,화곡동,서울특별시 강서구 등촌로 35 지층 (화곡동)',37.5330948,126.86334,SBS노래연습장,0,0,0
3584,하월곡동,서울특별시 성북구 화랑로5길 41 지1층 (하월곡동)',37.604435,127.0391857,열린 노래연습장,0,0,0
1426,중곡동,서울특별시 광진구 면목로 128 (중곡동지층)',37.5648017,127.08093,OK노래연습장,0,0,0
6043,대림동,서울특별시 영등포구 대림로 167 (대림동),37.495798,126.8992346,뮤지컬노래연습장,0,0,0
10575,신월동,서울특별시 양천구 화곡로4길 17 (신월동),37.5379836,126.8280159,질러봐노래연습장,0,0,0
6609,서초동,서울특별시 서초구 반포대로22길 89  (서초동지하1층)',37.4912394,127.0130157,아라 노래연습장,0,0,0
3287,상봉동,서울특별시 중랑구 망우로50길 31 (상봉동),37.595833,127.0894538,궁전노래연습장,0,0,0
273,천호동,서울특별시 강동구 진황도로 15 (천호동),37.5396937,127.1293237,월드노래방,0,0,0
2183,시흥동,서울특별시 금천구 시흥대로 149 (시흥동지하1층),37.4473781,126.9029692,신세계,0,0,0
7370,가락동,서울특별시 송파구 송이로19길 4 지층 (가락동)',37.4973064,127.121862,나예노래연습장,0,0,0
2066,시흥동,서울특별시 금천구 독산로 134 (시흥동),37.4592862,126.9052583,커플,0,0,0
11326,명륜4가,서울특별시 종로구 대명길 15  (명륜4가),37.5833658,127.000737,질러,4,1,0
4588,양재동,서울특별시 서초구 논현로17길 19 (양재동 덕산빌딩),37.4758567,127.0448397,본코인노래연습장,4,1,0
7330,가락동,서울특별시 송파구 송이로20길 12 지층 (가락동)',37.495985,127.1201531,벌떼노래연습장,5,2,0
5047,신월동,서울특별시 양천구 중앙로53길 70 지하1층 (신월동)',37.5247343,126.8419951,황실 노래연습장,5,1,0
719,수유동,서울특별시 강북구 한천로140길 43 지층 (수유동)',37.6416146,127.028433,성원노래연습장,0,0,0
4433,중계동,서울특별시 노원구 섬밭로 316 (중계동 시영1단지b상가지하)',37.6439068,127.0629219,신바람노래연습장,0,0,0
6399,봉천동,서울특별시 관악구 은천로 3 2층 (봉천동)',37.4865341,126.9356512,앵콜,0,0,0
4187,신월동,서울특별시 양천구 신월로15길 1 (신월동),37.5187904,126.8419413,봉선화 노래연습장,0,0,0
6662,방배동,서울특별시 서초구 방배중앙로 138 (방배동),37.4913411,126.9871336,파티파티노래연습장,0,0,0
617,번동,서울특별시 강북구 한천로 1024 2층 (번동)',37.6394732,127.0280888,콜노래연습장,0,0,0
3266,상봉동,서울특별시 중랑구 상봉중앙로 62 (상봉동(지층))',37.6027832,127.0873743,성민노래연습장,0,0,0
3815,번동,서울특별시 강북구 도봉로82길 지하 22 지1층 (번동)',37.6161411,127.0302355,즐거운노래연습장,0,0,1
5378,공항동,서울특별시 강서구 공항대로 32 지층 (공항동)',37.5610338,126.8107236,스카이노래연습장,0,0,0
10362,가락동,서울특별시 송파구 중대로9길 22 3층 (가락동)',37.4950994,127.1193134,파파야노래연습장,0,0,0
4866,신수동,서울특별시 마포구 독막로 210 지하1층 (신수동),37.5471461,126.9369715,팡팡 노래연습장,0,0,0
