소재지전체주소,도로명전체주소,사업장명,위도,경도,업태구분명,kakao_star,kakao_star_nums,kakao_blog_review
서초동,"서울특별시 강동구 구천면로 428 (명일동,2층 201호)",더 파우치,37.550162,127.1461669,양식,4.7,3,4
연남동,"서울특별시 강동구 구천면로34길 2, 1층 (천호동)",혜드림,37.5423459,127.1313892,양식,4.8,36,51
성수동2가,"서울특별시 강동구 구천면로41길 13, 1층 (천호동)",문츠바베큐,37.5464291,127.1331904,양식,3.9,10,30
봉천동,"서울특별시 강동구 구천면로24길 20-9, 1층 (천호동)",쿡스나인,37.5398308,127.1254797,양식,3,1,3
연남동,"서울특별시 강동구 구천면로24길 20-23, 1층 (천호동)",서양면옥,37.539942,127.1254065,양식,0,0,21
봉천동,"서울특별시 강동구 구천면로24길 20-7, 1층 (천호동)",황홀경,37.5398844,127.1255369,양식,3.4,52,305
홍제동,"서울특별시 강동구 구천면로41길 14 (천호동,(1층))",서오릉피자 홍제점,37.5466805,127.1332912,양식,2,2,3
번동,"서울특별시 강동구 구천면로33길 11, 1층 (천호동)",피자헛 번동점,37.542359,127.1303691,양식,5,1,1
논현동,"서울특별시 강동구 구천면로 456 (명일동,지층)",리한 우낀집,37.5491249,127.1488512,양식,0,0,15
시흥동,"서울특별시 강동구 구천면로15길 32, 1층 (천호동)",별미,37.5431274,127.1234822,양식,4.5,4,8
합정동,"서울특별시 강동구 구천면로 428 (명일동, 122호)",빕스 합정역점,37.550162,127.1461669,양식,2.5,28,53
구로동,"서울특별시 강동구 구천면로34길 36, 1층 (천호동)",맘스터치,37.5423555,127.1332597,양식,1.5,28,22
행당동,서울특별시 강동구 구천면로100길 10 (상일동),투썸플레이스 왕십리역점,37.5503791,127.1715264,양식,1.8,9,11
성산동,"서울특별시 강동구 구천면로34길 55, 1층 (천호동)",플랫폼,37.5426452,127.1342417,양식,4.8,5,4
대치동,"서울특별시 강동구 구천면로24길 26, 1~2층 (천호동)",롤링파스타 대치점,37.5396291,127.1257212,양식,3,12,9
서초동,"서울특별시 강동구 구천면로100길 6, 1층 (상일동)",자니로켓 강남역 삼성타운점,37.5504969,127.1715042,양식,2.7,6,20
사당동,서울특별시 강동구 구천면로24길 24 (천호동),커스이수점,37.5397229,127.1258273,양식,3,7,18
성수동2가,"서울특별시 강동구 구천면로100길 13, 1층 (상일동)",치카치카 ,37.5502183,127.1717879,양식,4.2,18,117
을지로6가,"서울특별시 강동구 구천면로 434, 107호 (명일동)",서가앤쿡,37.5498798,127.1465934,양식,2.6,53,44
성내동,"서울특별시 강동구 구천면로33길 30, 1층 (천호동)",연어로만,37.5426575,127.1294004,양식,5,1,3
문정동,"서울특별시 강동구 구천면로100길 15 (상일동,(1층))",cave케이브180,37.5500974,127.1718073,양식,0,0,0
방배동,서울특별시 강동구 구천면로 436 (명일동),세시 se she,37.549852,127.1467901,양식,4.4,5,42
반포동,"서울특별시 강동구 구천면로 502, 1층 (명일동)",생어거스틴,37.5490469,127.1540055,양식,3.8,42,13
역삼동,"서울특별시 강동구 구천면로 438, 명일빌딩 1층 (명일동)",요녀석 강남점,37.5496699,127.1469908,양식,1,1,0
미아동,"서울특별시 강동구 구천면로13길 33, 1층 (천호동)",피자몰 미아사거리역점,37.5433822,127.122914,양식,3.3,22,131
충무로4가,"서울특별시 강동구 구천면로29길 26, 1층 (천호동)",케이에프씨 충무로역점,37.5414786,127.1294425,양식,2.4,8,7
신사동,"서울특별시 강동구 구천면로41길 22, 1층 104호 (천호동)",버거앤프라이즈 압구정점,37.5467391,127.132988,양식,5,2,1
상계동,서울특별시 강동구 구천면로24길 11 (천호동),브롱스노원점,37.540181,127.1262012,양식,3,5,14
신사동,서울특별시 강동구 구천면로41길 10 (천호동),쿠스,37.5465045,127.1335008,양식,4.7,3,3
명륜4가,"서울특별시 강동구 구천면로 668, 1층 102호 (상일동)",브롱스 대학로점,37.5508246,127.1722179,양식,0,0,9
방배동,"서울특별시 강동구 구천면로29길 30, 1층 4호 (천호동)",미스터처비,37.5416237,127.1296915,양식,4.6,15,6
봉래동2가,"서울특별시 강동구 구천면로100길 10, 1층 (상일동)",서가앤쿡,37.5503791,127.1715264,양식,2.3,35,86
구로동,"서울특별시 강동구 구천면로100길 4, 1층 (상일동)",벤티,37.5506128,127.1714803,양식,4,2,8
창신동,"서울특별시 강동구 구천면로 438 (명일동, 명일빌딩 1층 104호)",KFC 동대문,37.5496699,127.1469908,양식,3,8,11
공릉동,서울특별시 강동구 구천면로100길 4 (상일동),보쌈 제복 노원점,37.5506128,127.1714803,양식,0,0,0
구로동,"서울특별시 강동구 구천면로24길 15, 1층 (천호동)",맘스터치 구로구일역점,37.5399626,127.1260788,양식,4.2,5,3
대현동,"서울특별시 강동구 구천면로 504, 1층 (명일동)",미스터피자 이대점,37.5490654,127.1543093,양식,2.6,9,41
신사동,서울특별시 강동구 구천면로100길 19 (상일동),레스토랑 원,37.5499608,127.1718468,양식,0,0,0
문정동,"서울특별시 강동구 구천면로24길 15 (천호동,1층)",소정,37.5399626,127.1260788,양식,0,0,55
서초동,"서울특별시 강동구 구천면로 434, 1층 106호 (명일동)",아크펍,37.5498798,127.1465934,양식,3.7,7,9
문래동1가,"서울특별시 강동구 구천면로 428 (명일동,106호)",바바코아,37.550162,127.1461669,양식,4.3,6,29
순화동,서울특별시 강동구 구천면로 516 (명일동),카돈마리,37.5490056,127.1556809,양식,3.4,11,45
신천동,서울특별시 강동구 구천면로33길 31-18 (천호동),퀴즈노스 잠실웰리스점,37.5418523,127.1293653,양식,0,0,3
신당동,"서울특별시 강동구 구천면로24길 20-16, 1층 (천호동)",본스테이크,37.5401711,127.1251813,양식,3,10,60
천호동,"서울특별시 강동구 구천면로 424 (명일동,명일메가타운 1층 110호)",라피아토,37.5503475,127.1455974,양식,0,0,3
반포동,"서울특별시 강동구 구천면로 438, 103호 (명일동, 명일빌딩)",Studio 300,37.5496699,127.1469908,양식,3.4,35,57
가락동,"서울특별시 강동구 구천면로41길 10, 1층 (천호동)",BB,37.5465045,127.1335008,양식,0,0,0
서초동,서울특별시 강동구 구천면로 434 (명일동),반올림 피자샵 서초점,37.5498798,127.1465934,양식,3,4,6
도화동,서울특별시 강동구 구천면로34길 50 (천호동),더플레이스공덕해링턴점,37.542424,127.134016,양식,3.8,9,29
봉천동,서울특별시 강동구 구천면로24길 24 (천호동),미트미인더모닝,37.5397229,127.1258273,양식,0,0,0
신당동,"서울특별시 강동구 구천면로36길 21, 지층 (천호동)",정소반,37.542672,127.132811,양식,5,4,8
화양동,"서울특별시 강동구 구천면로36길 19, 지1층 (천호동)",KFC세종대점,37.5427334,127.1327069,양식,1.8,13,14
서초동,"서울특별시 강동구 구천면로 504, 2층 (명일동)",한국피자헛 서울고점,37.5490654,127.1543093,양식,2.4,6,1
신천동,"서울특별시 강동구 구천면로29길 48 (천호동,(1층))",세상의모든아침 롯데월드몰점,37.5422085,127.1305256,양식,1.9,8,3
천호동,"서울특별시 강동구 구천면로 456 (명일동,2층)",아이노스,37.5491249,127.1488512,양식,0,0,26
서초동,"서울특별시 강동구 구천면로 428, 116,117호 (명일동)",아웃백 딜리버리 서초점,37.550162,127.1461669,양식,5,1,3
신천동,서울특별시 강동구 구천면로41길 19 (천호동),리틀파르크,37.5465232,127.1328578,양식,5,1,0
신사동,서울특별시 강동구 구천면로33길 24 (천호동),주식회사 르자당도산점,37.5426615,127.1296717,양식,4,2,42
송파동,"서울특별시 강동구 구천면로29길 30 (천호동,1층7호)",아웃백 딜리버리 송파점,37.5416237,127.1296915,양식,1,1,2
반포동,서울특별시 강동구 구천면로41길 10 (천호동),아티장 베이커스 서래,37.5465045,127.1335008,양식,4.1,14,17
창동,"서울특별시 강동구 구천면로29길 36 (천호동,(1층))",피자애,37.5418088,127.1298648,양식,4,1,0
용산동2가,서울특별시 강동구 구천면로 512 (명일동),프레그릿,37.54904,127.1551465,양식,5,2,3
창천동,"서울특별시 강동구 구천면로34길 36, 1층 (천호동)",케이에프씨,37.5423555,127.1332597,양식,2.5,13,12
방배동,서울특별시 강동구 구천면로 436 (명일동),와인하우스,37.549852,127.1467901,양식,3,1,0
공릉동,"서울특별시 강동구 구천면로33길 5, 1층 (천호동)",코타브레드,37.5423591,127.1306931,양식,0,0,7
남대문로5가,"서울특별시 강동구 구천면로 668, 2층 (상일동)",퀴즈노스서울스퀘어점,37.5508246,127.1722179,양식,3.1,12,9
연남동,"서울특별시 강동구 구천면로34길 6, 1층 (천호동)",연남와인,37.5423481,127.1315367,양식,5,3,6
상계동,"서울특별시 강동구 구천면로18길 29, 1층 (천호동)",키친랩노원점,37.5403065,127.1226602,양식,2.3,6,77
방이동,서울특별시 강동구 구천면로100길 16 (상일동),플루마,37.5501525,127.1715678,양식,5,2,1
신사동,서울특별시 강동구 구천면로29길 42 (천호동),파티오42,37.5419417,127.1301599,양식,3.3,20,47
신사동,"서울특별시 강동구 구천면로 424 (명일동,명일메가타운 116호)",앙스모멍 시그니처,37.5503475,127.1455974,양식,0,0,4
신천동,"서울특별시 강동구 구천면로29길 44, 1층 (천호동)",닭강점,37.5419966,127.1302577,양식,0,0,0
이문동,서울특별시 강동구 구천면로24길 20-5 (천호동),아웃백딜리버리 회기점,37.5398123,127.1256191,양식,0,0,7
여의도동,서울특별시 강동구 구천면로 494 (명일동),더플레이스여의도IFC점,37.5490083,127.1530893,양식,3,26,100
둔촌동,"서울특별시 강동구 구천면로16길 6, 1층 103호 (천호동)",피자 인 카페,37.5416321,127.1224154,양식,0,1,0
구로동,"서울특별시 강동구 구천면로36길 6 (천호동,(1층))",팔칠커피,37.5429357,127.1319651,양식,0,0,0
수표동,"서울특별시 강동구 구천면로 666, 3층 (상일동)",타이거,37.5507919,127.1720476,양식,0,0,0
신정동,"서울특별시 강동구 구천면로 431-5, 1층 (명일동)",루체디베네치아,37.55058,127.1465488,양식,4.5,21,13
논현동,"서울특별시 강동구 구천면로33길 31, 1층 (천호동)",라푼젤,37.5425025,127.1293431,양식,0,0,0
송파동,서울특별시 강동구 구천면로41길 14 (천호동),하우디,37.5466805,127.1332912,양식,5,1,10
망원동,서울특별시 강동구 구천면로34길 36 (천호동),사치,37.5423555,127.1332597,양식,3.3,10,18
양재동,서울특별시 강동구 구천면로 436 (명일동),메고지고 aT센터점,37.549852,127.1467901,양식,0,0,2
서초동,"서울특별시 강동구 구천면로 429, 2층 (명일동)",해머커피로스터스,37.5504,127.146505,양식,0,0,2
문정동,서울특별시 강동구 구천면로100길 23 (상일동),달쿵이네,37.5498119,127.1718862,양식,0,0,6
충무로4가,"서울특별시 강동구 구천면로40길 14, 가동 1층 101호 (천호동)",더블톤,37.5452988,127.1342215,양식,5,1,10
석촌동,서울특별시 강동구 구천면로 660 (상일동),토마토 피자,37.5507112,127.171224,양식,3,4,1
연희동,서울특별시 강동구 구천면로 512-1 (명일동),앤트러사이트커피 연희점,37.5490311,127.1552904,양식,3.3,76,196
잠실동,"서울특별시 강동구 구천면로 442, B동 1층 (명일동)",밤비노,37.5492874,127.1474467,양식,4,1,64
서초동,"서울특별시 강동구 구천면로 427-8, 1층 (명일동)",맘스터치 서초교대점,37.5506651,127.1463251,양식,1.9,14,8
수표동,"서울특별시 강동구 구천면로29길 57 (천호동,(1층))",성실한 부엌,37.5425391,127.1306513,양식,5,2,11
문정동,"서울특별시 강동구 구천면로24길 25, 2층 (천호동)",블리스버거,37.5395543,127.1259819,양식,3.7,3,43
문정동,"서울특별시 강동구 구천면로 442, 1층 (명일동)",달섬,37.5492874,127.1474467,양식,5,1,7
신대방동,"서울특별시 강동구 구천면로17길 32, 1층 (천호동)",KFC보라매매장,37.5429967,127.1238671,양식,2.3,25,5
신사동,"서울특별시 강동구 구천면로 440, 1층 (명일동)",피에스카페,37.5495518,127.1472065,양식,2.9,26,89
암사동,서울특별시 강동구 구천면로12길 5 (천호동),와줘서 고마워요,37.5418576,127.1216979,양식,3.7,17,9
상계동,서울특별시 강동구 구천면로24길 24 (천호동),자담치킨 수락산점,37.5397229,127.1258273,양식,1,1,4
구로동,서울특별시 강동구 구천면로34길 52 (천호동),에이그레이트카페 구로직영점,37.5424638,127.1341625,양식,2.7,3,4
합정동,서울특별시 강동구 구천면로34길 59 (천호동),뉴욕아파트먼트 합정점,37.5427337,127.1344477,양식,4,1,13
방배동,"서울특별시 강동구 구천면로 506 (명일동,1층)",와인하우스,37.5490564,127.1545391,양식,3,1,0
구로동,"서울특별시 강동구 구천면로34길 25, 1층 (천호동)",KFC구로디지털2,37.5424483,127.1325703,양식,2.3,19,12
신천동,"서울특별시 강동구 구천면로36길 6, 1층 102호 (천호동)",퀴즈노스 잠실웰리스점,37.5429357,127.1319651,양식,0,0,3
