소재지전체주소,도로명전체주소,사업장명,위도,경도,업태구분명,kakao_star,kakao_star_nums,kakao_blog_review
한남동,서울특별시 강동구 명일로 375 (명일동),아운,37.5520157,127.1494682,"인도,태국",3.8,12,8
무악동,서울특별시 강동구 성내로6길 32 (성내동),까사델마르,37.528595,127.1222184,"인도,태국",4,2,0
문정동,"서울특별시 강동구 양재대로 1459, 대진빌딩 1층 (길동)",잇탈리아,37.536162,127.1390863,"인도,태국",0,0,0
한남동,서울특별시 강동구 상암로 105 (암사동),스테이지비,37.5472923,127.134512,"인도,태국",3.9,14,34
인사동,서울특별시 강동구 명일로13길 17 (둔촌동),하노이의 아침,37.5337545,127.143877,"인도,태국",2.4,23,22
당산동1가,서울특별시 강동구 암사길 37 (암사동),하노이별,37.5519105,127.1336173,"인도,태국",5,8,4
논현동,"서울특별시 강동구 암사길 54, 1층 (암사동)",대독장& 제주생선구이 올래밥상 강남구청역점,37.5518264,127.1353428,"인도,태국",0,0,0
금호동1가,"서울특별시 강동구 성안로3길 68-9, 1층 (성내동)",라쿵푸마라탕 금호점,37.5274458,127.1264091,"인도,태국",5,4,7
방화동,"서울특별시 강동구 성내로 14 (성내동,(1층,2층))",화이트로빈,37.5300671,127.1221223,"인도,태국",0,0,0
방배동,서울특별시 강동구 동남로73길 9 (명일동),용범양대창,37.5525337,127.1555833,"인도,태국",0,0,7
서교동,"서울특별시 강동구 양재대로 1367, 5,107호 (성내동)",레트로켄터키,37.5283148,127.1359485,"인도,태국",4,4,11
방배동,서울특별시 강동구 상암로 16 (암사동),깔리,37.5508192,127.1255146,"인도,태국",4.3,27,78
공덕동,"서울특별시 강동구 성내로6길 14-20, 101호 (성내동)",돈까스 브로스,37.5298862,127.1219449,"인도,태국",5,10,23
신천동,서울특별시 강동구 성안로3길 112 (성내동),촙촙,37.5280526,127.1240372,"인도,태국",4.8,4,1
효창동,"서울특별시 강동구 성안로 158 (길동,(1층))",빅스타피자공덕효창점,37.5370708,127.1355343,"인도,태국",5,2,2
여의도동,"서울특별시 강동구 구천면로98길 31, 1층 (상일동)",남기분면,37.5493946,127.1715157,"인도,태국",2.2,17,18
한남동,"서울특별시 강동구 양재대로 1564, 1층 101호 (명일동)",세스타,37.5450987,127.1430656,"인도,태국",0,0,0
성수동2가,"서울특별시 강동구 성안로 89, 지하1층 (성내동)",반포식스 성수점,37.5315282,127.1323067,"인도,태국",2.5,2,5
신사동,"서울특별시 강동구 성안로 183, B101호 (천호동)",그레이츠,37.5395149,127.1361894,"인도,태국",0,0,5
상계동,"서울특별시 강동구 암사길 41, 1층 (암사동)",나빈인디안레스토랑,37.5519699,127.1339026,"인도,태국",4.3,11,6
남창동,"서울특별시 강동구 상암로 76, 1층 (천호동)",카레집,37.5483349,127.1314512,"인도,태국",3.5,6,72
남대문로5가,"서울특별시 강동구 성안로 27, 103호 (성내동)",위워크 서울스퀘어,37.5262927,127.1296088,"인도,태국",0,0,8
문정동,"서울특별시 강동구 성안로 24, 해성빌딩 1층 101호 (성내동)",나이쏘이 하비오점,37.5257832,127.1299285,"인도,태국",5,1,2
답십리동,서울특별시 강동구 성내로 8-11 (성내동),아라기,37.5299641,127.1217533,"인도,태국",4.3,12,24
개포동,"서울특별시 강동구 상암로63길 53, 1층 (명일동)",라피자노스트라,37.5488694,127.1539958,"인도,태국",4.4,5,45
서초동,서울특별시 강동구 명일로10길 23 (둔촌동),호아빈,37.5317122,127.1452258,"인도,태국",4.6,9,18
연남동,"서울특별시 강동구 양재대로 1319, 대성빌딩 1층 102,103호 (성내동)",저스트텐동,37.5241988,127.1344526,"인도,태국",4.2,29,44
압구정동,"서울특별시 강동구 양재대로 1376, 광안빌딩 1층 101호 (둔촌동)",부다스벨리,37.5288221,127.1371806,"인도,태국",0,0,1
구로동,"서울특별시 강동구 아리수로93길 33-9, 202호 (강일동, 강일프라자)",포36거리,37.5657383,127.1732169,"인도,태국",3.8,4,51
천호동,"서울특별시 강동구 상암로3길 16, 1층 102호 (암사동)",델리커리 2001아울렛 천호점,37.5511726,127.1269706,"인도,태국",3,2,24
이태원동,"서울특별시 강동구 상일로5길 15 (상일동,(1층))",킹케밥버거앤후라이즈,37.54886,127.1721614,"인도,태국",5,7,2
성수동1가,서울특별시 강동구 상일로5길 13 (상일동),은준쌀국수,37.548871,127.1722982,"인도,태국",4.9,18,7
충정로3가,"서울특별시 강동구 성내로 91, 101,102호 (성내동, 다성이즈빌아파트상가)",쏨쏨타이,37.5269116,127.1299888,"인도,태국",3.8,5,1
충정로2가,서울특별시 강동구 명일로 204 (길동),곧 버거,37.5368462,127.1459767,"인도,태국",5,2,0
오류동,서울특별시 강동구 성안로 119-5 (성내동),셀러브리티,37.5340333,127.1333277,"인도,태국",0,0,2
신사동,"서울특별시 강동구 상일로 74 (상일동,고덕리엔파크3단지1동상가106호)",무탈,37.5531625,127.1752949,"인도,태국",4.8,8,29
신도림동,"서울특별시 강동구 아리수로93길 33-15, 강일테리우드 1층 103호 (강일동)",호우양꼬치,37.5656261,127.1729473,"인도,태국",3.4,7,11
대치동,서울특별시 강동구 상일로 29-1 (상일동),토마틸로 포스코센터점,37.5497568,127.172796,"인도,태국",3.3,4,16
구로동,"서울특별시 강동구 아리수로93길 9, 골드프라자 108호 (강일동)",김향란 양꼬치,37.5652473,127.1743685,"인도,태국",0,0,0
화양동,서울특별시 강동구 상일로 41 (상일동),타이인플레이트,37.5507541,127.1726284,"인도,태국",3,13,31
응암동,"서울특별시 강동구 동남로75길 13-21, 2층 (명일동)",육전국밥,37.5533222,127.1554886,"인도,태국",5,1,0
성수동2가,서울특별시 강동구 성안로3길 131 (성내동),시옹마오,37.528246,127.1229903,"인도,태국",4.6,14,44
휘경동,"서울특별시 강동구 상일로19길 13, 1층 102호 (고덕동)",긴카오,37.5591846,127.1699998,"인도,태국",4.1,13,1
익선동,"서울특별시 강동구 명일로 244, 1층 2호 (길동)",이태리총각 익선동,37.5404151,127.147114,"인도,태국",3.3,38,149
성수동1가,"서울특별시 강동구 동남로73길 13, 1층 4호 (명일동)",갓잇,37.5527561,127.1554486,"인도,태국",3.8,37,132
대림동,"서울특별시 강동구 성안로 201, 1층 103호 (천호동)",타이반쩜,37.5409334,127.1369098,"인도,태국",0,0,1
중학동,"서울특별시 강동구 구천면로47길 22, 1층 (암사동)",광화문 어찬,37.5491235,127.1349399,"인도,태국",0,0,1
성수동1가,"서울특별시 강동구 동남로73길 31, 1층 (명일동)",메시,37.5526766,127.1544749,"인도,태국",4.6,34,110
영등포동,서울특별시 강동구 성안로3길 124 (성내동),아그라 영등포,37.5283234,127.1234091,"인도,태국",0,0,6
청담동,"서울특별시 강동구 명일로 238, 107호 (길동, 도림시티빌)",디씨크리에이티브,37.5401044,127.1470472,"인도,태국",0,0,0
용강동,"서울특별시 강동구 아리수로93길 19, 임페리얼타워 102호 (강일동)",동방곰탕,37.5653807,127.174118,"인도,태국",3,2,5
반포동,서울특별시 강동구 성내로3길 16-11 (성내동),카리,37.5305244,127.1231619,"인도,태국",0,0,1
신사동,서울특별시 강동구 상일로5길 18 (상일동),포메인 레드,37.5490614,127.172018,"인도,태국",5,1,1
중림동,"서울특별시 강동구 상암로15길 14, 1층 (암사동)",육십삼프로방스 이호점,37.5493225,127.1312017,"인도,태국",0,0,0
서초동,서울특별시 강동구 상일로3길 12 (상일동),미슌,37.5487629,127.1724882,"인도,태국",4.5,2,88
이태원동,"서울특별시 강동구 상일로3길 30, 101호 (상일동)",지미박스,37.5486441,127.1714624,"인도,태국",0,0,0
공릉동,서울특별시 강동구 상암로67길 5 (명일동),씬머이,37.5465865,127.1555773,"인도,태국",4.2,14,63
청담동,"서울특별시 강동구 명일로 171, 2층 (둔촌동)",코르테,37.5341131,127.1446234,"인도,태국",4.3,7,36
서교동,"서울특별시 강동구 암사길 19, 선진빌딩 1층 (암사동)",공,37.551559,127.1314576,"인도,태국",0,0,0
공릉동,"서울특별시 강동구 양재대로 1463-1 (길동,대명빌딩101호)",범피 버거,37.5366195,127.1392576,"인도,태국",0,0,1
봉천동,서울특별시 강동구 상일로7길 6-3 (상일동),미카엘,37.5501369,127.1724327,"인도,태국",4.9,15,17
삼성동,서울특별시 강동구 상일로17길 29-8 (고덕동),콩카페 현대백화점 무역센터점,37.5585085,127.1689989,"인도,태국",3.5,2,12
이태원동,서울특별시 강동구 상암로 97 (암사동),졸로프아프리카코리아,37.5476026,127.1338008,"인도,태국",3.4,10,6
성수동2가,"서울특별시 강동구 구천면로47길 66, 1층 (암사동)",성수명당,37.5509995,127.1351316,"인도,태국",4.3,117,233
금호동3가,"서울특별시 강동구 구천면로68길 59, 1층 (천호동)",베쌀집,37.5479644,127.1428166,"인도,태국",4.1,19,27
보광동,서울특별시 강동구 양재대로 1534 (길동),노네임,37.5425551,127.1421745,"인도,태국",0,0,0
정릉동,"서울특별시 강동구 동남로71길 38, 지하1층 102호 (명일동)",사이공본가 정릉점,37.5520312,127.1540865,"인도,태국",3.8,4,18
신문로1가,"서울특별시 강동구 구천면로41길 6, 1층 (천호동)",뉴오리진 광화문점,37.5464265,127.1337081,"인도,태국",4.3,12,51
명륜2가,"서울특별시 강동구 구천면로98길 10, 1층 (상일동)",에스,37.5503365,127.1710493,"인도,태국",0,0,5
문래동6가,서울특별시 강동구 상암로11길 14 (암사동),타이문,37.5503005,127.1289431,"인도,태국",4.8,4,2
영등포동7가,"서울특별시 강동구 아리수로 419, 109호 (강일동, 강일리슈빌)",비에스,37.5644131,127.1737078,"인도,태국",1,2,0
한강로3가,"서울특별시 강동구 성안로 118 (성내동,가동)",아이도넛케어&오푸틴,37.533875,127.1338077,"인도,태국",1,1,0
이태원동,"서울특별시 강동구 구천면로55길 3, 1층 (암사동)",포88,37.5499894,127.1370916,"인도,태국",4,22,47
연남동,"서울특별시 강동구 암사길 14, 103,104호 (암사동)",해선,37.5511274,127.1311365,"인도,태국",5,1,5
하계동,"서울특별시 강동구 상암로47길 83, 1층 (명일동)",포앤반하계역점,37.5502296,127.1444484,"인도,태국",4.8,9,38
논현동,"서울특별시 강동구 양재대로 1422 (둔촌동,(1층))",몬스터포,37.532768,127.1387279,"인도,태국",0,0,1
상계동,서울특별시 강동구 성안로3길 86 (성내동),장돈&온니파스타,37.5274609,127.1253789,"인도,태국",0,0,0
역삼동,"서울특별시 강동구 상일로15길 34-30, 1층 101-1호 (고덕동)",포490베트남쌀국수,37.5584313,127.1704469,"인도,태국",4.8,5,10
대치동,"서울특별시 강동구 상암로67길 13, 1층 (명일동)",은마쌀국수,37.5469087,127.1555805,"인도,태국",3.5,2,4
신사동,"서울특별시 강동구 성내로6길 34, 1층 (성내동)",레 부르주아,37.5284279,127.122149,"인도,태국",3,4,30
서교동,"서울특별시 강동구 양재대로 1371, 1층 11호 (성내동)",홍대in파스타,37.5287128,127.1360654,"인도,태국",2.2,5,159
장충동2가,"서울특별시 강동구 성내로 54, 1층 105호 (성내동, 성내스테이)",20세기소년,37.5282743,127.1259161,"인도,태국",0,0,0
성내동,"서울특별시 강동구 성안로13길 52, 102호 (성내동)",작아도 괜찮아,37.5320589,127.1296422,"인도,태국",5,1,0
대치동,서울특별시 강동구 암사길 23 (암사동),플래티넘양조주택,37.551746,127.1318115,"인도,태국",4,1,22
여의도동,"서울특별시 강동구 성안로 14, 은성빌딩 1층 (성내동)",미미쌀국수,37.5250443,127.1296693,"인도,태국",0,0,3
이태원동,"서울특별시 강동구 동남로73길 9, 동신빌딩 1층 (명일동)",파치드서울,37.5525337,127.1555833,"인도,태국",4.2,20,70
충정로3가,"서울특별시 강동구 동남로75길 13-25, 동혜빌딩 지하1층 (명일동)",자락,37.5530699,127.1554871,"인도,태국",5,3,0
한남동,"서울특별시 강동구 상암로 42 (천호동, 114호)",메종앙티브,37.5495882,127.1279034,"인도,태국",3.4,17,24
수송동,서울특별시 강동구 상암로 50 (천호동),엘 샌드위치,37.5493997,127.1288482,"인도,태국",4.8,21,35
금호동4가,"서울특별시 강동구 양재대로 1571, 3층 (천호동, 홈플러스강동점)",마라영웅 금호점,37.5457146,127.1422553,"인도,태국",5,1,1
원서동,"서울특별시 강동구 상암로 423 (상일동,(1층))",카페 홍시궁,37.5457752,127.1697135,"인도,태국",4.6,11,13
문정동,"서울특별시 강동구 명일로 233, 1층 (길동)",토니쿡,37.5396228,127.1465403,"인도,태국",0,0,1
성내동,서울특별시 강동구 상암로4길 11 (암사동),보 타이,37.5499004,127.1265152,"인도,태국",4.8,27,36
쌍림동,"서울특별시 강동구 상암로41길 55, 1층 101호 (천호동)",오메가테크상사,37.5486005,127.1411235,"인도,태국",0,0,0
봉천동,"서울특별시 강동구 성내로 19, 101호 (성내동, 서경빌딩)",코이,37.5303723,127.1228528,"인도,태국",0,0,0
창신동,서울특별시 강동구 상암로41길 17 (천호동),제빈,37.5469176,127.1411847,"인도,태국",5,3,0
삼청동,"서울특별시 강동구 상암로 14, 102호 (암사동)",어도어맨션,37.5508722,127.1253402,"인도,태국",0,0,0
반포동,"서울특별시 강동구 상암로 257, 1층 101호 (명일동)",타마린드,37.5468326,127.1511656,"인도,태국",3.5,8,45
동숭동,"서울특별시 강동구 상암로 42, 131호 (천호동)",쿰피르 스테이크 혜화점,37.5495882,127.1279034,"인도,태국",4.8,24,3
이태원동,"서울특별시 강동구 상일로5길 32, 1층 102호 (상일동, 비젼빌딩)",알페도,37.5489844,127.1712941,"인도,태국",4.4,16,15
봉천동,"서울특별시 강동구 성내로 11, 1층 109호 (성내동)",베트남쌀국수미스사이공,37.5305106,127.1221842,"인도,태국",4,9,15
한강로2가,서울특별시 강동구 성내로 8-8 (성내동),어프로치,37.5300973,127.1214415,"인도,태국",3.6,10,2
대흥동,"서울특별시 강동구 양재대로 1319 (성내동,1층 105호)",하노이별,37.5241988,127.1344526,"인도,태국",4,23,26
수표동,"서울특별시 강동구 구천면로42길 13, 1층 101호 (천호동)",신룽푸 마라탕,37.5463801,127.1351566,"인도,태국",2.3,3,22
창신동,"서울특별시 강동구 동남로65길 12, 1층 (명일동)",에베레스트,37.5477879,127.1552139,"인도,태국",4.4,29,48
종로2가,서울특별시 강동구 동남로85길 36 (고덕동),포브라더스 종로점,37.561114,127.1548276,"인도,태국",4.2,36,80
신당동,"서울특별시 강동구 성내로 8-14 (성내동,(2층))",까르보네,37.5299014,127.1212856,"인도,태국",3.2,9,7
가산동,서울특별시 강동구 상일로 155 (고덕동),마하나콘,37.5608714,127.17041,"인도,태국",4,3,7
보광동,서울특별시 강동구 성안로 149 (천호동),러브리즘,37.536599,127.1347032,"인도,태국",0,0,1
명륜2가,서울특별시 강동구 양재대로 1401 (성내동),삐꼴로,37.5313002,127.1370607,"인도,태국",4.9,12,6
한남동,"서울특별시 강동구 상암로 152, 1층 (천호동)",뮤땅,37.5455887,127.1392784,"인도,태국",3.7,10,28
남산동2가,"서울특별시 강동구 성안로3길 76, 왕자와공주어린이집 1층 (성내동)",샬레 드 서울,37.5272782,127.1257885,"인도,태국",5,2,0
한남동,"서울특별시 강동구 상일로5길 8-3 (상일동,(1층))",땀땀,37.5492403,127.1725625,"인도,태국",3,8,308
창동,"서울특별시 강동구 구천면로98길 19, 1층 (상일동)",포유,37.5498842,127.1713967,"인도,태국",0,0,0
도원동,"서울특별시 강동구 상암로 209, 1층 (명일동)",하노이별,37.546634,127.1457925,"인도,태국",3.4,10,3
방배동,"서울특별시 강동구 동남로82길 141, 지1층 B01호 (고덕동)",MOCO,37.5603339,127.16483,"인도,태국",4,15,2
신사동,서울특별시 강동구 동남로 640 (둔촌동),콘피에르,37.5313416,127.1498291,"인도,태국",4.2,25,55
황학동,서울특별시 강동구 성내로8길 9-14 (성내동),토마토 피자,37.5286497,127.1241485,"인도,태국",0,0,0
수하동,서울특별시 강동구 동남로71길 20-10 (명일동),띤띤,37.5523539,127.1552449,"인도,태국",4.5,11,66
마곡동,서울특별시 강동구 상일로15길 22 (고덕동),램시티,37.5582625,127.1699687,"인도,태국",4.6,14,14
이태원동,"서울특별시 강동구 성안로13길 27 (성내동, 102호)",링,37.531515,127.1308225,"인도,태국",0,0,0
여의도동,서울특별시 강동구 양재대로 1595 (천호동),마리포사 & M29,37.5479709,127.1431882,"인도,태국",4,1,4
종로1가,서울특별시 강동구 성내로5길 29 (성내동),쿠아타이푸드,37.5311266,127.1237994,"인도,태국",4.9,9,2
서초동,"서울특별시 강동구 동남로83길 22, 1층 (고덕동)",쿤쏨차이,37.5608607,127.1552759,"인도,태국",3.8,36,114
여의도동,"서울특별시 강동구 명일로 273, 1층 (길동)",아이에프씨몰테이스팅룸,37.5430951,127.1475535,"인도,태국",0,0,2
양재동,서울특별시 강동구 명일로 106-12 (둔촌동),포몬스 양재점,37.5284453,127.1432277,"인도,태국",3.7,9,6
신림동,"서울특별시 강동구 성내로 11, 107,108호 (성내동)",카페인,37.5305106,127.1221842,"인도,태국",4.9,10,3
한강로2가,"서울특별시 강동구 동남로67길 37, 1층 (명일동)",쏭타이 치앙마이,37.5486468,127.1536863,"인도,태국",3.8,30,91
보광동,"서울특별시 강동구 성안로13길 21, 1층 (성내동)",코끼리베이글,37.5314338,127.1312599,"인도,태국",3.6,8,49
삼성동,서울특별시 강동구 명일로 167 (둔촌동),캘리서울,37.5339012,127.1445766,"인도,태국",0,0,4
봉천동,"서울특별시 강동구 명일로 238, 109호 (길동, 도림시티빌)",타이반쩜,37.5401044,127.1470472,"인도,태국",4,1,2
상암동,"서울특별시 강동구 성안로 156, 1층 102호 (길동, 우주빌딩)",파란만잔 상암점,37.5368812,127.1354283,"인도,태국",5,2,12
후암동,서울특별시 강동구 구천면로42길 23 (천호동),후암쌀국수,37.5461878,127.135573,"인도,태국",5,10,28
서초동,서울특별시 강동구 성안로3길 76 (성내동),커리146,37.5272782,127.1257885,"인도,태국",3.7,3,14
신사동,"서울특별시 강동구 상일로15길 34, 1층 104,105호 (고덕동)",목로,37.5582339,127.1693254,"인도,태국",3.4,7,9
필동2가,서울특별시 강동구 상암로 47 (암사동),필동 이태리식당,37.549737,127.1288039,"인도,태국",2.7,10,19
종로1가,서울특별시 강동구 동남로85길 70 (고덕동),풍황,37.5606676,127.1529883,"인도,태국",4.1,22,47
구로동,서울특별시 강동구 성내로18길 29 (성내동),낀알로이알로이,37.5255553,127.1287433,"인도,태국",4.8,9,4
봉천동,"서울특별시 강동구 성내로6길 14 (성내동,1층)",포36거리 낙성대역점,37.5292951,127.1227007,"인도,태국",3.6,17,11
문래동3가,서울특별시 강동구 성내로 66 (성내동),몬스터비,37.527672,127.1270901,"인도,태국",4.2,10,103
한남동,"서울특별시 강동구 양재대로 1465, 101호 (길동, 마루홈타운)",아분드,37.5368624,127.1393063,"인도,태국",3.7,3,61
상암동,"서울특별시 강동구 아리수로76길 11, 1층 (고덕동)",비스트로에버,37.5622202,127.1626474,"인도,태국",3.4,5,6
황학동,"서울특별시 강동구 성안로 199, 1층 (천호동)",포25,37.540696,127.1367628,"인도,태국",3.7,9,26
원남동,"서울특별시 강동구 상암로 41, 지하1층 (암사동, 암사동양덱스빌)",리드아트,37.5501642,127.1282236,"인도,태국",3.7,3,31
광희동1가,서울특별시 강동구 성안로3길 120-6 (성내동),로얄푸드카페,37.5283426,127.1237253,"인도,태국",3.1,49,212
사당동,"서울특별시 강동구 명일로 200-10, 102호 (길동)",무삥과팟타이,37.5364724,127.1462676,"인도,태국",4.3,18,33
삼성동,서울특별시 강동구 상암로4길 5 (암사동),재희키친,37.5502299,127.126338,"인도,태국",5,1,17
천호동,서울특별시 강동구 성내로8길 9-12 (성내동),깍뜨,37.5287253,127.1239834,"인도,태국",4.2,5,3
독산동,서울특별시 강동구 아리수로64길 38 (고덕동),베트남쌀국수,37.5604905,127.1537894,"인도,태국",0,0,1
역삼동,"서울특별시 강동구 동남로49길 60-11, 지층 (둔촌동)",델리커리,37.5332175,127.1465672,"인도,태국",3.3,4,40
청담동,"서울특별시 강동구 성안로 173, 102호 (천호동, 신구오피스텔)",하와이안포케1971 청담스토어,37.5384707,127.1356483,"인도,태국",4,1,0
을지로6가,서울특별시 강동구 상암로 163 (천호동),퍼퓰러,37.5460506,127.1406455,"인도,태국",4.9,13,238
길동,"서울특별시 강동구 상일로6길 39, 강동타워 1층 (상일동)",사이공본가 길동점,37.5498543,127.175374,"인도,태국",5,2,6
신사동,"서울특별시 강동구 성내로6길 20 (성내동,(117호))",에르바,37.528912,127.1223551,"인도,태국",4.4,18,82
충무로3가,서울특별시 강동구 성내로5길 31 (성내동),보틀러,37.531256,127.1238892,"인도,태국",4.3,7,57
역삼동,"서울특별시 강동구 성내로5길 15, 1층 101호 (성내동, (주)플라스틱과사람들)",커리146,37.5305896,127.1233845,"인도,태국",3.5,4,1
태평로1가,"서울특별시 강동구 상암로 55, 정인빌딩 1층 (암사동)",더플레이스 광화문SFC점,37.5494204,127.1295042,"인도,태국",2.7,9,56
양평동4가,서울특별시 강동구 성내로6길 42 (성내동),리틀타이완,37.528088,127.1218379,"인도,태국",4,1,0
원효로1가,서울특별시 강동구 명일로19길 14 (길동),이치즈,37.5396022,127.1458058,"인도,태국",4.6,19,18
공릉동,서울특별시 강동구 명일로 200-6 (길동),타이인플레이트,37.5364937,127.1461306,"인도,태국",5,2,7
석관동,"서울특별시 강동구 상암로 75-1, 101호 (암사동)",고랭,37.5485138,127.1316479,"인도,태국",4.3,3,5
방배동,"서울특별시 강동구 동남로83길 49, 1층 (고덕동)",겁없는 토끼부엌 LITE,37.5600513,127.1541487,"인도,태국",5,2,28
남대문로5가,"서울특별시 강동구 상암로 42, 암사오피스텔 1층 129,130호 (천호동)",에머이 서울역점,37.5495882,127.1279034,"인도,태국",3.6,7,19
신사동,"서울특별시 강동구 양재대로 1367 (성내동,1층 10,11호)",베트남고향식당 2호점,37.5283148,127.1359485,"인도,태국",3.3,13,37
합정동,"서울특별시 강동구 아리수로93길 33, 베스트프라자 2층 (강일동)",월남선생합정역점,37.5659078,127.1735545,"인도,태국",3.5,13,79
삼성동,"서울특별시 강동구 상일로3길 19, 1층 (상일동)",탄두리카,37.5485407,127.1721135,"인도,태국",2.6,15,3
관철동,서울특별시 강동구 상암로 47-6 (암사동),죠티인도레스토랑,37.5496543,127.1291864,"인도,태국",4.2,12,10
성수동1가,"서울특별시 강동구 상암로27길 29, 1층 101호 (천호동)",수플,37.5474163,127.1378134,"인도,태국",4,2,15
역삼동,서울특별시 강동구 구천면로41길 42 (천호동),아그라,37.5472287,127.1318455,"인도,태국",2.8,15,55
마장동,서울특별시 강동구 아리수로 243 (고덕동),주향 양꼬치,37.5630738,127.1550983,"인도,태국",0,0,0
능동,서울특별시 강동구 상일로 161 (고덕동),르번미군자역점,37.5613805,127.1703056,"인도,태국",3.2,19,24
남가좌동,서울특별시 강동구 상일로5길 29 (상일동),아시아니스,37.5487774,127.1714246,"인도,태국",0,0,0
화양동,"서울특별시 강동구 상일로 125, 지하1층 (고덕동)",건대연어덮밥,37.5583157,127.1709692,"인도,태국",3.4,8,19
남대문로5가,서울특별시 강동구 상암로 44 (천호동),삼미 양꼬치,37.5496483,127.1283192,"인도,태국",2.6,7,8
방배동,"서울특별시 강동구 동남로81길 100, 청강빌딩 1층 101호 (고덕동)",배떡 방배점,37.5589851,127.1517265,"인도,태국",4.2,10,6
흥인동,"서울특별시 강동구 성내로12길 9, 성내동대경빌딩 1층 (성내동)",디핀,37.5278031,127.1259534,"인도,태국",3.9,10,19
군자동,"서울특별시 강동구 성내로5길 34, 해돋이 1층 (성내동)",베트남쌀국수,37.5312432,127.1241478,"인도,태국",2,1,10
망원동,서울특별시 강동구 암사1가길 11 (암사동),비스트로 망원,37.551941,127.1302967,"인도,태국",3.9,14,86
광희동1가,"서울특별시 강동구 명일로 110, 1층 108호 (둔촌동)",임페리아,37.5288078,127.143166,"인도,태국",4.3,6,7
한남동,"서울특별시 강동구 명일로 375, 1층 31호 (명일동, 삼익2차상가)",조국,37.5520157,127.1494682,"인도,태국",0,0,0
동교동,"서울특별시 강동구 상암로12길 9, 1층 (천호동)",메콩타이 홍대역점,37.5492336,127.1286011,"인도,태국",3.4,9,38
수표동,서울특별시 강동구 상암로 63 (암사동),을지로그랑블루,37.5490159,127.130399,"인도,태국",3.3,12,67
무교동,"서울특별시 강동구 동남로 877 (명일동,한화오벨리스크202,203호)",마르셀 광화문점,37.5520152,127.155802,"인도,태국",3.9,13,105
명륜4가,"서울특별시 강동구 동남로82길 135, 1층 (고덕동)",교자 익스프레스,37.5603664,127.1644407,"인도,태국",5,4,1
방화동,서울특별시 강동구 상일로7길 6-5 (상일동),아그라,37.5502299,127.172412,"인도,태국",2.9,25,110
강일동,"서울특별시 강동구 아리수로 423, 2층 201,202호 (강일동)",사이공본가 강일점,37.5647832,127.1743331,"인도,태국",5,1,1
암사동,서울특별시 강동구 성내로10길 13 (성내동),칸죠크,37.5282209,127.1246865,"인도,태국",4,1,2
용산동2가,"서울특별시 강동구 상암로 202 (명일동, 1층, 2층)",진저키친,37.5462033,127.1447563,"인도,태국",2.8,10,47
한강로3가,"서울특별시 강동구 양재대로 1520, B동 103호 (길동)",마린커피 빅히트 사옥점,37.5412916,127.1416645,"인도,태국",5,1,0
가락동,서울특별시 강동구 양재대로 1595 (천호동),포호아 딜리버리,37.5479709,127.1431882,"인도,태국",0,0,0
화곡동,"서울특별시 강동구 상암로51길 36, 1층 (명일동)",피자연합 화곡점,37.5481284,127.1463183,"인도,태국",0,0,1
신당동,서울특별시 강동구 상암로 77 (암사동),야래향 양꼬치,37.5484194,127.1318374,"인도,태국",4,4,4
봉천동,서울특별시 강동구 동남로65길 16 (명일동),타이패밀리,37.5477874,127.1550445,"인도,태국",4.6,27,23
창신동,"서울특별시 강동구 성안로 191, 1층 (천호동)",룸비니,37.5401195,127.1364924,"인도,태국",5,8,4
서초동,"서울특별시 강동구 양재대로 1549, 삼정빌딩 1층 103호 (천호동)",배달의 쌀국수 서초점,37.5440504,127.1420702,"인도,태국",1,1,0
동숭동,서울특별시 강동구 상암로 171 (천호동),롤링파스타 대학로점,37.5461809,127.1413675,"인도,태국",2.7,14,47
서초동,"서울특별시 강동구 구천면로47길 20, 1층 (암사동)",레몬그라스 타이,37.5490473,127.135064,"인도,태국",4.3,16,118
반포동,서울특별시 강동구 성내로18길 29 (성내동),띤띤익스프레스 고속터미널점,37.5255553,127.1287433,"인도,태국",4,4,9
반포동,"서울특별시 강동구 동남로82길 111, 1층 (고덕동)",레스토랑 라모라,37.5604415,127.1631729,"인도,태국",4,19,46
서초동,서울특별시 강동구 상암로 28 (암사동),어메이징타이,37.5503358,127.1267518,"인도,태국",3.6,27,22
봉천동,"서울특별시 강동구 양재대로 1549, 삼정빌딩 1층 107호 (천호동)",샌드버거그리다,37.5440504,127.1420702,"인도,태국",5,1,0
통의동,"서울특별시 강동구 동남로 892, 지하1층 (상일동, 강동경희대병원)",이층,37.5534484,127.1573794,"인도,태국",0,0,0
옥수동,서울특별시 강동구 상일로3길 13 (상일동),이태리밥집,37.5485644,127.1724227,"인도,태국",4.5,2,16
이태원동,서울특별시 강동구 성안로3길 124 (성내동),버거워,37.5283234,127.1234091,"인도,태국",5,1,1
통인동,서울특별시 강동구 상암로 169 (천호동),알로이막막,37.5461503,127.1411783,"인도,태국",2.6,44,151
한강로1가,"서울특별시 강동구 양재대로 1496, 1층 (길동)",어스어게인,37.5391433,127.1408812,"인도,태국",5,2,1
망원동,"서울특별시 강동구 암사길 108, 1층 101호 (암사동, 케이집쎄븐)",장화신은고양이,37.5509655,127.1402992,"인도,태국",4.4,10,28
구로동,"서울특별시 강동구 구천면로42길 19, 1층 (천호동)",붕따우,37.5462192,127.1353673,"인도,태국",5,1,2
도곡동,"서울특별시 강동구 상일로 5, 1층 (상일동)",시트롱,37.54755,127.1732575,"인도,태국",4.2,13,50
논현동,서울특별시 강동구 성내로12길 13 (성내동),제트엑스키친,37.5276781,127.1258569,"인도,태국",0,0,0
흑석동,"서울특별시 강동구 양재대로 1376, 광안빌딩 2층 201호 (둔촌동)",사이공리,37.5288221,127.1371806,"인도,태국",4.3,11,19
장안동,"서울특별시 강동구 상암로49길 12, 1층 (명일동)",미스사이공장안점,37.54698,127.1450061,"인도,태국",3.7,10,38
신문로2가,"서울특별시 강동구 상암로 54, 브라운스톤암사아파트상가 1층 108호 (천호동)",데일리셔스,37.549196,127.1293267,"인도,태국",3.3,3,4
삼선동4가,"서울특별시 강동구 성안로 22, 1층 (성내동)",파스타입니다 성북구청점,37.5256196,127.1298829,"인도,태국",0,0,0
성산동,"서울특별시 강동구 양재대로 1574 (명일동,(1,2층))",마켓포,37.5459305,127.1434406,"인도,태국",4.3,3,1
망원동,"서울특별시 강동구 양재대로 1317, 경일빌딩 지하1층 101,102호 (성내동)",마리오,37.5239971,127.1343733,"인도,태국",4.4,25,12
망원동,서울특별시 강동구 아리수로76길 43 (고덕동),정성,37.5607218,127.1625074,"인도,태국",4.5,6,13
한남동,서울특별시 강동구 성내로18길 29 (성내동),코르소,37.5255553,127.1287433,"인도,태국",2.5,4,0
사당동,"서울특별시 강동구 상일로 23, 2층 (상일동)",하노이별,37.5491965,127.1729009,"인도,태국",4.1,32,54
안암동5가,"서울특별시 강동구 양재대로 1477, 지하2층 (길동)",효이당,37.5377748,127.1396971,"인도,태국",4,2,5
한강로2가,서울특별시 강동구 동남로81길 58 (고덕동),싸바이,37.5596246,127.153722,"인도,태국",1,2,37
청담동,"서울특별시 강동구 상암로27길 8, 1층 (천호동)",첸트로,37.5465226,127.1375048,"인도,태국",3.7,21,47
남대문로5가,서울특별시 강동구 상암로 88 (천호동),콘타이,37.547895,127.1324729,"인도,태국",4,7,25
길음동,"서울특별시 강동구 상암로 29 (암사동,(103호))",리틀방콕,37.5505727,127.1269733,"인도,태국",1.8,4,22
황학동,"서울특별시 강동구 상암로 42 (천호동,107호)",포메인 황학롯데캐슬점,37.5495882,127.1279034,"인도,태국",4.4,7,3
이태원동,서울특별시 강동구 암사길 34 (암사동),카키스터프,37.5516993,127.132924,"인도,태국",4.7,3,83
양재동,서울특별시 강동구 명일로 244 (길동),포누이루시,37.5404151,127.147114,"인도,태국",4,9,91
보광동,"서울특별시 강동구 성안로27길 18, 1층 1호,2호 (천호동)",다올,37.539436,127.1352628,"인도,태국",0,0,0
대치동,"서울특별시 강동구 상일로 143, 1층 102호 (고덕동)",마라차이즈,37.5597688,127.1706712,"인도,태국",4,12,71
시흥동,"서울특별시 강동구 상일로10길 36 (상일동, 101호)",엘파라이소,37.5508328,127.1741318,"인도,태국",5,2,2
이태원동,"서울특별시 강동구 성내로 8-9, 1층 (성내동)",마메종394,37.5299949,127.1215843,"인도,태국",0,0,0
망원동,"서울특별시 강동구 성안로 34, 1층 (성내동)",아셰프,37.5266935,127.1303077,"인도,태국",0,0,0
방배동,"서울특별시 강동구 상암로 201 (명일동,106호)",포몬스 베트남쌀국수,37.5466627,127.1450114,"인도,태국",4.1,31,38
상봉동,"서울특별시 강동구 구천면로68길 64, 1층 (천호동)",배달의쌀국수,37.5477982,127.142588,"인도,태국",5,2,7
이태원동,서울특별시 강동구 암사길 45 (암사동),콩카페이태원점,37.5519643,127.1344796,"인도,태국",4.3,34,175
신정동,서울특별시 강동구 양재대로 1579 (천호동),배달의 쌀국수 양천점,37.5465634,127.1428417,"인도,태국",0,0,0
창신동,"서울특별시 강동구 동남로73길 17 (명일동,우진빌딩)",동묘마케트,37.5527488,127.1550917,"인도,태국",4.5,8,59
한강로3가,"서울특별시 강동구 양재대로 1549, 1층 (천호동)",네가,37.5440504,127.1420702,"인도,태국",0,0,0
목동,"서울특별시 강동구 동남로75길 13, 201호 (명일동,은현빌딩 2층)",니들누들,37.5541958,127.1555597,"인도,태국",4,1,9
이태원동,서울특별시 강동구 명일로 108 (둔촌동),질할브로스 이태원점,37.5287456,127.142721,"인도,태국",0,0,0
면목동,"서울특별시 강동구 성내로18길 37, 1층 101호 (성내동, 태양빌딩)",하노이쌀롱,37.5253257,127.1284884,"인도,태국",0,0,0
화곡동,서울특별시 강동구 상일로5길 16 (상일동),맘마미아 파스타,37.5490805,127.1721834,"인도,태국",5,7,0
성수동2가,"서울특별시 강동구 동남로81길 26 (고덕동,103호)",성수찌개,37.5604013,127.1552977,"인도,태국",4,1,27
신사동,서울특별시 강동구 상일로15길 24 (고덕동),Bowl Room,37.5582541,127.1698089,"인도,태국",4.1,33,216
만리동1가,서울특별시 강동구 상암로 93 (암사동),비스트로 한강,37.5477524,127.1334201,"인도,태국",2.8,6,49
양재동,"서울특별시 강동구 동남로81길 26, 1층 105호 (고덕동)",태국식당356,37.5604013,127.1552977,"인도,태국",3.6,10,40
한강로2가,"서울특별시 강동구 상암로 11 (암사동,101동 상가 B01호)",봉쥬르14도,37.553258,127.1251915,"인도,태국",5,1,10
진관동,"서울특별시 강동구 동남로73길 26 (명일동,108호)",구파발파스타,37.5533037,127.1547967,"인도,태국",4.3,16,18
길음동,"서울특별시 강동구 상암로47길 76, 1층 (명일동)",퍼틴,37.5499574,127.1445958,"인도,태국",4,1,11
구로동,서울특별시 강동구 성안로 48 (성내동),미분당 NC신구로점,37.5279688,127.1309016,"인도,태국",5,1,2
낙원동,"서울특별시 강동구 상암로 163, 1층 (천호동)",온스,37.5460506,127.1406455,"인도,태국",4.9,16,4
이태원동,서울특별시 강동구 상암로 28 (암사동),플랜트,37.5503358,127.1267518,"인도,태국",4.4,60,66
누하동,"서울특별시 강동구 구천면로98길 13, 1층 (상일동)",아주로,37.5501891,127.1713382,"인도,태국",3.7,6,43
합정동,"서울특별시 강동구 성안로 147 (천호동,지층)",폴베리,37.5364533,127.134588,"인도,태국",4.8,9,14
공릉동,서울특별시 강동구 상일로15길 34-10 (고덕동),르번미태릉점,37.5584105,127.1693087,"인도,태국",3.7,11,61
면목동,서울특별시 강동구 명일로13길 26 (둔촌동),고기를 품다,37.5338013,127.143314,"인도,태국",4.6,14,107
봉천동,서울특별시 강동구 성내로 16 (성내동),후안타이,37.5299717,127.1222842,"인도,태국",3.5,4,8
한남동,"서울특별시 강동구 양재대로 1594, 1층 (명일동)",텔라네,37.5476877,127.1437514,"인도,태국",0,0,0
누하동,"서울특별시 강동구 명일로 172, 1층 104호 (둔촌동, 둔촌푸르지오아파트상가)",레종데트르,37.5341657,127.1460809,"인도,태국",4.3,20,59
청담동,"서울특별시 강동구 상일로 29-1, 1층 (상일동)",도시노락 청담점,37.5497568,127.172796,"인도,태국",0,0,2
삼성동,"서울특별시 강동구 성안로3길 91, 1층 (성내동)",반포식스 포스코사거리점,37.5273745,127.1249375,"인도,태국",0,0,13
천호동,서울특별시 강동구 성내로8길 9-19 (성내동),이화쌀국수,37.528639,127.124655,"인도,태국",4.3,6,1
순화동,"서울특별시 강동구 명일로 238, 1층 110호 (길동, 도림시티빌)",신화 마라탕,37.5401044,127.1470472,"인도,태국",3.5,2,7
성수동2가,"서울특별시 강동구 동남로81길 36, 2층 (고덕동)",쓰리오브어스,37.5601262,127.1547222,"인도,태국",2.3,17,87
등촌동,"서울특별시 강동구 상암로51길 46, 101동 102호 (명일동)",베트남노상식당,37.5485621,127.1464776,"인도,태국",2.8,45,57
신사동,"서울특별시 강동구 아리수로93길 27, 201호 (강일동, 강일타워)",타따블,37.5656316,127.1738307,"인도,태국",0,0,0
서초동,"서울특별시 강동구 동남로82길 27, 1층 102호 (고덕동)",잇스파이스 강남역점,37.5606655,127.1584435,"인도,태국",3.4,25,15
방배동,서울특별시 강동구 동남로81길 28 (고덕동),남미 플랜트 랩,37.5603094,127.155086,"인도,태국",4,44,138
연남동,"서울특별시 강동구 아리수로93나길 88, 상가동 1층 102호 (강일동, 강동리버스트8단지)",미드나잇,37.5717223,127.1748049,"인도,태국",4.4,24,23
효창동,서울특별시 강동구 상일로5길 23 (상일동),피자오 효창공원앞역점,37.5488209,127.1718313,"인도,태국",3.7,3,3
내자동,"서울특별시 강동구 명일로 238, 1층 111,112호 (길동, 도림시티빌)",루트,37.5401044,127.1470472,"인도,태국",5,6,3
북아현동,"서울특별시 강동구 명일로 227, 1층 (길동)",요녀석,37.5390822,127.1463392,"인도,태국",0,0,0
노량진동,서울특별시 강동구 상일로 31-1 (상일동),Saigon Lee,37.5499406,127.1727626,"인도,태국",3.4,64,116
이태원동,"서울특별시 강동구 명일로 106-5, 102호 (둔촌동)",오드스테어,37.5287047,127.1428951,"인도,태국",5,5,22
상도동,서울특별시 강동구 성내로3가길 23 (성내동),달리181,37.5304612,127.1241842,"인도,태국",4.2,5,10
노량진동,"서울특별시 강동구 상일로 147, 1층 (고덕동)",전티마이 베트남쌀국수,37.560179,127.1705746,"인도,태국",3.1,16,27
초동,"서울특별시 강동구 암사길 53 (암사동,(지1층))",로스트 앤 파운드,37.5520177,127.1353466,"인도,태국",4,11,18
청담동,"서울특별시 강동구 성안로 22, 1층 (성내동)",스피티코 청담,37.5256196,127.1298829,"인도,태국",3.5,8,15
논현동,"서울특별시 강동구 성안로 180, 동명빌딩 1층 (길동)",꼬로,37.5389438,127.1362863,"인도,태국",4.8,6,0
영등포동4가,"서울특별시 강동구 상암로47길 85 (명일동,102호)",띤띤,37.5503547,127.1444557,"인도,태국",3.2,17,26
동교동,"서울특별시 강동구 아리수로91길 32, 유러피안하우스1 101호 (강일동)",타코델리오,37.5652223,127.1729103,"인도,태국",3.8,13,24
길음동,서울특별시 강동구 명일로 200-10 (길동),나이쏘이,37.5364724,127.1462676,"인도,태국",5,1,38
시흥동,"서울특별시 강동구 상일로 155, 1층 (고덕동)",미스사이공 시흥사거리점,37.5608714,127.17041,"인도,태국",2.3,4,4
연남동,"서울특별시 강동구 아리수로93길 27, 강일타워 2층 205호 (강일동)",섬,37.5656316,127.1738307,"인도,태국",4.5,13,53
미아동,서울특별시 강동구 상암로5길 24 (암사동),싸움의 고수,37.5513977,127.1274807,"인도,태국",3.7,3,1
한남동,서울특별시 강동구 명일로13길 9 (둔촌동),모수서울,37.5339123,127.1442421,"인도,태국",4.8,12,13
가락동,"서울특별시 강동구 상암로 94, 1층 (천호동)",포짜오,37.5474906,127.1333401,"인도,태국",4,20,40
회기동,"서울특별시 강동구 암사길 66-1 (암사동,1층)",첨밀밀,37.5518545,127.1367881,"인도,태국",3,1,10
구의동,서울특별시 강동구 상일로6길 51 (상일동),포베이강변테크노마트점,37.5499275,127.1758656,"인도,태국",2,2,11
서교동,"서울특별시 강동구 양재대로 1459, 대진빌딩 1층 (길동)",깔모누아,37.536162,127.1390863,"인도,태국",3.9,7,11
합정동,"서울특별시 강동구 암사길 17, 1층 (암사동)",페페로니,37.5514584,127.1312102,"인도,태국",0,0,2
수유동,"서울특별시 강동구 상암로67길 19, 1층 103호 (명일동)",올드델리,37.5471794,127.1555983,"인도,태국",4,18,27
구의동,서울특별시 강동구 상일로5길 16 (상일동),아이락하우스,37.5490805,127.1721834,"인도,태국",4.3,4,3
신사동,서울특별시 강동구 상일로15길 34 (고덕동),태국당,37.5582339,127.1693254,"인도,태국",4.2,16,44
망원동,서울특별시 강동구 성내로6길 34-24 (성내동),코랏,37.528901,127.1210344,"인도,태국",4.3,13,13
공덕동,서울특별시 강동구 성내로6길 14-22 (성내동),팟타이 로얄,37.5298844,127.1217191,"인도,태국",4.7,16,18
동선동2가,"서울특별시 강동구 구천면로62가길 16, 1층 101호 (천호동, 샤인트리움)",안식당,37.5495819,127.1394876,"인도,태국",0,0,0
망원동,"서울특별시 강동구 양재대로 1307 (성내동,1층 17,18호)",라오삐약,37.5231526,127.1340425,"인도,태국",4.3,82,172
용두동,"서울특별시 강동구 양재대로 1396 (둔촌동,1층 1-15호)",포랑,37.5306503,127.1378356,"인도,태국",3,5,9
둔촌동,"서울특별시 강동구 성안로 155 (천호동,두산위브센티움상가 101호)",케밥브로,37.537231,127.1347625,"인도,태국",3.5,2,0
한강로3가,"서울특별시 강동구 상일로6길 39, 강동타워 1층 (상일동)",띤띤익스프레스,37.5498543,127.175374,"인도,태국",4.4,5,3
필동1가,"서울특별시 강동구 구천면로42길 28, 1층 102호 (천호동)",나마스테,37.545962,127.1356288,"인도,태국",4.3,4,5
공덕동,"서울특별시 강동구 양재대로 1371 (성내동,(15호 일부))",파파호,37.5287128,127.1360654,"인도,태국",3.7,12,21
면목동,"서울특별시 강동구 암사길 50, 지하1층 107호 (암사동)",포야포야,37.5516888,127.1349516,"인도,태국",5,2,28
이태원동,"서울특별시 강동구 성안로 12, M빌딩 1층 (성내동)",오피노누아,37.5249104,127.1295903,"인도,태국",0,0,0
용산동2가,서울특별시 강동구 성안로 158-1 (길동),오파토,37.5371914,127.1355262,"인도,태국",5,2,13
한강로1가,"서울특별시 강동구 동남로73길 9, 2층 (명일동)",그래비티터미널,37.5525337,127.1555833,"인도,태국",4.3,3,7
월계동,"서울특별시 강동구 아리수로74길 35-22, 1층 (고덕동)",베트남노상식당,37.5608883,127.161977,"인도,태국",4.1,12,17
역삼동,서울특별시 강동구 동남로 665 (둔촌동),씨블루,37.533658,127.1503234,"인도,태국",0,0,0
한강로2가,서울특별시 강동구 상암로 183 (천호동),콘타이,37.5464477,127.1426681,"인도,태국",2.9,34,180
북가좌동,서울특별시 강동구 성내로10길 12 (성내동),수국쌀복,37.5284445,127.1245557,"인도,태국",4.4,18,14
초동,서울특별시 강동구 상암로 84 (천호동),코브,37.5480259,127.1321466,"인도,태국",0,0,0
봉천동,서울특별시 강동구 구천면로42길 38 (천호동),하노이별 서울대입구점,37.545705,127.1361035,"인도,태국",4.6,23,18
가락동,서울특별시 강동구 성내로6길 14-5 (성내동),라오빠빠 ,37.5294145,127.1224462,"인도,태국",4.6,37,84
한강로3가,"서울특별시 강동구 상일로6길 26 (상일동,(지하1층))",아그라,37.5487917,127.1752267,"인도,태국",3.2,6,23
동교동,"서울특별시 강동구 아리수로94길 19 (강일동,6단지상가 104호)",쑥짜이,37.5642079,127.1767419,"인도,태국",2.6,5,27
신문로1가,"서울특별시 강동구 동남로82길 73, 2층 (고덕동)",반포식스 광화문점,37.5608887,127.1610176,"인도,태국",2.7,16,64
동자동,"서울특별시 강동구 성내로18길 32 (성내동,101호)",콴안비엣KDB점,37.5256217,127.1284059,"인도,태국",0,0,0
한강로2가,서울특별시 강동구 성안로 48 (성내동),피피에스,37.5279688,127.1309016,"인도,태국",4.1,11,17
신사동,서울특별시 강동구 상암로67길 35 (명일동),솔빈덕,37.5479162,127.1556495,"인도,태국",3.9,17,18
여의도동,"서울특별시 강동구 성안로3길 127, 1층 (성내동)",이터스 여의도점,37.5281962,127.1231146,"인도,태국",4.5,2,5
창천동,서울특별시 강동구 상암로 16 (암사동),신촌 카우키,37.5508192,127.1255146,"인도,태국",4,10,54
사간동,서울특별시 강동구 상암로 20 (암사동),더그릭,37.550647,127.1258068,"인도,태국",1,1,7
남대문로5가,"서울특별시 강동구 양재대로 1448, 1층 (길동)",아그라,37.5350777,127.1393389,"인도,태국",4.1,10,30
원효로2가,"서울특별시 강동구 상암로 126, 1층 (천호동)",옐로우피자,37.5461252,127.136382,"인도,태국",4.9,11,4
종로5가,"서울특별시 강동구 상암로 199, 101-2호 (명일동, 한강훼미리아파트)",카페 종로예술극장,37.5466357,127.1447003,"인도,태국",5,3,8
역삼동,서울특별시 강동구 성내로8길 9-11 (성내동),로그,37.5288665,127.1241018,"인도,태국",0,0,2
도곡동,서울특별시 강동구 상일로17길 20 (고덕동),포첸하우스,37.5589931,127.1698245,"인도,태국",2.7,3,2
신천동,"서울특별시 강동구 동남로73길 26, 1층 15호 (명일동, 고덕복합빌딩)",반미 바이 리틀사이공,37.5533037,127.1547967,"인도,태국",2.5,45,106
적선동,서울특별시 강동구 상암로 196 (명일동),시에라,37.546183,127.1441891,"인도,태국",0,0,0
마곡동,"서울특별시 강동구 상일로 39-8, 1층 (상일동)",크래프트 한스 마곡점,37.550696,127.1722627,"인도,태국",5,1,4
신천동,"서울특별시 강동구 상일로25길 7, 1층 1호 (고덕동)",퍼틴 롯데캐슬점,37.5614561,127.1700224,"인도,태국",4.8,5,56
구의동,서울특별시 강동구 상암로47길 77 (명일동),프언타이,37.5500057,127.144342,"인도,태국",4.3,4,4
가락동,"서울특별시 강동구 성안로 15, 동성빌딩 1층 (성내동)",홀리차우 익스프레스,37.5253564,127.1293041,"인도,태국",5,3,1
만리동1가,"서울특별시 강동구 양재대로 1494, 지하1층 (길동)",빈공간,37.5389848,127.1407723,"인도,태국",4.4,10,12
명동2가,서울특별시 강동구 상암로 86 (천호동),라화쿵부마라탕,37.5479639,127.1322739,"인도,태국",2.5,15,107
창신동,"서울특별시 강동구 상암로11길 25 (암사동,(A-124))",수기네 양꼬치,37.5508634,127.128835,"인도,태국",5,1,0
남가좌동,"서울특별시 강동구 상암로 126, 개러지키친 천호점 지1층 6호 (천호동)",아시안쿠진,37.5461252,127.136382,"인도,태국",4.5,14,10
신대방동,"서울특별시 강동구 성내로 28, 강동빌딩 지1층 9호 (성내동)",에머이 보라매점,37.5293388,127.1234569,"인도,태국",2,4,3
용산동2가,서울특별시 강동구 양재대로 1562 (길동),피비앤제이,37.5448821,127.1429121,"인도,태국",0,0,0
삼전동,"서울특별시 강동구 동남로 892 (상일동,경희대 동서신의학병원 별관 지하2층)",마담타이,37.5534484,127.1573794,"인도,태국",4,8,6
북아현동,"서울특별시 강동구 상암로 195 (명일동,(105호))",아현닭칼국수,37.5466253,127.1441985,"인도,태국",4.3,4,11
상도1동,"서울특별시 강동구 명일로 196, 1층 (길동)",미스사이공 상도역점,37.5362615,127.1458391,"인도,태국",4.3,7,16
한남동,"서울특별시 강동구 명일로 113 (둔촌동, 둔촌하이츠상가104호)",미트로칼,37.5294404,127.1422309,"인도,태국",5,4,3
서교동,"서울특별시 강동구 양재대로 1299, 1층 108,109,110,116호 (성내동)",카레시,37.5224859,127.1336953,"인도,태국",3.6,58,178
길동,"서울특별시 강동구 상일로 35 (상일동, 2층)",반피셋,37.5503713,127.1726853,"인도,태국",4.3,9,18
신림동,서울특별시 강동구 상일로5길 15 (상일동),레트로서프,37.54886,127.1721614,"인도,태국",0,0,7
능동,서울특별시 강동구 상일로 31-1 (상일동),호아빈군자역,37.5499406,127.1727626,"인도,태국",3.6,12,7
서초동,서울특별시 강동구 동남로85길 63 (고덕동),반포식스 교대역점,37.5604765,127.1534119,"인도,태국",2,1,10
대치동,"서울특별시 강동구 상일로15길 34-19, 1층 (고덕동)",리틀 하노이,37.558622,127.1698475,"인도,태국",4,3,4
한강로2가,"서울특별시 강동구 양재대로 1466, 1층 104호 (길동)",하리,37.5367599,127.1398828,"인도,태국",0,0,0
인현동2가,서울특별시 강동구 구천면로42길 4 (천호동),FAKE,37.5463878,127.1343547,"인도,태국",0,0,0
한남동,서울특별시 강동구 구천면로42길 39 (천호동),블루누드,37.5457502,127.1363706,"인도,태국",4,3,5
가산동,서울특별시 강동구 동남로49길 7 (둔촌동),빈포,37.5317613,127.149197,"인도,태국",4,2,12
장안동,"서울특별시 강동구 상암로63길 46, 1층 (명일동)",레술토랑청춘,37.5485471,127.1542308,"인도,태국",4,2,15
신월동,서울특별시 강동구 동남로81길 74 (고덕동),브라더양꼬치,37.5592274,127.1529069,"인도,태국",0,0,5
용산동2가,"서울특별시 강동구 상암로 201 (명일동, 201호)",모로코코,37.5466627,127.1450114,"인도,태국",4,41,91
신사동,서울특별시 강동구 양재대로 1535 (천호동),칼라바르셀로나,37.5429916,127.1412598,"인도,태국",5,5,0
목동,"서울특별시 강동구 동남로81길 100, 1층 (고덕동)",홍대쌀국수,37.5589851,127.1517265,"인도,태국",1,1,1
한남동,서울특별시 강동구 상암로 100 (천호동),산카레,37.5473648,127.1337123,"인도,태국",2.8,4,13
대치동,서울특별시 강동구 상일로5길 27 (상일동),보스버거,37.5487893,127.1715585,"인도,태국",5,2,6
여의도동,"서울특별시 강동구 양재대로 1571, 천호복합 상업시설 3층 (천호동)",여의도 랑만,37.5457146,127.1422553,"인도,태국",4.1,67,142
신문로2가,"서울특별시 강동구 상암로 14, 103호 (암사동)",디 언타이틀드 보이드,37.5508722,127.1253402,"인도,태국",4.7,3,40
대방동,"서울특별시 강동구 동남로71길 38, 1층 109호 (명일동, 동양타워)",포엘,37.5520312,127.1540865,"인도,태국",0,0,0
한남동,"서울특별시 강동구 성내로 91, 104,105호 (성내동, 다성이즈빌아파트상가)",우주인피자이태원본점,37.5269116,127.1299888,"인도,태국",5,1,21
방화동,서울특별시 강동구 양재대로 1392 (둔촌동),포아이니,37.5302669,127.1376641,"인도,태국",4.3,6,3
성수동1가,서울특별시 강동구 아리수로61길 40 (고덕동),타이로띠,37.5633709,127.1498516,"인도,태국",4.1,8,0
명일동,서울특별시 강동구 상일로7길 12-6 (상일동),엔메르,37.5501287,127.1722364,"인도,태국",5,5,21
회기동,서울특별시 강동구 성내로 4 (성내동),하카타,37.5304146,127.1211957,"인도,태국",4,7,14
이태원동,서울특별시 강동구 구천면로42길 46 (천호동),레브온더힐,37.5454027,127.1364346,"인도,태국",0,0,4
용산동2가,"서울특별시 강동구 명일로13길 8, 대은빌딩 2층 (둔촌동)",히타나,37.5340953,127.1441566,"인도,태국",5,1,4
천호동,"서울특별시 강동구 성내로10길 16 (성내동,윤종빌딩1층)",사이공본가 암사점,37.5283199,127.1244473,"인도,태국",5,3,6
사당동,서울특별시 강동구 양재대로 1479 (길동),콘까올리,37.5380886,127.1398273,"인도,태국",0,0,0
원남동,"서울특별시 강동구 동남로71길 20-9, 파라빌딩 2층 202호 (명일동)",창경궁 150,37.5523586,127.154816,"인도,태국",4.2,9,36
방화동,"서울특별시 강동구 상암로67길 15, 지하1층 (명일동)",아시아 식당,37.5470507,127.1555922,"인도,태국",0,0,2
구로동,"서울특별시 강동구 아리수로93길 33-15, 1층 101호 (강일동)",반포식스 구로점,37.5656261,127.1729473,"인도,태국",2.2,14,23
반포동,"서울특별시 강동구 동남로85길 48, 1층 101호 (고덕동)",소이연남 파미에스테이션점,37.5608574,127.1543065,"인도,태국",3.9,43,340
방배동,서울특별시 강동구 구천면로47길 62 (암사동),포베이,37.550815,127.135088,"인도,태국",1,4,4
용산동2가,"서울특별시 강동구 성안로 172, 102동 101,102,103호 (길동, 에이비치 골드빌)",바이두부,37.5385076,127.1363642,"인도,태국",4.3,6,6
용산동2가,"서울특별시 강동구 상암로 207, 강동제일빌딩 1층 (명일동)",해방식당,37.5466972,127.1455275,"인도,태국",4.6,31,19
신림동,"서울특별시 강동구 성내로 20 (성내동,정일빌딩104)",원두막,37.5297724,127.1226989,"인도,태국",0,0,0
한강로2가,서울특별시 강동구 명일로16길 20 (길동),포로이,37.5371473,127.1471654,"인도,태국",3.5,4,4
석촌동,"서울특별시 강동구 성안로 10, 현대표지 1층 105호 (성내동)",미분당 송파점,37.5247241,127.1294944,"인도,태국",3.3,7,28
성수동2가,서울특별시 강동구 상일로5길 8-7 (상일동),에바스,37.5493481,127.1725433,"인도,태국",5,1,2
신사동,"서울특별시 강동구 아리수로74길 35-33, 1층 102호 (고덕동)",욜,37.5608559,127.1627247,"인도,태국",1,1,46
구로동,"서울특별시 강동구 아리수로93길 33-9 (강일동,1층 105호)",제라진 돈까츠 구로지밸리점,37.5657383,127.1732169,"인도,태국",3.7,3,25
만리동1가,서울특별시 강동구 상암로 177 (천호동),O'HARE22,37.5463238,127.1420811,"인도,태국",3.7,7,15
한남동,"서울특별시 강동구 상암로 20, 106,107호 (암사동)",로프트230,37.550647,127.1258068,"인도,태국",4.8,8,3
내발산동,서울특별시 강동구 명일로 197 (길동),타코까나스따,37.5364544,127.1455111,"인도,태국",4.5,2,10
남영동,서울특별시 강동구 성안로3길 120 (성내동),유용욱바베큐연구소,37.5282242,127.1236352,"인도,태국",5,1,15
한강로3가,서울특별시 강동구 성안로 13 (성내동),라이트하우스,37.5252352,127.1292255,"인도,태국",0,0,0
역삼동,서울특별시 강동구 양재대로 1427 (성내동),쏭타이,37.5334593,127.1379983,"인도,태국",4.4,19,23
봉천동,"서울특별시 강동구 상일로7길 6-11, 1층 (상일동)",미스사이공 낙성대점,37.5504344,127.1723654,"인도,태국",4,9,15
삼성동,"서울특별시 강동구 성내로18길 46 (성내동,1층3호)",원 디그리 노스,37.5250931,127.1280617,"인도,태국",0,0,0
둔촌동,"서울특별시 강동구 성안로13길 42, 1층 (성내동)",판다,37.5319363,127.1300796,"인도,태국",0,0,0
화동,"서울특별시 강동구 상암로 42, 암사청과물도매시장 106호 (천호동)",월,37.5495882,127.1279034,"인도,태국",0,0,0
가양동,서울특별시 강동구 상암로47길 86 (명일동),블랙우드,37.5502935,127.1446346,"인도,태국",0,0,2
진관동,"서울특별시 강동구 동남로73길 31, 2층 (명일동)",스와가트,37.5526766,127.1544749,"인도,태국",3.6,16,134
전농동,"서울특별시 강동구 상일로 157, 1층 (고덕동)",PHO&RICE,37.560974,127.1703884,"인도,태국",2.5,4,3
권농동,"서울특별시 강동구 동남로73길 23, 2층 (명일동)",오하이,37.5525652,127.1550022,"인도,태국",5,6,0
용두동,서울특별시 강동구 동남로65길 5 (명일동),무나드,37.5476015,127.1556173,"인도,태국",4.4,9,112
망원동,"서울특별시 강동구 아리수로91길 28, 트리피움오피스텔 1층 101호 (강일동)",발리인망원,37.5650785,127.1730441,"인도,태국",3.7,62,196
창신동,"서울특별시 강동구 동남로83길 22, 102호 (고덕동)",베트남 분짜,37.5608607,127.1552759,"인도,태국",0,0,0
신도림동,서울특별시 강동구 동남로73길 23 (명일동),컴포 ,37.5525652,127.1550022,"인도,태국",4.9,9,83
합정동,"서울특별시 강동구 아리수로93나길 38, 아이메디컬 1층 103호 (강일동)",디오십일,37.5719496,127.1739317,"인도,태국",4.1,25,82
도렴동,"서울특별시 강동구 상암로 199 (명일동,1층 103호)",페이벡 커피,37.5466357,127.1447003,"인도,태국",0,0,15
당산동6가,서울특별시 강동구 상암로 101 (암사동),포제이,37.5474327,127.1341533,"인도,태국",3.8,16,15
서계동,"서울특별시 강동구 성내로3가길 41, 1층 (성내동)",청파책가도,37.5300885,127.1249993,"인도,태국",5,1,1
중계동,서울특별시 강동구 상일로7길 14 (상일동),포앤시드니중계점,37.5499849,127.1720247,"인도,태국",3.9,7,12
충무로1가,서울특별시 강동구 상암로47길 77 (명일동),소이연남 신세계백화점 본점,37.5500057,127.144342,"인도,태국",2.4,5,5
무학동,"서울특별시 강동구 동남로75길 13-7 (명일동,(2층2호))",드렁큰 와이프,37.5539265,127.1555298,"인도,태국",5,3,8
성수동1가,서울특별시 강동구 상암로 81 (암사동),르베지왕,37.5482981,127.1321074,"인도,태국",4.3,15,24
을지로4가,서울특별시 강동구 명일로 214 (길동),반포식스 을지트윈타워점,37.5377365,127.1462431,"인도,태국",1,1,8
구수동,"서울특별시 강동구 성안로 15, 동성빌딩 2층 (성내동)",마포,37.5253564,127.1293041,"인도,태국",4.4,23,23
화곡동,서울특별시 강동구 상암로4길 5 (암사동),늘상식당,37.5502299,127.126338,"인도,태국",5,2,76
이태원동,"서울특별시 강동구 구천면로47길 82 (암사동,102호)",엘피노323,37.5516784,127.1352695,"인도,태국",4,50,53
공평동,서울특별시 강동구 구천면로41길 7 (천호동),콘타이,37.5462941,127.1334806,"인도,태국",2.5,4,32
이태원동,"서울특별시 강동구 상암로 20, 1층 105호 (암사동)",킹케밥,37.550647,127.1258068,"인도,태국",3.4,25,15
봉천동,서울특별시 강동구 성내로 16 (성내동),리춘시장 샤로수길지점,37.5299717,127.1222842,"인도,태국",4,9,45
반포동,서울특별시 강동구 동남로75길 13-21 (명일동),타이가,37.5533222,127.1554886,"인도,태국",4.4,8,3
창천동,서울특별시 강동구 상암로 42 (천호동),가빈 커피,37.5495882,127.1279034,"인도,태국",5,3,3
익선동,"서울특별시 강동구 동남로85길 43, 1층 (고덕동)",주옹당,37.5607469,127.1545754,"인도,태국",0,0,10
계동,"서울특별시 강동구 성안로 155, 1층 105호 (천호동, 강동역두산위브센티움)",갈로팡,37.537231,127.1347625,"인도,태국",5,3,7
익선동,서울특별시 강동구 상암로 297 (명일동),농담,37.5464681,127.1555262,"인도,태국",4.5,15,34
대현동,서울특별시 강동구 상암로 183 (천호동),파스타브라바,37.5464477,127.1426681,"인도,태국",5,3,5
방학동,서울특별시 강동구 성내로 20 (성내동),푸라닭 방학점,37.5297724,127.1226989,"인도,태국",3.3,7,8
용산동2가,서울특별시 강동구 명일로12길 6 (둔촌동),사테,37.5337025,127.1450627,"인도,태국",3,5,6
신내동,"서울특별시 강동구 명일로 375, 삼익그린맨션 지하1층 21호 (명일동)",퍼바,37.5520157,127.1494682,"인도,태국",3.8,12,8
신사동,"서울특별시 강동구 양재대로 1392, 진산빌딩 1층 106호 (둔촌동)",우아인,37.5302669,127.1376641,"인도,태국",5,2,2
논현동,"서울특별시 강동구 상일로 37, 2층 (상일동)",헬로 포,37.5504714,127.1726634,"인도,태국",5,4,6
동자동,"서울특별시 강동구 상암로 195 (명일동,에이플러스106호)",바스버거후암점,37.5466253,127.1441985,"인도,태국",3.9,22,103
남창동,"서울특별시 강동구 상암로41길 37 (천호동,1층)",피그먼트,37.547769,127.1410601,"인도,태국",5,8,11
천호동,"서울특별시 강동구 명일로 238, 1층 108호 (길동, 도림시티빌)",스파이스마켓,37.5401044,127.1470472,"인도,태국",5,2,9
낙원동,"서울특별시 강동구 상암로27길 29, 1층 (천호동)",툴,37.5474163,127.1378134,"인도,태국",0,0,0
신사동,서울특별시 강동구 성내로 8-10 (성내동),끌림 이탈리아,37.5300122,127.1213659,"인도,태국",4.9,21,21
도곡동,서울특별시 강동구 상일로10길 36 (상일동),퀸즈 블러바드,37.5508328,127.1741318,"인도,태국",3.7,26,81
남대문로5가,"서울특별시 강동구 상암로 42, 암사청과물도매시장 103호 (천호동)",케르반 서울역점,37.5495882,127.1279034,"인도,태국",3.1,11,18
청진동,서울특별시 강동구 상암로 32 (암사동),어반 스테이,37.5501685,127.1270342,"인도,태국",4,11,1
신사동,"서울특별시 강동구 양재대로 1307 (성내동,(19호,20호))",리틀사이공,37.5231526,127.1340425,"인도,태국",3.7,152,72
여의도동,"서울특별시 강동구 명일로12길 6, 1층 (둔촌동)",분짜라붐,37.5337025,127.1450627,"인도,태국",3.1,17,74
청담동,"서울특별시 강동구 상일로3길 6, 1층 (상일동)",주식회사 마라바리,37.5488192,127.1727774,"인도,태국",0,0,0
창천동,서울특별시 강동구 상암로41길 31 (천호동),랑만,37.5475194,127.141096,"인도,태국",3.7,3,22
자양동,"서울특별시 강동구 상일로6길 39, 지하1층 (상일동,  강동타워)",미스사이공,37.5498543,127.175374,"인도,태국",3.3,17,11
신당동,"서울특별시 강동구 성안로13길 20, 1층 3호 (성내동)",알렉스더커피,37.5316022,127.1313527,"인도,태국",4,3,5
길음동,"서울특별시 강동구 양재대로 1571, 천호복합 상업시설 3층 (천호동)",666버거 성북점,37.5457146,127.1422553,"인도,태국",0,0,0
한강로3가,서울특별시 강동구 명일로12길 10 (둔촌동),에머이,37.5336169,127.1452503,"인도,태국",2.5,27,50
진관동,"서울특별시 강동구 동남로73길 26, 1층 9호 (명일동)",이태리식당 Choi's Dining,37.5533037,127.1547967,"인도,태국",4.3,15,9
방화동,"서울특별시 강동구 상암로4길 45, 1층 (암사동)",생어거스틴 김포공항점,37.5484473,127.1259918,"인도,태국",5,1,13
합정동,"서울특별시 강동구 암사길 58-1, 1층 (암사동)",몰토베네,37.5518483,127.1358548,"인도,태국",4.4,69,104
서초동,"서울특별시 강동구 양재대로 1571, 천호복합 상업시설 3층 (천호동)",하노이별 교대역점,37.5457146,127.1422553,"인도,태국",5,1,5
연희동,서울특별시 강동구 상일로3길 8 (상일동),베트남 테이블,37.5487906,127.1726341,"인도,태국",5,2,0
황학동,"서울특별시 강동구 양재대로 1392, 진산빌딩 1층 102호 (둔촌동)",홍호훠궈,37.5302669,127.1376641,"인도,태국",4.3,6,37
여의도동,"서울특별시 강동구 명일로 208, 1층 101호 (길동)",반피쏭,37.5371293,127.1460694,"인도,태국",3.7,3,9
용산동2가,"서울특별시 강동구 성안로27길 22, 1층 (천호동)",히든,37.5395374,127.1350065,"인도,태국",5,1,0
방배동,서울특별시 강동구 양재대로 1471 (길동),방배쌀국수,37.5373655,127.1392909,"인도,태국",5,1,0
연남동,"서울특별시 강동구 양재대로 1349, 3층 (성내동)",오마,37.5267275,127.1353772,"인도,태국",4.4,50,220
내자동,서울특별시 강동구 상암로 126 (천호동),칼리가리 박사의 밀실,37.5461252,127.136382,"인도,태국",3.9,7,17
마곡동,"서울특별시 강동구 상암로61길 50, 1층 (명일동)",포메인 마곡나루점,37.5488508,127.1527604,"인도,태국",3.7,6,13
논현동,"서울특별시 강동구 상일로 37 (상일동,1층)",청춘찜갈비,37.5504714,127.1726634,"인도,태국",0,0,0
봉천동,"서울특별시 강동구 성내로6길 14-16, 토성빌딩 1층 (성내동)",윤쿠치나 파스타&피자,37.529799,127.1221538,"인도,태국",3.5,4,4
면목동,"서울특별시 강동구 성내로 52 (성내동,성원빌딩1층)",포싸이,37.5283243,127.1257118,"인도,태국",2.3,3,7
연희동,서울특별시 강동구 상암로 26 (암사동),맨팅,37.5504373,127.1264095,"인도,태국",4.2,5,1
화양동,서울특별시 강동구 상일로 27 (상일동),미분당,37.549489,127.1728511,"인도,태국",3.3,56,48
여의도동,"서울특별시 강동구 명일로13길 19, 1층 (둔촌동)",에머이,37.5336981,127.1437287,"인도,태국",2.9,21,16
역삼동,"서울특별시 강동구 성내로14길 18, 104호 (성내동, 선광상가)",동방미식,37.5271765,127.1266706,"인도,태국",4.4,20,73
신사동,서울특별시 강동구 상암로41길 26 (천호동),타이선,37.547249,127.1413808,"인도,태국",5,5,11
신문로2가,"서울특별시 강동구 상암로 42, 암사오피스텔 111~112호 (천호동)",터치주스,37.5495882,127.1279034,"인도,태국",0,0,1
시흥동,서울특별시 강동구 상암로6길 23 (암사동),말이말이 김밥&우동,37.5493025,127.1267179,"인도,태국",0,0,0
봉천동,서울특별시 강동구 성내로6길 14-23 (성내동),포첸하우스,37.5297012,127.121752,"인도,태국",4.3,4,9
봉천동,"서울특별시 강동구 성내로 28 (성내동, 110호)",스윗밸런스 샤로수점,37.5293388,127.1234569,"인도,태국",2.8,46,62
한강로1가,"서울특별시 강동구 성내로8길 9-20, 1층 (성내동)",하비,37.5285513,127.1243768,"인도,태국",0,0,1
여의도동,"서울특별시 강동구 명일로 260, 1층 106,107,116,117호 (길동, 신동아아파트)",알로하포케IFC몰점,37.5417319,127.1477387,"인도,태국",2.1,16,73
논현동,"서울특별시 강동구 양재대로 1539, 103호 (천호동, 프라임빌딩)",노스트레스버거 강남,37.543152,127.1417612,"인도,태국",0,0,7
화동,"서울특별시 강동구 성내로6길 20, 113호 (성내동, 청일베르네)",와이엔,37.528912,127.1223551,"인도,태국",3.8,24,83
한남동,"서울특별시 강동구 동남로73길 26, 지하1층 54호 (명일동)",몽크스부처,37.5533037,127.1547967,"인도,태국",4.1,22,53
상계동,"서울특별시 강동구 상암로51길 7, 1층 (명일동)",올드델리,37.54699,127.1459386,"인도,태국",3.6,17,36
대현동,서울특별시 강동구 구천면로41길 7 (천호동),포히엔 베트남 쌀국수,37.5462941,127.1334806,"인도,태국",4.9,19,43
대현동,"서울특별시 강동구 상암로 201 (명일동,101호)",전티마이 베트남 쌀국수 이화여대점,37.5466627,127.1450114,"인도,태국",3.3,9,12
상계동,"서울특별시 강동구 성안로3길 128 (성내동,2층)",프랭크버거 수락산역점,37.5283908,127.1232575,"인도,태국",5,3,4
한남동,서울특별시 강동구 상암로 286 (명일동),소이연남,37.54547,127.1541725,"인도,태국",4.4,57,105
명일동,"서울특별시 강동구 상일로 21, 2층 (상일동)",메콩타이 고덕역점,37.5489558,127.1729654,"인도,태국",3.5,13,18
길동,"서울특별시 강동구 구천면로47길 10 (암사동,(1층))",라무진,37.5487637,127.1354175,"인도,태국",5,3,19
방배동,"서울특별시 강동구 성안로 112, 1층 (성내동)",방배동쌀국수,37.5333034,127.1335609,"인도,태국",4.8,4,12
대림동,서울특별시 강동구 성안로 7-12 (성내동),포트리스 플러스 쌀국수,37.5250597,127.1286444,"인도,태국",4,1,2
이태원동,"서울특별시 강동구 성안로25길 9 (천호동, 삼성아파트상가 106호)",커먼플랏아트스튜디오,37.5380376,127.1349999,"인도,태국",5,1,4
여의도동,"서울특별시 강동구 구천면로41길 65, 1층 (천호동)",고수타코,37.5475441,127.1305828,"인도,태국",3,4,6
권농동,"서울특별시 강동구 상암로 179, 1층 (천호동)",서울집시,37.5463904,127.1424174,"인도,태국",4.3,40,78
방학동,"서울특별시 강동구 성내로6길 14-13, 1층 (성내동)",하노이빈방학점,37.5295866,127.1221172,"인도,태국",4.9,8,15
대치동,"서울특별시 강동구 구천면로41길 41, 103호 (천호동)",카레공간,37.547061,127.1317279,"인도,태국",0,0,3
삼성동,서울특별시 강동구 암사길 23 (암사동),반포식스 선릉역점,37.551746,127.1318115,"인도,태국",1.5,4,23
신대방동,서울특별시 강동구 상암로23길 41 (암사동),봉루아,37.5489623,127.1351725,"인도,태국",3.9,7,4
갈현동,"서울특별시 강동구 상일로3길 16, 1층 (상일동)",포히엔,37.5487329,127.172203,"인도,태국",4.8,11,2
한강로3가,"서울특별시 강동구 명일로 375, 삼익그린맨션 지하1층 14,15호 (명일동)",토마틸로,37.5520157,127.1494682,"인도,태국",1.6,17,74
목동,"서울특별시 강동구 동남로75길 13-10, 302호 (명일동)",베트남노상식당목동점,37.5539195,127.1550552,"인도,태국",3.1,11,5
상암동,"서울특별시 강동구 아리수로93나길 26, 성산타워 1층 111호 (강일동)",미스사이공상암DMC점,37.5717707,127.1733282,"인도,태국",4,11,7
이태원동,서울특별시 강동구 성안로 155 (천호동),라운지씨엘,37.537231,127.1347625,"인도,태국",3,2,8
창전동,"서울특별시 강동구 아리수로93나길 38, 아이메디컬 1동 2층 212호 (강일동)",연쓰크래프트,37.5719496,127.1739317,"인도,태국",0,0,1
성수동1가,"서울특별시 강동구 성안로9길 12, 1층 (성내동)",뚝섬 대만우육면,37.529282,127.1307147,"인도,태국",0,0,0
상암동,"서울특별시 강동구 아리수로93길 27, 강일타워 1층 101호 (강일동)",몰토,37.5656316,127.1738307,"인도,태국",3.6,71,61
신당동,"서울특별시 강동구 아리수로64길 34, 1층 (고덕동)",하노이별 약수점,37.5606942,127.1536067,"인도,태국",0,0,2
대치동,서울특별시 강동구 상일로 127 (고덕동),샤이바나 선릉포스코센터점,37.5585096,127.1709077,"인도,태국",2.8,4,40
여의도동,"서울특별시 강동구 동남로67길 46, 1층 (명일동)",콘타이수끼,37.5488577,127.1532288,"인도,태국",4,5,60
서교동,"서울특별시 강동구 암사길 58-1, 1층 (암사동)",틸리셔스,37.5518483,127.1358548,"인도,태국",3.6,5,30
서교동,서울특별시 강동구 상일로5길 8-3 (상일동),반이학생마라탕마라반,37.5492403,127.1725625,"인도,태국",0,0,0
반포동,"서울특별시 강동구 동남로81길 26, 1층 106호 (고덕동)",케르반 파미에스테이션점,37.5604013,127.1552977,"인도,태국",3.3,14,56
신림동,서울특별시 강동구 선사로 200-46 (암사동),지정환피자 신림난곡점,37.5576794,127.126757,"인도,태국",5,1,5
신사동,서울특별시 강동구 성내로8길 9-17 (성내동),아이뽀유,37.5287039,127.1244589,"인도,태국",3.5,22,75
필동2가,"서울특별시 강동구 아리수로 419, 101,102호 (강일동, 강일리슈빌에스)",버피스,37.5644131,127.1737078,"인도,태국",5,2,2
논현동,"서울특별시 강동구 구천면로41길 41, 1층 (천호동)",바리 논현점,37.547061,127.1317279,"인도,태국",5,5,5
수하동,"서울특별시 강동구 상암로 11, 101동 134호 (암사동, 선사현대아파트)",리틀파파포 명동점,37.553258,127.1251915,"인도,태국",3.2,9,8
청담동,서울특별시 강동구 성내로3길 16-9 (성내동),바 밀라,37.5306032,127.1229661,"인도,태국",4.5,2,0
성수동1가,서울특별시 강동구 상암로 83 (암사동),비스트로류,37.5481774,127.1323687,"인도,태국",4.8,5,9
돈의동,"서울특별시 강동구 상암로 122 (천호동,(102, 103호))",비밀 더 밀라노,37.5464756,127.1360001,"인도,태국",1.9,8,90
창신동,"서울특별시 강동구 양재대로 1477, 지하1층 (길동)",알러이,37.5377748,127.1396971,"인도,태국",5,1,10
동자동,"서울특별시 강동구 상암로 102 (천호동,(지하102호))",서울샐러드,37.5472718,127.1339229,"인도,태국",4.8,12,6
창동,"서울특별시 강동구 성내로5길 31, 지하1층 4호 (성내동)",부리또인 창동점,37.531256,127.1238892,"인도,태국",4.8,5,6
한남동,서울특별시 강동구 성안로 118 (성내동),라퀴진,37.533875,127.1338077,"인도,태국",0,0,7
충무로5가,서울특별시 강동구 구천면로47길 31 (암사동),오키나와오지상,37.5495375,127.134691,"인도,태국",4,1,3
이태원동,"서울특별시 강동구 상암로 26, 1층 (암사동, 선사타워빌딩 )",시우어게인,37.5504373,127.1264095,"인도,태국",5,1,2
연남동,"서울특별시 강동구 양재대로 1371 (성내동, 1층 16호)",멕시칸 식당 베르데,37.5287128,127.1360654,"인도,태국",4.3,57,362
마곡동,"서울특별시 강동구 상암로5길 19, 1층 (암사동)",포,37.5512549,127.1272181,"인도,태국",3,1,84
한강로2가,서울특별시 강동구 성내로6길 34-24 (성내동),코모도,37.528901,127.1210344,"인도,태국",0,0,0
여의도동,서울특별시 강동구 아리수로 187 (고덕동),슈퍼막셰,37.5616912,127.148926,"인도,태국",5,1,1
삼성동,서울특별시 강동구 명일로 221-1 (길동),멕시칸라이브키친 삼성점,37.5386275,127.1462147,"인도,태국",0,0,0
신천동,"서울특별시 강동구 상암로 94, 2층 201-2호 (천호동)",콘타이,37.5474906,127.1333401,"인도,태국",3.9,14,48
서교동,"서울특별시 강동구 양재대로 1465, 마루홈타운 1층 106호 (길동)",코이,37.5368624,127.1393063,"인도,태국",5,9,14
서초동,"서울특별시 강동구 동남로73길 31, 105호 (명일동)",THAIBAN.<타이반쩜>,37.5526766,127.1544749,"인도,태국",3.5,4,3
행당동,서울특별시 강동구 상암로 53-11 (암사동),더,37.5498734,127.1293434,"인도,태국",3.5,15,9
필동2가,서울특별시 강동구 상암로 194 (명일동),파파포,37.5461259,127.1439686,"인도,태국",4.8,13,19
휘경동,서울특별시 강동구 양재대로 1339 (성내동),커리146,37.5259577,127.1350289,"인도,태국",2.6,9,9
구로동,"서울특별시 강동구 양재대로 1367 (성내동,지하1층)",테이크잇이지,37.5283148,127.1359485,"인도,태국",5,1,2
사근동,"서울특별시 강동구 상암로 76 (천호동,1층)",타이인플레이트,37.5483349,127.1314512,"인도,태국",3.5,11,10
신정동,서울특별시 강동구 동남로81길 50 (고덕동),캔카페,37.5598568,127.1542039,"인도,태국",0,0,20
한강로1가,"서울특별시 강동구 상암로 24, 1층 (암사동)",인바이티드,37.5505254,127.1262176,"인도,태국",3.4,21,111
논현동,"서울특별시 강동구 성내로9길 39, 조은빌딩 1층 (성내동)",레몬그라스 타이,37.5305665,127.1249056,"인도,태국",4.8,6,38
역삼동,"서울특별시 강동구 동남로 708 (둔촌동,2,3층)",이한커피,37.5372101,127.1523117,"인도,태국",0,0,0
봉천동,"서울특별시 강동구 성내로 11 (성내동,1층 1호)",전티마이베트남쌀국수 보라매점,37.5305106,127.1221842,"인도,태국",4.3,6,37
창천동,"서울특별시 강동구 동남로81길 76, 1층 (고덕동)",포메인 신촌점,37.5591666,127.1527861,"인도,태국",3,8,3
자양동,"서울특별시 강동구 구천면로41길 47, 주연빌딩 1층 102호 (천호동)",반둥식당,37.5471194,127.1315314,"인도,태국",3.9,17,58
여의도동,서울특별시 강동구 명일로 200 (길동),퍼틴&착한낙지 전경련회관점,37.5365498,127.1459489,"인도,태국",0,0,0
논현동,"서울특별시 강동구 양재대로 1571, 3층 (천호동)",생어거스틴,37.5457146,127.1422553,"인도,태국",3.1,36,66
서초동,서울특별시 강동구 양재대로 1471 (길동),그레이트,37.5373655,127.1392909,"인도,태국",3.2,5,14
신당동,"서울특별시 강동구 상암로 195, 1층 101,102호 (명일동)",포안나,37.5466253,127.1441985,"인도,태국",4.9,24,6
연건동,"서울특별시 강동구 동남로82길 69 (고덕동,지하1층)",골든데이 & 카페,37.5608718,127.1609055,"인도,태국",5,1,0
을지로3가,"서울특별시 강동구 상암로 119-1, 1층 102호 (천호동)",을지식당,37.5467001,127.136051,"인도,태국",4.6,10,32
잠원동,서울특별시 강동구 성안로 34 (성내동),윤스키친,37.5266935,127.1303077,"인도,태국",0,0,0
성수동2가,"서울특별시 강동구 상암로 43, 1층 (암사동)",성수감자탕,37.5498857,127.128458,"인도,태국",3.2,250,450
송파동,"서울특별시 강동구 상암로47길 80, 1층 102호 (명일동)",스파이스랩,37.5500457,127.1446245,"인도,태국",4.6,16,79
문래동3가,서울특별시 강동구 상암로 85 (암사동),비엣하노이,37.5481408,127.1324849,"인도,태국",1,1,4
용산동2가,"서울특별시 강동구 상암로 201, 102호 (명일동)",아담스타코,37.5466627,127.1450114,"인도,태국",3.4,10,0
연남동,"서울특별시 강동구 성안로 181, 1층 (천호동)",카페꼼마,37.5392936,127.1360791,"인도,태국",4.2,6,3
당산동4가,"서울특별시 강동구 구천면로47길 57, 강동종합시장 2층 22호 (암사동)",비스트로당산,37.5507103,127.1345948,"인도,태국",5,2,11
후암동,"서울특별시 강동구 성안로 156 (길동,7,18(101호))",시트러스테이블,37.5368812,127.1354283,"인도,태국",5,1,0
방학동,서울특별시 강동구 성내로6길 14-15 (성내동),리코스퍼블릭,37.5296439,127.1219726,"인도,태국",5,1,16
상암동,"서울특별시 강동구 양재대로 1543 (천호동,(1층))",고수한잎,37.5435097,127.1418778,"인도,태국",5,3,0
연남동,"서울특별시 강동구 아리수로93길 33, 베스트프라자 1층 107호 (강일동)",포레스트,37.5659078,127.1735545,"인도,태국",4.1,16,99
종로5가,"서울특별시 강동구 성내로 42, 건양빌딩 1층 101호 (성내동)",포몬스 동대문점,37.5288238,127.1247936,"인도,태국",0,0,2
면목동,"서울특별시 강동구 구천면로41길 24 (천호동,1층)",식생원,37.5468149,127.1327325,"인도,태국",5,2,16
누상동,"서울특별시 강동구 동남로75길 19, 명일빌딩 지1층 01,02호 (명일동)",핀란드프로젝트,37.5541286,127.1551948,"인도,태국",5,2,109
영등포동3가,서울특별시 강동구 구천면로42길 4 (천호동),포이스트영등포지하상가점,37.5463878,127.1343547,"인도,태국",0,0,3
상계동,서울특별시 강동구 성안로3길 102 (성내동),아그라 노원,37.5277914,127.1246339,"인도,태국",5,2,9
당산동1가,서울특별시 강동구 구천면로78길 30 (명일동),카오시암,37.5482391,127.1470714,"인도,태국",4.6,15,4
용산동2가,"서울특별시 강동구 성안로31라길 7, 1층 101호 (천호동)",풀리쉬랩,37.5413662,127.1337745,"인도,태국",5,1,3
서교동,"서울특별시 강동구 양재대로 1365 (성내동, 심포니타워 108,109호)",럭키인디아,37.528046,127.1358384,"인도,태국",3.3,20,45
광희동1가,"서울특별시 강동구 상암로11길 4 (암사동,(B-203))",FORTUNE 파르투내,37.549915,127.1288349,"인도,태국",3.6,24,40
한강로1가,"서울특별시 강동구 동남로79길 26, 상가동 105,106호 (고덕동, 고덕아이파크)",하이드아웃,37.5589031,127.1556425,"인도,태국",5,3,0
자양동,서울특별시 강동구 상일로 133 (고덕동),어라운드자양,37.5588922,127.1708593,"인도,태국",5,4,20
이태원동,"서울특별시 강동구 동남로75길 13-10, 1층 (명일동, 사조빌딩)",베트남돼지,37.5539195,127.1550552,"인도,태국",5,5,100
금호동4가,서울특별시 강동구 상암로 79 (암사동),타코 까나스따,37.5483775,127.1319565,"인도,태국",4.7,15,30
을지로3가,"서울특별시 강동구 상일로19길 20, 1층 (고덕동)",을지깐깐,37.5593919,127.169803,"인도,태국",4,56,237
금호동1가,"서울특별시 강동구 상암로 63-1, 1층 (암사동)",디무무 ,37.5489773,127.1305153,"인도,태국",5,2,2
이태원동,"서울특별시 강동구 상일로6길 39, 강동타워 1층 (상일동)",포메인이태원점,37.5498543,127.175374,"인도,태국",4,1,0
봉천동,"서울특별시 강동구 선사로 200-46, 1층 (암사동)",아이포 보라매점,37.5576794,127.126757,"인도,태국",5,3,6
상도동,"서울특별시 강동구 상일로 17, 1층 남쪽좌측첫번재상가호 (상일동)",퍼홍,37.5486364,127.1730085,"인도,태국",0,0,2
도곡동,"서울특별시 강동구 상일로15길 14, 1층 (고덕동)",에머이 양재역점,37.5582794,127.1702671,"인도,태국",2.7,13,45
성수동1가,서울특별시 강동구 상암로41길 58 (천호동),하노이별 서울숲점,37.5487118,127.1413549,"인도,태국",3.3,3,7
성수동1가,"서울특별시 강동구 아리수로64길 42, 1층 (고덕동)",플레이버타운 ,37.5602632,127.1538817,"인도,태국",4.7,12,22
신사동,"서울특별시 강동구 구천면로42길 8, 1층 101호 (천호동)",사일삼 프로젝트 신사,37.5463688,127.1347171,"인도,태국",0,0,0
답십리동,"서울특별시 강동구 암사길 2, 1층 (암사동)",베쌀집&샤브샤브,37.5506092,127.1300248,"인도,태국",3.7,3,4
한강로2가,서울특별시 강동구 명일로 208 (길동),핸드앤몰트용산,37.5371293,127.1460694,"인도,태국",4.4,12,28
여의도동,"서울특별시 강동구 성내로3길 16-9, 영성빌딩 1층 (성내동)",질할브로스여의도점,37.5306032,127.1229661,"인도,태국",4.7,15,4
양재동,서울특별시 강동구 상암로 209 (명일동),디안다만,37.546634,127.1457925,"인도,태국",4,45,15
을지로3가,서울특별시 강동구 상암로3길 72 (암사동),코요테살룬,37.55363,127.1278396,"인도,태국",4,4,8
대치동,서울특별시 강동구 성안로3길 112-5 (성내동),사이공키친,37.5282739,127.1238874,"인도,태국",5,1,1
용산동2가,"서울특별시 강동구 동남로85길 90, 1층 (고덕동)",팟카파우,37.5604759,127.151814,"인도,태국",4.5,46,46
서초동,"서울특별시 강동구 아리수로 288-1, 1층 (고덕동)",베트남노상식당,37.5627443,127.1602768,"인도,태국",0,0,2
자양동,"서울특별시 강동구 상일로 17, 1층 (상일동)",에머이,37.5486364,127.1730085,"인도,태국",1.2,17,52
청담동,"서울특별시 강동구 동남로49길 24 (둔촌동,(2층))",레스토랑 덱스터,37.5325182,127.1486836,"인도,태국",4.6,12,59
신정동,"서울특별시 강동구 양재대로 1549, 삼정빌딩 1층 102호 (천호동)",Schatz ,37.5440504,127.1420702,"인도,태국",5,1,0
구의동,"서울특별시 강동구 상일로17길 29-5, 1층 (고덕동)",멕시칼리,37.5585974,127.1692678,"인도,태국",4.8,56,121
신사동,서울특별시 강동구 아리수로68길 28 (고덕동),신사전,37.561608,127.1564509,"인도,태국",4.5,12,55
이태원동,서울특별시 강동구 명일로 210 (길동),준토스-라티노스,37.5373004,127.1461138,"인도,태국",1,1,9
상계동,서울특별시 강동구 동남로67길 48 (명일동),포고,37.5488629,127.1530837,"인도,태국",1,1,7
효창동,"서울특별시 강동구 아리수로61길 105, 1층 (고덕동)",카페운,37.5658111,127.1470141,"인도,태국",0,0,0
양재동,"서울특별시 강동구 성안로 167 (천호동,(1층))",OM 인디아,37.5381355,127.1355272,"인도,태국",4.8,4,1
녹번동,"서울특별시 강동구 동남로65길 5, 1층 (명일동)",베트남 포 탄마이 쌀국수,37.5476015,127.1556173,"인도,태국",4.3,13,10
명륜2가,"서울특별시 강동구 동남로81길 94, 1층 (고덕동)",찡쪽바,37.5589391,127.152014,"인도,태국",4,2,0
자양동,"서울특별시 강동구 상일로7길 12, 지하 1층 (상일동)",라 파밀리아,37.5500229,127.1722685,"인도,태국",4.5,2,12
한강로3가,"서울특별시 강동구 명일로 375, 삼익그린맨션 지1층 12,13호 (명일동)",카페마마스용산아이파크몰점,37.5520157,127.1494682,"인도,태국",2.5,16,74
이태원동,"서울특별시 강동구 양재대로 1457, 부에노빌딩 1층 (길동)",쏭타이,37.5359328,127.1390449,"인도,태국",4,42,219
한강로3가,서울특별시 강동구 상일로6길 39 (상일동),콘타이수끼,37.5498543,127.175374,"인도,태국",3.3,3,18
신림동,"서울특별시 강동구 성내로 28, 강동빌딩 111호 (성내동)",이화생고기식당,37.5293388,127.1234569,"인도,태국",5,1,2
소공동,"서울특별시 강동구 동남로 891 (명일동,현대델리안 오피스텔 203호)",드로잉룸,37.5533115,127.1559637,"인도,태국",0,0,0
자양동,서울특별시 강동구 아리수로 288 (고덕동),엑스트라,37.5627515,127.1601606,"인도,태국",0,0,0
당산동3가,서울특별시 강동구 명일로13길 15 (둔촌동),호미가,37.5338289,127.1440595,"인도,태국",4.7,19,24
봉천동,"서울특별시 강동구 성내로 28, 113호 (성내동, 강동빌딩)",포몬스 서울대점,37.5293388,127.1234569,"인도,태국",2.9,19,27
동숭동,"서울특별시 강동구 명일로 273, 1층 (길동)",미스 사이공,37.5430951,127.1475535,"인도,태국",3.2,10,17
관철동,서울특별시 강동구 동남로75길 13 (명일동),우스시게,37.5541958,127.1555597,"인도,태국",4.1,14,20
구의동,서울특별시 강동구 상일로 25-1 (상일동),쉐프스카페테리아,37.5493971,127.1728607,"인도,태국",0,0,0
서린동,"서울특별시 강동구 구천면로47길 22, 1층 (암사동)",고잉메리,37.5491235,127.1349399,"인도,태국",3.8,22,101
종로6가,"서울특별시 강동구 성내로6길 20, 114,115호 (성내동, 청일베르네)",제이 히든 하우스,37.528912,127.1223551,"인도,태국",2.8,12,127
화곡동,서울특별시 강동구 상암로61길 46 (명일동),헬로비에트,37.5486923,127.1527774,"인도,태국",4.4,18,54
한강로1가,"서울특별시 강동구 구천면로98길 19, 1층 (상일동)",얼리크로우,37.5498842,127.1713967,"인도,태국",0,0,2
만리동1가,서울특별시 강동구 구천면로42길 83 (천호동),서울 부띠끄,37.5439353,127.1372317,"인도,태국",3,21,219
성내동,"서울특별시 강동구 양재대로 1392, 진산빌딩 1층 109호 (둔촌동)",갓잇,37.5302669,127.1376641,"인도,태국",3.7,36,151
공덕동,"서울특별시 강동구 아리수로93길 19, 임페리얼타워 108호 (강일동)",이스탄불그릴,37.5653807,127.174118,"인도,태국",4.5,21,21
초동,"서울특별시 강동구 동남로81길 14, 1층 (고덕동)",사색,37.560688,127.1558933,"인도,태국",3.9,18,77
월계동,"서울특별시 강동구 성안로3길 81, 1층 101호 (성내동)",도미노피자월계점,37.5271941,127.1254289,"인도,태국",4,5,1
방화동,"서울특별시 강동구 상일로15길 26, 1층 (고덕동)",온더보더 롯데몰김포공항점,37.5582392,127.1696646,"인도,태국",3.9,11,90
방이동,"서울특별시 강동구 아리수로64길 39, 1층 (고덕동)",온더보더 딜리버리 송파점,37.5605319,127.1540784,"인도,태국",0,0,0
망원동,"서울특별시 강동구 암사길 111, 보람빌딩 1층 (명일동)",웅파이,37.5509593,127.1410729,"인도,태국",4.9,7,8
용강동,"서울특별시 강동구 상일로5길 16 (상일동, 2층)",코타이 키친,37.5490805,127.1721834,"인도,태국",4.2,5,13
삼전동,"서울특별시 강동구 상암로12길 20, 유원아파트 상가동 1층 103호 (천호동)",달보드레,37.5487825,127.1281352,"인도,태국",0,0,0
갈현동,"서울특별시 강동구 구천면로41길 30, 1층 (천호동)",라화방,37.5469342,127.1324539,"인도,태국",3,12,51
신월동,"서울특별시 강동구 성안로3길 12, 101호 (성내동, 영진빌딩)",다래홍두깨 손칼국수,37.5258861,127.1290424,"인도,태국",0,0,0
신당동,"서울특별시 강동구 상암로 81-1 (암사동,(1층))",오챠드1974 2호점,37.548267,127.1322325,"인도,태국",4.7,7,21
반포동,"서울특별시 강동구 동남로75길 13-15, 2층 (명일동)",에머이 서래마을,37.5536302,127.1555201,"인도,태국",2.9,16,15
수표동,서울특별시 강동구 상암로 28 (암사동),도이 농,37.5503358,127.1267518,"인도,태국",3.6,25,146
잠실동,서울특별시 강동구 상일로5길 8-11 (상일동),레몬그라스 타이,37.5495562,127.1725321,"인도,태국",4.3,12,63
광희동1가,"서울특별시 강동구 상암로 87, 1층 (암사동)",까페 바이칼,37.5480768,127.1326317,"인도,태국",5,4,6
여의도동,"서울특별시 강동구 명일로13길 12, 101호 (둔촌동)",콘타이,37.5340348,127.1439909,"인도,태국",2.6,37,115
성수동2가,"서울특별시 강동구 상암로 211, 1층 103호 (명일동)",나누리잡화점,37.5466396,127.1461712,"인도,태국",3.8,9,73
대현동,서울특별시 강동구 동남로75길 13-21 (명일동),아콘스톨,37.5533222,127.1554886,"인도,태국",5,18,11
가락동,"서울특별시 강동구 양재대로 1590, 1층 (명일동)",크로셰,37.5474559,127.1437281,"인도,태국",4.5,15,0
구로동,"서울특별시 강동구 양재대로 1355, 1층 (성내동, 8호의 일부)",디랩GU,37.5274004,127.135632,"인도,태국",0,0,0
자양동,서울특별시 강동구 상일로5길 23 (상일동),부리또인자양점,37.5488209,127.1718313,"인도,태국",5,1,4
응암동,"서울특별시 강동구 상암로 134, 지1층 B01호 (천호동, 미소팰리스)",Aroi Thai 아로이타이,37.5460115,127.1373143,"인도,태국",4.3,33,46
저동2가,"서울특별시 강동구 상암로 88, 청풍빌딩 1층 101호 (천호동)",벱비엣을지로본점,37.547895,127.1324729,"인도,태국",3.2,5,46
이태원동,"서울특별시 강동구 양재대로 1500-7, 1층 (길동)",몰리,37.539826,127.1414117,"인도,태국",5,1,1
성수동1가,"서울특별시 강동구 성내로6길 20 (성내동,청일베르네 101호)",쑤쑤타이,37.528912,127.1223551,"인도,태국",4.5,23,130
계동,서울특별시 강동구 구천면로47길 70 (암사동),미스사이공 안국역점,37.5512172,127.1351751,"인도,태국",3.8,12,7
후암동,"서울특별시 강동구 양재대로 1535, 1층 (천호동)",헤이트커피아이,37.5429916,127.1412598,"인도,태국",0,0,12
공릉동,서울특별시 강동구 명일로 200-10 (길동),포메인 태릉입구역점,37.5364724,127.1462676,"인도,태국",4,3,21
상수동,"서울특별시 강동구 아리수로93나길 54, 경서프라자 1층 102호 (강일동)",바르바코아상수점,37.5722002,127.174853,"인도,태국",4,1,1
대치동,서울특별시 강동구 아리수로76길 46 (고덕동),에머이,37.5607824,127.1622985,"인도,태국",4.8,6,13
방배동,서울특별시 강동구 성안로 156 (길동),노스티모,37.5368812,127.1354283,"인도,태국",4.2,9,15
이태원동,"서울특별시 강동구 상암로11길 17, 104호 (암사동)",탁심케밥,37.5504319,127.1286634,"인도,태국",3.6,5,10
창성동,"서울특별시 강동구 동남로85길 82, 1층 102호 (고덕동)",굿나잇앤굿럭,37.560551,127.1522915,"인도,태국",5,2,4
의주로1가,서울특별시 강동구 성안로13길 68 (성내동),리나스 서대문점,37.5323073,127.1287292,"인도,태국",5,8,10
서초동,서울특별시 강동구 상암로11길 5 (암사동),멕시칸 라이브 키친,37.5499775,127.1284709,"인도,태국",0,0,0
남대문로5가,"서울특별시 강동구 성안로 24, 해성빌딩 1층 102호 (성내동)",위워크 서울스퀘어,37.5257832,127.1299285,"인도,태국",0,0,8
상수동,"서울특별시 강동구 아리수로91길 24-5, 아르페온1 1층 101호 (강일동)",뭄 알로이,37.565153,127.1732331,"인도,태국",4.3,124,199
연남동,"서울특별시 강동구 암사길 88 (암사동,(1층))",콩카페 연남점,37.552215,127.1391342,"인도,태국",3.6,70,490
수하동,서울특별시 강동구 동남로67길 44 (명일동),아그라 센터원,37.5488705,127.1533828,"인도,태국",3.5,29,74
광희동1가,"서울특별시 강동구 상암로 83, 1층 (암사동)",MONGOL NOMADIC,37.5481774,127.1323687,"인도,태국",2.6,7,9
삼청동,"서울특별시 강동구 상암로 48, 1층 (천호동)",카페코소,37.5494839,127.1286503,"인도,태국",4.7,6,31
자양동,"서울특별시 강동구 성안로 156 (길동,우주B/D 108호)",로꼬브리또,37.5368812,127.1354283,"인도,태국",5,10,5
연남동,"서울특별시 강동구 양재대로 1355 (성내동,1층 1호)",발리문,37.5274004,127.135632,"인도,태국",4.3,72,268
을지로6가,서울특별시 강동구 성안로25길 65 (천호동),파샤 케밥,37.5389618,127.132008,"인도,태국",3,1,0
문배동,서울특별시 강동구 상암로41길 35 (천호동),사이공본가 문배점,37.5476406,127.141082,"인도,태국",3,1,9
신사동,"서울특별시 강동구 상일로10길 36, 103-1호 (상일동)",샤오짠,37.5508328,127.1741318,"인도,태국",3.7,53,182
대현동,서울특별시 강동구 성내로6길 14-20 (성내동),커리야,37.5298862,127.1219449,"인도,태국",4.1,8,23
봉천동,서울특별시 강동구 상일로7길 12-8 (상일동),라페리체,37.5502582,127.1722123,"인도,태국",4.1,42,74
한남동,서울특별시 강동구 상암로 102 (천호동),써니비치클럽,37.5472718,127.1339229,"인도,태국",0,0,0
상도동,"서울특별시 강동구 상일로 19, 1층 (상일동)",고렝,37.548856,127.1729642,"인도,태국",3.8,16,52
무학동,서울특별시 강동구 명일로 163 (둔촌동),마법주방,37.5335249,127.1443992,"인도,태국",0,0,1
대조동,"서울특별시 강동구 구천면로47길 8, 1층 101호 (암사동)",미스사이공 불광점,37.5486562,127.1355476,"인도,태국",3.5,6,7
창신동,서울특별시 강동구 동남로71길 19 (명일동),정가네 빈대떡,37.5505756,127.1553534,"인도,태국",0,0,1
연남동,"서울특별시 강동구 아리수로93나길 60, 골드프라자 2층 205호 (강일동)",릴린,37.5722862,127.1751791,"인도,태국",3.9,51,219
동자동,"서울특별시 강동구 성내로6길 20, 109호 (성내동)",유키사키,37.528912,127.1223551,"인도,태국",4,7,40
성수동1가,서울특별시 강동구 성안로 188 (길동),포맨스,37.5397332,127.1366666,"인도,태국",2.5,14,142
봉천동,서울특별시 강동구 성내로 14 (성내동),안녕베트남,37.5300671,127.1221223,"인도,태국",3.4,90,425
망원동,"서울특별시 강동구 암사1가길 11, 1층 (암사동)",웨스트사이드,37.551941,127.1302967,"인도,태국",4.7,22,27
수유동,서울특별시 강동구 상일로5길 10 (상일동),봄타코,37.549112,127.1724409,"인도,태국",3.7,3,7
마곡동,"서울특별시 강동구 상일로 39-11, 1층 (상일동)",타이투고,37.5504833,127.17193,"인도,태국",4.7,21,42
서초동,"서울특별시 강동구 상암로47길 80-21 (명일동,지하1층)",바노이,37.5500828,127.1457359,"인도,태국",3.1,10,43
한강로2가,서울특별시 강동구 명일로16길 3 (길동),어멍해장국신용산점,37.5374844,127.1463568,"인도,태국",3,4,4
성북동,"서울특별시 강동구 상암로 28, 1층 1,2호 (암사동)",카레,37.5503358,127.1267518,"인도,태국",4.3,44,100
화양동,"서울특별시 강동구 성안로 194, 1층 (길동)",메호르,37.5401358,127.1368506,"인도,태국",4.3,7,102
청담동,서울특별시 강동구 명일로 221 (길동),시고로,37.5384928,127.1461813,"인도,태국",4.1,15,47
삼성동,"서울특별시 강동구 상일로 74 (상일동,리엔파크3단지 2상가 103호)",에머이 삼성점,37.5531625,127.1752949,"인도,태국",2.8,8,25
서교동,서울특별시 강동구 양재대로 1339 (성내동),아마,37.5259577,127.1350289,"인도,태국",4.9,11,86
망원동,"서울특별시 강동구 양재대로 1329, 서경빌딩 지1층 (성내동)",마이클식당,37.5252087,127.1348464,"인도,태국",4.2,36,81
양재동,서울특별시 강동구 동남로82길 91 (고덕동),미스사이공 포이사거리점,37.5606204,127.1621395,"인도,태국",4.2,5,4
성수동2가,서울특별시 강동구 상암로 88 (천호동),온키친,37.547895,127.1324729,"인도,태국",5,1,31
신사동,서울특별시 강동구 양재대로 1558 (길동),마이프렌드 쎄르지오 신사점,37.5445942,127.14285,"인도,태국",0,0,0
봉천동,"서울특별시 강동구 상일로7길 7, 1층 (상일동)",오늘그대와,37.5498917,127.172474,"인도,태국",2.5,19,163
서교동,서울특별시 강동구 성내로 8-14 (성내동),슬로우타코,37.5299014,127.1212856,"인도,태국",3.9,16,101
성수동1가,"서울특별시 강동구 양재대로 1473, 희헌타워 1층 103호 (길동)",타이로띠 성수,37.5375122,127.1395889,"인도,태국",4.1,8,0
진관동,"서울특별시 강동구 동남로73길 26 (명일동,고덕복합빌딩 1층 13호)",아그라 은평,37.5533037,127.1547967,"인도,태국",2.4,8,29
익선동,"서울특별시 강동구 성내로14길 18 (성내동,선광아파트 상가 6호)",저스트텐동 익선점,37.5271765,127.1266706,"인도,태국",3.8,32,206
삼성동,"서울특별시 강동구 상암로27길 11, 1층 101호 (천호동)",리틀사이공 파르나스몰점,37.5467608,127.1374487,"인도,태국",3.2,5,19
잠원동,서울특별시 강동구 동남로71길 20-9 (명일동),코리엔더,37.5523586,127.154816,"인도,태국",4.6,7,18
명륜4가,서울특별시 강동구 동남로75길 19 (명일동),블루룸,37.5541286,127.1551948,"인도,태국",4.2,40,101
이문동,"서울특별시 강동구 양재대로 1335 (성내동,(2층))",르안타이,37.5255838,127.1349179,"인도,태국",4.2,13,15
잠원동,"서울특별시 강동구 성안로 195, 지2층 B202-2호 (천호동, 다성이즈빌)",노작가의 아지트,37.5404269,127.1365106,"인도,태국",5,5,7
합정동,"서울특별시 강동구 양재대로 1365 (성내동, 107호)",미에우,37.528046,127.1358384,"인도,태국",4.3,33,218
대치동,"서울특별시 강동구 성안로 37, 1층 103호 (성내동)",베카 프리미엄 델리샵,37.5272471,127.1302618,"인도,태국",5,2,0
마곡동,서울특별시 강동구 상암로51길 33 (명일동),월남선생 마곡점,37.5481285,127.1461073,"인도,태국",4.1,11,19
원효로1가,서울특별시 강동구 동남로83길 51 (고덕동),동휴,37.5599948,127.1540095,"인도,태국",4.5,2,2
용산동2가,"서울특별시 강동구 성안로 181, 2층 (천호동)",소셜해이븐,37.5392936,127.1360791,"인도,태국",4.3,3,1
역삼동,"서울특별시 강동구 상암로11길 14, 1층 (암사동)",쿤쏨차이,37.5503005,127.1289431,"인도,태국",3.6,12,73
청진동,서울특별시 강동구 양재대로 1470 (길동),오한수 우육면가,37.5370179,127.1399369,"인도,태국",4,1,1
대치동,"서울특별시 강동구 성안로 18, 1층 101,102호 (성내동)",주박사쌀국수,37.525381,127.1297759,"인도,태국",3.5,6,0
성수동1가,서울특별시 강동구 성안로 10 (성내동),비스트리오,37.5247241,127.1294944,"인도,태국",4,1,5
영등포동6가,서울특별시 강동구 명일로10나길 28 (둔촌동),테이크포,37.5310478,127.1454101,"인도,태국",4.8,5,16
망원동,서울특별시 강동구 양재대로 1371 (성내동),스몰베트남,37.5287128,127.1360654,"인도,태국",1.7,20,10
가산동,서울특별시 강동구 양재대로 1396 (둔촌동),샤오당쟈,37.5306503,127.1378356,"인도,태국",1,1,8
서교동,서울특별시 강동구 암사길 61 (암사동),Hollo kitchen 홀로 키친,37.5520574,127.1362214,"인도,태국",4.6,14,27
정릉동,서울특별시 강동구 명일로 171 (둔촌동),THAI BANGKOK 타이방콕,37.5341131,127.1446234,"인도,태국",4.5,12,37
누하동,서울특별시 강동구 명일로 171 (둔촌동),고치비,37.5341131,127.1446234,"인도,태국",3.9,24,149
구로동,"서울특별시 강동구 상암로11길 11, 103호 (암사동, 라시온상가)",라크라센타 커피&컴퍼니,37.5501656,127.1285868,"인도,태국",4,1,5
공릉동,"서울특별시 강동구 성안로 109 (성내동,104호)",차차,37.5332128,127.13305,"인도,태국",4.8,5,10
화양동,서울특별시 강동구 아리수로64길 39 (고덕동),고피자건대점,37.5605319,127.1540784,"인도,태국",0,0,3
구로동,"서울특별시 강동구 양재대로 1448, 2층 (길동)",포이스트,37.5350777,127.1393389,"인도,태국",4.3,3,15
염리동,"서울특별시 강동구 양재대로 1303, 2층 (성내동)",포로이마포점,37.5227722,127.1339673,"인도,태국",4,3,14
신도림동,서울특별시 강동구 성내로5길 11 (성내동),온더보더 현대디큐브시티점,37.5304654,127.1232819,"인도,태국",4.5,4,52
신월동,"서울특별시 강동구 동남로75길 13-10 (명일동, 2층)",니들누들,37.5539195,127.1550552,"인도,태국",4.3,3,4
청진동,서울특별시 강동구 상암로 175 (천호동),팻보이 샌드위치,37.5462953,127.1418986,"인도,태국",0,0,0
여의도동,"서울특별시 강동구 명일로 110 (둔촌동, 암펠로스타워 지101(일부))",아그라,37.5288078,127.143166,"인도,태국",2.5,4,53
상암동,"서울특별시 강동구 양재대로 1371, 1층 14호 (성내동)",왼손과젓가락,37.5287128,127.1360654,"인도,태국",5,1,0
명동1가,"서울특별시 강동구 명일로 239, 1층 (길동)",타이가든 명동성당점,37.5400674,127.1466577,"인도,태국",4.7,3,32
여의도동,"서울특별시 강동구 명일로13길 20, 1층 101호 (둔촌동)",모닝,37.5338687,127.1436109,"인도,태국",2,3,3
흑석동,서울특별시 강동구 양재대로 1444 (길동),흑석호치민,37.534716,127.1392499,"인도,태국",4.2,5,30
봉천동,서울특별시 강동구 상암로4길 10 (암사동),주식회사 러쉬딜리버리,37.5500737,127.1263084,"인도,태국",0,0,0
역삼동,"서울특별시 강동구 양재대로 1512, 1층 102,103호 (길동)",요띠드,37.540503,127.1413691,"인도,태국",0,0,10
창천동,"서울특별시 강동구 상암로 28, 2층 1호 (암사동)",머노까머나,37.5503358,127.1267518,"인도,태국",3.9,35,132
서초동,서울특별시 강동구 상암로 27 (암사동),소브레메사,37.5506364,127.1267932,"인도,태국",3.7,13,48
이촌동,"서울특별시 강동구 양재대로 1500, 1층 109호 (길동)",제나나,37.5394712,127.1410053,"인도,태국",3,11,3
서초동,서울특별시 강동구 명일로 198 (길동),인더비엣 신논현역점,37.5364217,127.145902,"인도,태국",3.5,14,81
대현동,"서울특별시 강동구 명일로 102 (둔촌동, 지하)",소이54,37.5278063,127.1428107,"인도,태국",4.5,14,6
흑석동,"서울특별시 강동구 상암로12길 32 (천호동,보람아파트상가 101호)",태국식당,37.5482898,127.1278166,"인도,태국",4,1,1
마곡동,서울특별시 강동구 상암로51길 7 (명일동),에머이 마곡나루점,37.54699,127.1459386,"인도,태국",3.1,14,91
성수동2가,서울특별시 강동구 상암로 85 (암사동),에머이 성수점,37.5481408,127.1324849,"인도,태국",2.8,15,35
용산동2가,서울특별시 강동구 성안로 167 (천호동),오보이피자,37.5381355,127.1355272,"인도,태국",4.8,17,13
삼성동,"서울특별시 강동구 아리수로 340, 지1층 102호 (고덕동)",도미노피자 삼성점,37.562342,127.1661464,"인도,태국",2.8,6,3
신도림동,서울특별시 강동구 아리수로74길 35-33 (고덕동),이스트바이게이트 신도림점,37.5608559,127.1627247,"인도,태국",2.4,17,77
서교동,"서울특별시 강동구 아리수로93길 27, 113~114호 (강일동, 강일타워)",뱅사오,37.5656316,127.1738307,"인도,태국",3.5,10,8
성수동2가,"서울특별시 강동구 성내로3길 16, 은성빌딩 1층 (성내동)",쿠나,37.530715,127.1227481,"인도,태국",3.6,23,10
권농동,서울특별시 강동구 상암로 183 (천호동),그랑비노,37.5464477,127.1426681,"인도,태국",5,3,2
하왕십리동,"서울특별시 강동구 상암로11길 11, 강동리시온 102호 (암사동)",리틀방콕 왕십리뉴타운점,37.5501656,127.1285868,"인도,태국",3.4,5,36
길동,서울특별시 강동구 동남로 585 (둔촌동),한주,37.526894,127.1474711,"인도,태국",5,3,30
목동,"서울특별시 강동구 상일로5길 10-9, 1층 102호 (상일동, 제이아트빌)",타이반쩜,37.5494003,127.1721193,"인도,태국",0,0,1
한남동,"서울특별시 강동구 성안로 167 (천호동,(2층))",비,37.5381355,127.1355272,"인도,태국",1.8,21,38
신당동,서울특별시 강동구 성안로3길 112-8 (성내동),피클피클 장충,37.5282821,127.1241939,"인도,태국",5,3,8
서초동,"서울특별시 강동구 동남로81길 26 (고덕동, 101호)",에머이 서초,37.5604013,127.1552977,"인도,태국",3,23,76
서초동,서울특별시 강동구 구천면로42길 14 (천호동),주박사 쌀국수,37.5462534,127.1349428,"인도,태국",3.9,28,47
이태원동,서울특별시 강동구 동남로82길 9 (고덕동),이태원키친,37.560667,127.1575002,"인도,태국",1.5,2,1
성내동,"서울특별시 강동구 명일로 159, 1층 (둔촌동)",cincin,37.5331362,127.1442638,"인도,태국",0,0,0
대치동,"서울특별시 강동구 동남로67길 22, 1층 (명일동)",천하무쌍,37.548865,127.154687,"인도,태국",0,0,1
한강로3가,"서울특별시 강동구 명일로 259, 1층 (길동)",콘타이,37.5417698,127.1471762,"인도,태국",3.3,3,18
능동,"서울특별시 강동구 양재대로 1465, 마루홈타운 1층 102호 (길동)",몽골라운지,37.5368624,127.1393063,"인도,태국",0,0,1
청담동,"서울특별시 강동구 상일로 39-6, 1층 (상일동)",베네베네,37.5507208,127.1724319,"인도,태국",4.5,8,7
한남동,"서울특별시 강동구 성안로3길 27 (성내동,1,2층)",바우슈텔러,37.5259628,127.1281402,"인도,태국",3,3,7
화양동,서울특별시 강동구 상일로5길 9 (상일동),맘맘테이블,37.5489096,127.1725577,"인도,태국",3,2,2
신내동,"서울특별시 강동구 상암로 68, 1층 (천호동)",등촌샤브칼국수 신내점,37.5486962,127.1305488,"인도,태국",4.6,5,7
신사동,서울특별시 강동구 양재대로 1496 (길동),포 25 압구정점,37.5391433,127.1408812,"인도,태국",0,0,8
천호동,"서울특별시 강동구 성내로 38, 서울성내1동우체국 1층 1호 (성내동)",강동호치민,37.5289308,127.1243788,"인도,태국",3.4,33,74
대현동,서울특별시 강동구 동남로 638 (둔촌동),리또리또,37.5312027,127.1497662,"인도,태국",4.5,12,4
대현동,"서울특별시 강동구 양재대로 1371, 둔촌빌딩 1층 10호 (성내동)",베나레스 이대점,37.5287128,127.1360654,"인도,태국",4,10,28
원효로1가,"서울특별시 강동구 명일로 244, 2층 201호 (길동)",초원양꼬치,37.5404151,127.147114,"인도,태국",3,2,2
용산동2가,서울특별시 강동구 상암로12길 9 (천호동),케이리,37.5492336,127.1286011,"인도,태국",0,0,0
문정동,"서울특별시 강동구 동남로71길 20-9, 파라빌딩 1층 2호 (명일동)",포텐,37.5523586,127.154816,"인도,태국",0,0,5
방학동,"서울특별시 강동구 성안로 170, 103동 101호 (길동, 에이치비골드빌)",마라하오도봉점,37.5380418,127.1360493,"인도,태국",5,1,0
익선동,"서울특별시 강동구 성안로 191, 지산빌딩 1층 103호 (천호동)",도모다찌,37.5401195,127.1364924,"인도,태국",2.2,16,73
회현동2가,"서울특별시 강동구 성안로3길 88, 1층 (성내동)",모아쏭,37.5275361,127.125207,"인도,태국",0,0,2
고척동,"서울특별시 강동구 아리수로93길 27, 208호 (강일동, 강일타워)",청년다방 동양미래대점,37.5656316,127.1738307,"인도,태국",2.3,6,2
자양동,서울특별시 강동구 상일로 23 (상일동),잇타이,37.5491965,127.1729009,"인도,태국",4,16,53
군자동,"서울특별시 강동구 상일로 74 (상일동,고덕리엔파크 3단지 2동 101호)",미스사이공 세종대점,37.5531625,127.1752949,"인도,태국",3.2,6,6
을지로2가,"서울특별시 강동구 성내로 7, 1층 (성내동)",에이스 포 클럽,37.5306349,127.121694,"인도,태국",3.9,16,28
종로6가,"서울특별시 강동구 암사길 27-1, 1층 (암사동)",포베이 동대문종합시장점,37.5518787,127.1324615,"인도,태국",5,1,5
체부동,"서울특별시 강동구 상암로 195, 에이플러스 1층 104호 (명일동)",오베르쥬,37.5466253,127.1441985,"인도,태국",4.4,10,10
한강로2가,"서울특별시 강동구 동남로75길 13-15 (명일동,성은빌딩2층)",라오삐약,37.5536302,127.1555201,"인도,태국",3.5,12,18
독산동,"서울특별시 강동구 성안로3길 120, 1층 (성내동)",바른쌀국수,37.5282242,127.1236352,"인도,태국",5,1,1
계동,서울특별시 강동구 상암로 183 (천호동),와인이지,37.5464477,127.1426681,"인도,태국",0,0,0
대현동,서울특별시 강동구 성안로3길 116 (성내동),홍호아 신촌점,37.5281508,127.1238092,"인도,태국",5,1,5
충무로3가,"서울특별시 강동구 성안로 182, 101호 (길동)",태국수,37.5389997,127.1367167,"인도,태국",4.6,10,22
망원동,"서울특별시 강동구 양재대로 1329, 서경빌딩 1층 (성내동)",씨클로,37.5252087,127.1348464,"인도,태국",4.5,32,10
한강로3가,서울특별시 강동구 양재대로 1453 (길동),크리스피프레시 용산아이파크몰점,37.5357117,127.1388876,"인도,태국",3.7,3,62
봉천동,"서울특별시 강동구 상일로7길 6-7, 1층 (상일동)",쥬벤쿠바,37.5503371,127.172393,"인도,태국",4.1,66,182
익선동,"서울특별시 강동구 암사길 41, 1층 (암사동)",마라부트,37.5519699,127.1339026,"인도,태국",0,0,0
신사동,"서울특별시 강동구 상암로11길 11, 강동리시온 1층 105호 (암사동)",미앙,37.5501656,127.1285868,"인도,태국",3.9,16,62
청파동3가,"서울특별시 강동구 동남로67길 44, 1층 (명일동)",신머이,37.5488705,127.1533828,"인도,태국",4,6,6
방배동,"서울특별시 강동구 양재대로 1450, 1층 (길동)",아그라 사당,37.5352843,127.1394886,"인도,태국",4,1,0
홍지동,서울특별시 강동구 상암로11길 29 (암사동),원 테이블,37.5510595,127.1289171,"인도,태국",4.8,4,9
서린동,"서울특별시 강동구 상암로 203, 1층 (명일동)",종로 할머니 칼국수 광화문점,37.5466624,127.1451707,"인도,태국",4,2,4
남창동,서울특별시 강동구 성내로 6 (성내동),제로 콤플렉스,37.5303683,127.1213671,"인도,태국",4,34,42
반포동,"서울특별시 강동구 상암로 195 (명일동,(107호))",깐부치킨,37.5466253,127.1441985,"인도,태국",1.7,3,8
성내동,"서울특별시 강동구 암사길 22-1, 1층 (암사동)",통로,37.5514893,127.1318912,"인도,태국",4.2,22,42
원효로1가,"서울특별시 강동구 양재대로 1465, 2층 201호 (길동)",티켓투방콕,37.5368624,127.1393063,"인도,태국",0,0,6
성수동1가,"서울특별시 강동구 상암로 51 (암사동, 102호)",하노이102,37.5495418,127.1291428,"인도,태국",4.2,86,153
회기동,서울특별시 강동구 동남로 592 (둔촌동),일폐이중국전통요리,37.5273083,127.1483111,"인도,태국",0,0,0
역삼동,"서울특별시 강동구 구천면로42길 14, 한신아파트 상가동 1층 3호 (천호동)",춘천숯불닭갈비,37.5462534,127.1349428,"인도,태국",4.3,4,14
암사동,"서울특별시 강동구 성안로3길 68-9, 1층 (성내동)",포메인 암사역점,37.5274458,127.1264091,"인도,태국",0,0,1
이태원동,"서울특별시 강동구 성안로13길 27 (성내동,(1층))",동,37.531515,127.1308225,"인도,태국",0,0,0
삼성동,"서울특별시 강동구 상일로15길 34-14, 1층 (고덕동)",도스타코스,37.5584381,127.1694932,"인도,태국",2.9,23,12
화곡동,서울특별시 강동구 상일로15길 34-10 (고덕동),바우네나주곰탕 까치산역점,37.5584105,127.1693087,"인도,태국",2.8,5,9
평동,"서울특별시 강동구 상암로 41 (암사동,동양덱스빌105,107,109호)",나인쿡,37.5501642,127.1282236,"인도,태국",5,1,2
필운동,"서울특별시 강동구 상암로 47-3, 1층 (암사동)",필운276,37.5497659,127.1290496,"인도,태국",4.6,13,7
망우동,"서울특별시 강동구 상암로 54, 브라운스톤암사아파트 상가동 1층 2호 (천호동)",미스사이공 망우점,37.549196,127.1293267,"인도,태국",3.2,9,10
봉천동,"서울특별시 강동구 상암로39길 30, 1층 (천호동)",옐로우버터드림,37.547293,127.1403411,"인도,태국",3.7,7,117
방학동,"서울특별시 강동구 성안로 191, 지산빌딩 1층 (천호동)",브리또인,37.5401195,127.1364924,"인도,태국",5,1,0
성수동2가,"서울특별시 강동구 동남로73길 31, 1층 (명일동)",타논 55,37.5526766,127.1544749,"인도,태국",4.5,13,49
양재동,"서울특별시 강동구 상암로 42, 암사오피스텔 1층 110호 (천호동)",꼬메도르16,37.5495882,127.1279034,"인도,태국",3.7,9,14
삼성동,"서울특별시 강동구 성안로 58, 103호 (성내동)",룩친앤타이누들,37.5287994,127.1313886,"인도,태국",0,0,0
충무로2가,서울특별시 강동구 상암로 47-3 (암사동),C TAVERN,37.5497659,127.1290496,"인도,태국",4.4,5,24
길동,"서울특별시 강동구 상일로15길 34-17, 1층 (고덕동)",코지바,37.5586167,127.1697026,"인도,태국",1,1,0
망원동,"서울특별시 강동구 양재대로 1371, 1층 17호 (성내동)",망원동 칼짬뽕,37.5287128,127.1360654,"인도,태국",3.6,11,7
보문동1가,"서울특별시 강동구 양재대로 1450, 지하1층 (길동)",차이니포,37.5352843,127.1394886,"인도,태국",5,1,0
합정동,서울특별시 강동구 아리수로76길 37 (고덕동),디어쿠키,37.5609159,127.1625826,"인도,태국",4,3,4
용산동2가,"서울특별시 강동구 상일로5길 3, 1층 (상일동)",회전목마,37.5489455,127.1728285,"인도,태국",5,1,2
창신동,"서울특별시 강동구 구천면로41길 6, 1층 (천호동)",낭로,37.5464265,127.1337081,"인도,태국",0,0,0
합정동,"서울특별시 강동구 아리수로93나길 54, 경서프라자 1층 108,109,110,111호 (강일동)",베이커리 드렁큰파운드,37.5722002,127.174853,"인도,태국",0,0,121
목동,"서울특별시 강동구 명일로 255, 진흥빌딩 1층 (길동)",에머이 목동점,37.5415208,127.1471055,"인도,태국",4,20,38
송파동,"서울특별시 강동구 명일로 165, 1층 (둔촌동)",유목카츠,37.533739,127.1444404,"인도,태국",5,1,1
논현동,서울특별시 강동구 성안로25길 9 (천호동),일마또네,37.5380376,127.1349999,"인도,태국",0,0,2
장안동,서울특별시 강동구 구천면로41길 35 (천호동),베트남 테이블,37.5469307,127.1320343,"인도,태국",5,1,2
신사동,서울특별시 강동구 상일로15길 12 (고덕동),포엔분짜,37.5582857,127.1704021,"인도,태국",4.1,40,14
화양동,서울특별시 강동구 상일로 17 (상일동),케밥인,37.5486364,127.1730085,"인도,태국",4.1,8,15
마곡동,"서울특별시 강동구 상암로67길 21, 1층 (명일동)",완위와,37.547315,127.1556041,"인도,태국",0,0,0
역삼동,"서울특별시 강동구 상일로 33 (상일동,3층)",호지 보보,37.5501801,127.1727299,"인도,태국",3.8,17,15
삼성동,"서울특별시 강동구 아리수로93가길 25 (강일동,강일리버파크1단지상가101호)",간코블랙 현대무역센터점,37.5677139,127.1721771,"인도,태국",3,2,207
구로동,"서울특별시 강동구 아리수로93길 33-9, 강일프라자 3층 301호 (강일동)",훈장소주관,37.5657383,127.1732169,"인도,태국",0,0,0
창전동,"서울특별시 강동구 상일로17길 21, 1층 (고덕동)",BIG TINY,37.558821,127.1698364,"인도,태국",4.9,13,52
방배동,"서울특별시 강동구 상암로 20, 103호 (암사동)",마크사이공,37.550647,127.1258068,"인도,태국",5,9,37
역삼동,"서울특별시 강동구 암사길 25, 1층 (암사동)",마이디주스,37.551793,127.1320433,"인도,태국",4.2,5,31
성수동2가,서울특별시 강동구 상암로 87-1 (암사동),와하카,37.5480935,127.1327651,"인도,태국",4.4,47,64
을지로2가,"서울특별시 강동구 상암로 42, 암사오피스텔 1층 127,128호 (천호동)",우연히 하노이,37.5495882,127.1279034,"인도,태국",5,1,4
송파동,"서울특별시 강동구 아리수로61길 105, 1층 (고덕동)",방콕언니,37.5658111,127.1470141,"인도,태국",5,4,8
서교동,"서울특별시 강동구 양재대로 1339, 3호 (성내동,1층)",라오,37.5259577,127.1350289,"인도,태국",4.3,23,53
연남동,"서울특별시 강동구 양재대로 1442, 1,2층 (길동)",공간내모든,37.5345984,127.1391821,"인도,태국",4,1,3
상계동,서울특별시 강동구 상암로4가길 3 (암사동),72420노원,37.5499732,127.1260941,"인도,태국",4.3,27,63
명륜4가,"서울특별시 강동구 상암로 62, 1층 (천호동, 신정빌딩)",생활맥주 대학로 좁은골목점,37.5489211,127.1299985,"인도,태국",3,2,37
흑석동,서울특별시 강동구 상암로47길 90 (명일동),톰스키친,37.5504616,127.1447612,"인도,태국",4.3,7,12
태평로1가,서울특별시 강동구 동남로73길 23 (명일동),D- LIFESTYLE KITCHEN,37.5525652,127.1550022,"인도,태국",3.6,43,337
방배동,"서울특별시 강동구 동남로75길 13-21, 1층 105호 (명일동)",MOMENT 모멘트,37.5533222,127.1554886,"인도,태국",3.8,13,47
상일동,"서울특별시 강동구 상일로15길 34-13, 1층 101호 (고덕동)",미스사이공 배트남 쌀국수,37.5586042,127.1694126,"인도,태국",4.1,7,15
신당동,서울특별시 강동구 성안로3길 99 (성내동),도시피자,37.5275634,127.1245811,"인도,태국",1,1,0
신사동,"서울특별시 강동구 성안로31나길 37, 1층 (천호동)",웨이크앤베이크,37.5421428,127.1339344,"인도,태국",3.7,15,107
익선동,"서울특별시 강동구 양재대로 1392, 진산빌딩 1층 106호 (둔촌동)",옥,37.5302669,127.1376641,"인도,태국",3.4,5,3
한강로2가,서울특별시 강동구 동남로85길 5 (고덕동),도로시락,37.5612749,127.1564662,"인도,태국",0,0,11
연남동,"서울특별시 강동구 아리수로94길 72 (강일동,강일리버파크8단지 상가동103호)",태힐리아,37.5618741,127.1776753,"인도,태국",2,2,44
고척동,서울특별시 강동구 양재대로 1339 (성내동),홍대쌀국수,37.5259577,127.1350289,"인도,태국",0,0,1
내발산동,서울특별시 강동구 상암로41길 7 (천호동),나 불러떠,37.5464642,127.1413157,"인도,태국",0,0,1
서초동,서울특별시 강동구 성안로 118 (성내동),라이너스 바베큐 딜리버리,37.533875,127.1338077,"인도,태국",0,0,13
효창동,"서울특별시 강동구 성내로14길 48, 102호 (성내동)",빅리터,37.5260345,127.125954,"인도,태국",0,0,0
능동,"서울특별시 강동구 상일로7길 12, 1층 102호 (상일동)",솔티드,37.5500229,127.1722685,"인도,태국",5,7,13
초동,"서울특별시 강동구 성내로5길 26, 1층 101호 (성내동, 신우파인빌)",타케리아 스탠,37.5309419,127.1239261,"인도,태국",4.7,15,35
문정동,"서울특별시 강동구 양재대로 1591, 2층 (천호동)",오케이 선데이,37.5476923,127.1430326,"인도,태국",5,8,6
문래동3가,"서울특별시 강동구 명일로13길 15, 탑스빌딩 1층 (둔촌동)",리틀하노이문래점,37.5338289,127.1440595,"인도,태국",4.2,5,4
서린동,"서울특별시 강동구 상암로 53-7, 1층 (암사동)",에레스뚜,37.5497162,127.1293379,"인도,태국",0,0,0
재동,"서울특별시 강동구 양재대로 1448, 1층 102호 (길동)",광화문아침,37.5350777,127.1393389,"인도,태국",0,0,0
독산동,"서울특별시 강동구 성안로3길 121, 1층 (성내동)",파스타입니다 금천점,37.5280456,127.123415,"인도,태국",0,0,2
청파동3가,서울특별시 강동구 상암로 27 (암사동),리또리또,37.5506364,127.1267932,"인도,태국",5,5,7
용문동,"서울특별시 강동구 양재대로 1549, 삼정빌딩 (천호동)",또먹고싶은피자,37.5440504,127.1420702,"인도,태국",5,1,5
성수동1가,"서울특별시 강동구 상일로5길 9, 2층 (상일동)",퍼응언 PHO NGON,37.5489096,127.1725577,"인도,태국",4.5,13,5
이태원동,"서울특별시 강동구 명일로 248, 1층 (길동)",데일리커피,37.5408051,127.1472916,"인도,태국",0,0,0
합정동,"서울특별시 강동구 아리수로93길 27, 강일타워 1층 112호 (강일동)",포로이,37.5656316,127.1738307,"인도,태국",3.8,4,12
목동,서울특별시 강동구 동남로81길 74 (고덕동),리틀하노이등촌점,37.5592274,127.1529069,"인도,태국",2.3,8,8
역삼동,"서울특별시 강동구 상일로17길 29-8, 지층 (고덕동)",에글렌느 퀴진,37.5585085,127.1689989,"인도,태국",0,0,1
서교동,서울특별시 강동구 양재대로 1319 (성내동),클링크,37.5241988,127.1344526,"인도,태국",0,0,0
소공동,"서울특별시 강동구 상암로 29, 암사동대림빌딩 1층 101호 (암사동)",엘본더테이블 명동점,37.5505727,127.1269733,"인도,태국",2.2,6,34
천호동,"서울특별시 강동구 상암로39길 44, 101호 (천호동)",버거주의,37.5479186,127.1403864,"인도,태국",5,4,22
서초동,서울특별시 강동구 동남로85길 8 (고덕동),홍호아,37.5614943,127.1562655,"인도,태국",4.1,14,29
등촌동,서울특별시 강동구 성안로 186 (길동),델리커리 강서NC점,37.5395549,127.1365711,"인도,태국",5,1,0
창천동,"서울특별시 강동구 동남로81길 66, 1층 (고덕동)",아마,37.5594334,127.1533176,"인도,태국",4.6,56,67
서교동,"서울특별시 강동구 양재대로 1339, 1층 12,13,14,25,26호 (성내동)",피자헛 마포서교점,37.5259577,127.1350289,"인도,태국",3,2,14
가산동,서울특별시 강동구 상일로15길 10 (고덕동),콘타이,37.5582825,127.1705307,"인도,태국",3,9,44
당산동4가,서울특별시 강동구 성내로8길 24 (성내동),오시게리따,37.5285185,127.1229847,"인도,태국",4.4,15,37
자양동,"서울특별시 강동구 상일로 157, 1층 (고덕동)",타코벨건대스타시티점,37.560974,127.1703884,"인도,태국",2.9,16,22
도곡동,"서울특별시 강동구 상암로4길 9, 1층 (암사동)",치와와,37.5500032,127.1265538,"인도,태국",4.8,6,20
천호동,"서울특별시 강동구 상암로41길 16 (천호동,,28,29)",천호 몽골 식당,37.5468371,127.141493,"인도,태국",5,1,0
석촌동,"서울특별시 강동구 아리수로 360, 1층 (고덕동)",판다,37.5621603,127.1681768,"인도,태국",0,0,0
공덕동,"서울특별시 강동구 암사길 1, 1층 (암사동)",에이포아시안키친,37.5507585,127.1298961,"인도,태국",4.1,18,29
소격동,"서울특별시 강동구 상암로 163 (천호동,지하1층)",아원공방,37.5460506,127.1406455,"인도,태국",0,0,2
봉천동,서울특별시 강동구 성내로 28 (성내동),커피버넷,37.5293388,127.1234569,"인도,태국",4.4,10,18
신정동,서울특별시 강동구 양재대로 1396 (둔촌동),Pho247,37.5306503,127.1378356,"인도,태국",5,3,0
대치동,"서울특별시 강동구 상일로 152, 상가동 1층 103호 (강일동, 고덕리엔파크1단지아파트)",칠리사이공,37.5613856,127.1715481,"인도,태국",0,0,0
내수동,서울특별시 강동구 암사길 2 (암사동),리틀 파파포 경희궁점,37.5506092,127.1300248,"인도,태국",3,8,53
개봉동,"서울특별시 강동구 암사길 28-1, 1층 101-2호 (암사동)",혼가이,37.5516682,127.1325126,"인도,태국",0,0,5
청담동,서울특별시 강동구 상암로4길 7 (암사동),테라13,37.5501102,127.1266024,"인도,태국",3.8,24,65
마곡동,"서울특별시 강동구 성안로3길 86, GK빌딩 1층 (성내동)",미분당 마곡점,37.5274609,127.1253789,"인도,태국",4,13,28
여의도동,"서울특별시 강동구 명일로13길 23, 1층 (둔촌동)",포베이KBS본관점,37.5336387,127.143567,"인도,태국",4,3,5
반포동,서울특별시 강동구 성내로5길 24 (성내동),타코벨 서울고속터미널점,37.5308028,127.123821,"인도,태국",3.2,6,0
합정동,서울특별시 강동구 성안로3길 103 (성내동),리틀케이브,37.5276526,127.1244027,"인도,태국",5,1,1
충무로1가,서울특별시 강동구 양재대로 1535 (천호동),벨로타벨로타,37.5429916,127.1412598,"인도,태국",0,0,1
신사동,"서울특별시 강동구 양재대로 1371, 둔촌빌딩 지1층 (성내동)",소이연남 마오,37.5287128,127.1360654,"인도,태국",3.9,24,96
봉천동,서울특별시 강동구 상일로7길 15 (상일동),서울테이블,37.5498338,127.1720533,"인도,태국",3.5,14,141
성수동1가,"서울특별시 강동구 상일로21길 13, 1층 (고덕동)",라루나,37.5595652,127.1699745,"인도,태국",3.3,10,38
