소재지전체주소,도로명전체주소,사업장명,위도,경도,업태구분명,kakao_star,kakao_star_nums,kakao_blog_review
통의동,서울특별시 광진구 자양로18길 14 (구의동),슬로우레시피,37.5374909,127.084302,중식,3.5,28,55
방배동,"서울특별시 구로구 고척로 96 (개봉동,원우빌딩 1층)",성민양꼬치,37.5008403,126.8449578,중식,3.7,24,30
신길동,"서울특별시 구로구 새말로 102, 신도림포스빌 지층 120호 (구로동)",자매양꼬치,37.5057801,126.8914054,중식,0,0,0
신설동,서울특별시 구로구 구로동로 100 (구로동),대성각,37.4876121,126.8851386,중식,2.7,3,1
구로동,"서울특별시 구로구 디지털로31길 41, 211호 (구로동, 이앤씨벤처드림타워6차)",도향촌,37.4851724,126.8927217,중식,0,0,0
역삼동,"서울특별시 구로구 구로동로28길 90, 1층 (구로동)",돈앤돈까스,37.4915116,126.8889233,중식,5,9,2
한남동,"서울특별시 광진구 자양로13길 61, 1층 (자양동)",진미반점,37.5337414,127.0814342,중식,3.9,12,0
연희동,"서울특별시 광진구 자양번영로6길 43, 1층 (자양동)",파티,37.5319834,127.0779107,중식,1,1,2
여의도동,"서울특별시 광진구 자양로 278, 1층 103호 (구의동)",금화쿵푸,37.5506258,127.0914575,중식,3.7,10,3
대림동,서울특별시 광진구 천호대로129길 22 (구의동),샹그릴라,37.552677,127.0908539,중식,0,0,0
보광동,"서울특별시 광진구 천호대로 629, 대영빌딩 1층 (중곡동)",한일각,37.5543932,127.0875705,중식,1.5,2,0
독산동,"서울특별시 구로구 디지털로 288 (구로동,대륭포스트타워 1차 214호)",중한길상반점,37.4837318,126.8953657,중식,0,0,0
대림동,"서울특별시 구로구 경인로25길 16, 1층 (오류동)",아향부,37.4971481,126.8442132,중식,3.5,6,32
가리봉동,서울특별시 구로구 디지털로32길 97-31 (구로동),춘화할인식당,37.4839582,126.9010168,중식,5,2,0
대림동,서울특별시 광진구 천호대로129길 22 (구의동),샹그릴라,37.552677,127.0908539,중식,0,0,0
등촌동,"서울특별시 구로구 부일로7길 3, 숲예찬 1층 (103)호 (온수동)",마라하오 강서점,37.4931177,126.8245998,중식,0,0,0
후암동,서울특별시 광진구 자양번영로 23 (자양동),마부마라탕마라샹궈,37.5317135,127.0750392,중식,4,6,15
면목동,"서울특별시 구로구 경인로40길 47 (개봉동, 개봉역 역사 1층)",짜앤짬,37.4945222,126.8591026,중식,4.3,4,6
봉천동,"서울특별시 구로구 디지털로33길 12, 104호 (구로동, 우림이비지센터 2차)",하얼빈양꼬치,37.4865757,126.8961598,중식,5,5,1
상왕십리동,서울특별시 구로구 디지털로32길 97-6 (구로동),서래향,37.4831152,126.9007697,중식,2.8,4,9
노량진동,"서울특별시 구로구 구로동로 99-2 (구로동, 1층)",다온,37.4875943,126.8847293,중식,0,0,0
영등포동3가,"서울특별시 광진구 자양로13길 100, 1층 (자양동)",동천훠궈,37.5325458,127.0797287,중식,3.1,10,74
대림동,"서울특별시 구로구 경인로53길 15 (구로동,중앙유통상가 A-01-05)",110양꼬치,37.5009708,126.8746491,중식,0,0,0
구로동,"서울특별시 구로구 신도림로 7, 202호 (신도림동, 금강리빙스텔)",차이나당,37.5063533,126.8772301,중식,2,4,5
노고산동,서울특별시 구로구 오류로 54 (오류동),메이찬 COOK,37.4895937,126.8400663,중식,2.8,17,155
자양동,서울특별시 구로구 새말로16길 24 (구로동),신미방식당,37.5045197,126.8906804,중식,0,0,0
논현동,"서울특별시 구로구 구로동로 148, 고려대부속구로병원 지하1층 7-1호 (구로동)",공리,37.492052,126.8848701,중식,3.7,38,104
북가좌동,서울특별시 광진구 자양로18길 46 (구의동),청와면옥,37.537935,127.0860905,중식,0,0,0
대치동,"서울특별시 구로구 구로동로 127, 2층 (구로동)",마담밍,37.4900555,126.8839781,중식,4.1,120,33
마곡동,서울특별시 구로구 고척로30길 6 (개봉동),탕화 쿵푸마라탕,37.5019985,126.848542,중식,4.8,5,67
홍지동,서울특별시 구로구 고척로21가길 28 (개봉동),중화정,37.5021661,126.8443386,중식,2,7,0
당산동3가,"서울특별시 구로구 가마산로23길 9 (구로동, 지상1층)",파파짬뽕,37.4960098,126.8889576,중식,3.7,14,8
삼성동,"서울특별시 구로구 구로중앙로 18, 지상1층 (구로동)",리칭,37.4919727,126.8919188,중식,3.1,16,4
창천동,"서울특별시 구로구 경인로53길 15, 판매시설동 지하1층 E08-24호 (구로동, 중앙유통단지)",차이,37.5009708,126.8746491,중식,4.7,3,3
상계동,서울특별시 구로구 구로동로26길 121 (구로동),용춘,37.4900211,126.8907967,중식,0,0,10
명동2가,"서울특별시 구로구 경인로 18 (오류동,1층)",리원,37.489071,126.8248908,중식,5,1,3
숭인동,서울특별시 구로구 개봉로20길 54 (개봉동),홍콩반점0410 동묘역점,37.4934459,126.8573711,중식,2,9,18
행당동,"서울특별시 구로구 고척로 102, 1층 (개봉동)",미미램양꼬치 ,37.5010647,126.8455486,중식,0,0,1
삼성동,서울특별시 구로구 구로동로 9-10 (가리봉동),서백자 간장게장,37.482882,126.8865302,중식,4.1,11,20
사직동,"서울특별시 구로구 개봉로11길 7-64, 1층 (개봉동)",용궁,37.4869526,126.8555848,중식,0,0,0
자양동,"서울특별시 구로구 디지털로 288, 지1층 B104호 (구로동, 대륭포스트타워1차)",미국가주우육면대왕&중화반점,37.4837318,126.8953657,중식,3,5,2
방이동,서울특별시 구로구 경인로 187-1 (오류동),현차이나,37.4954789,126.8419906,중식,3.4,19,50
청담동,"서울특별시 구로구 구로중앙로 24 (구로동,(구로큰길159))",청담감자탕,37.4923452,126.8917326,중식,3.8,4,4
미아동,"서울특별시 구로구 디지털로32나길 29, 5층 (구로동)",다래성,37.4844926,126.9006069,중식,3.3,10,2
신계동,"서울특별시 구로구 가마산로 265 (구로동,한솔로이젠트 110호)",동해루,37.4961406,126.8896962,중식,3.3,4,1
천호동,"서울특별시 광진구 자양로 310, 1층 101-1호 (구의동, 동인글로리)",용현짬뽕,37.5529415,127.0932859,중식,5,6,0
역촌동,"서울특별시 광진구 천호대로110길 8, 1층 (능동)",동주루,37.5563258,127.080311,중식,4.7,15,16
대림동,"서울특별시 구로구 경인로53길 15 (구로동,중앙유통단지상가 B-27-07,08호)",비상고시,37.5009708,126.8746491,중식,0,0,0
망우동,"서울특별시 구로구 경인로20가길 13, 1층 (오류동)",번개반점,37.4956132,126.8446223,중식,3,4,17
남창동,"서울특별시 구로구 고척로 207, 1층 (고척동)",연길반점,37.5054077,126.8561559,중식,3.5,45,104
신길동,"서울특별시 구로구 고척로 148-2, 1층 (고척동)",고향냉면,37.5028554,126.8502977,중식,0,0,0
연희동,"서울특별시 구로구 경인로47길 107, 106호 (고척동)",연희동양꼬치,37.5034034,126.863642,중식,4.3,9,11
역삼동,"서울특별시 구로구 공원로 26, 지하1층 05-3호 (구로동, 금호아파트)",만월,37.5000583,126.8919875,중식,0,0,0
월계동,"서울특별시 구로구 경인로 661, 102동 2층 227.228호 (신도림동, 푸르지오아파트 )",신연마라탕,37.5095178,126.8877039,중식,4.3,4,6
성산동,서울특별시 구로구 오리로22다길 13-35 (궁동),당가원,37.5018693,126.8308987,중식,4,42,42
신월동,서울특별시 구로구 가마산로 180-1 (구로동),세명반점,37.4918498,126.8822918,중식,0,0,0
방배동,서울특별시 구로구 경인로35길 77 (고척동),개화,37.4998481,126.8524326,중식,1.8,22,21
통의동,"서울특별시 광진구 천호대로112길 17 (능동,1층)",여수한두레,37.5553449,127.0814043,중식,3.9,29,3
당주동,"서울특별시 구로구 디지털로32나길 17-23, 우남산업 1층 103호 (구로동)",일일향 광화문점,37.4840596,126.8998615,중식,3.9,8,33
태평로1가,"서울특별시 광진구 자양로 254, 1층 107-8호 (구의동)",보돌미역 광화문 sfc몰점,37.5487754,127.0896912,중식,0,0,4
장안동,서울특별시 구로구 구로동로 74 (구로동),만리향,37.4854485,126.8860418,중식,3,2,1
여의도동,서울특별시 광진구 천호대로 647 (중곡동),다원,37.5532471,127.0895583,중식,4.3,4,4
화곡동,서울특별시 구로구 디지털로32다길 24 (구로동),자금성,37.4820005,126.8995614,중식,2.4,14,6
남산동1가,"서울특별시 구로구 경인로67길 23 (신도림동,신도림2차 푸르지오상가 101동 203호)",와호장룡,37.5105879,126.8894776,중식,0,0,0
상일동,서울특별시 구로구 부일로13길 55 (궁동),신마라명가 강동점,37.4956209,126.831241,중식,0,0,1
대치동,"서울특별시 구로구 구로중앙로14길 19 (구로동, 102호)",옛날손짜장,37.4934673,126.8917551,중식,3,2,5
마곡동,"서울특별시 구로구 중앙로15길 90, 1층 (고척동)",구구향훠궈,37.5071709,126.8549469,중식,4.7,18,80
보광동,"서울특별시 금천구 가산디지털1로 131, B118호 (가산동, BYC HIGHCITY)",하오츠마라탕,37.4770424,126.8819679,중식,4.3,3,4
낙원동,서울특별시 광진구 자양로43길 47 (중곡동),신라반점,37.5526582,127.0901711,중식,3.3,4,0
신당동,"서울특별시 구로구 경인로38길 13, 상가동 1층 101호 (개봉동, 신개봉삼환아파트)",이화원,37.4968824,126.8576983,중식,3.4,21,34
청진동,"서울특별시 구로구 새말로 102, 1층 106호 (구로동, 신도림포스빌)",덕후선생 광화문,37.5057801,126.8914054,중식,4.3,12,40
마곡동,서울특별시 구로구 공원로6나길 43-1 (구로동),백년 교동짬뽕 마곡점,37.5045829,126.8920415,중식,2,2,32
봉천동,"서울특별시 구로구 디지털로26길 111, B4호 (구로동, JNK디지털타워)",수타원,37.4825548,126.8970407,중식,3.6,18,11
홍은동,서울특별시 광진구 자양로22길 8 (구의동),차이나,37.5394745,127.0837801,중식,5,1,0
가산동,"서울특별시 구로구 구로동로 214, 1층 (구로동)",차우,37.497583,126.8827029,중식,2.4,11,0
상도동,"서울특별시 구로구 구일로4길 29 (구로동, 고양상가 )",신부양각,37.491744,126.8758708,중식,5,1,0
합정동,서울특별시 구로구 서해안로30길 13 (오류동),금문,37.4931716,126.8441356,중식,0,0,0
영등포동4가,"서울특별시 구로구 가마산로 242, 희망재단 1층 (구로동)",차이룡,37.4943898,126.8877302,중식,4.1,16,12
문래동1가,"서울특별시 구로구 경인로25길 9, 1층 (오류동)",장가계,37.4968242,126.8443162,중식,0,0,1
중곡동,"서울특별시 구로구 구로중앙로27다길 1, 지하1층 (구로동)",북경반점,37.4974325,126.8844864,중식,5,2,4
구로동,"서울특별시 구로구 새말로 19 (구로동, 정윤빌딩 4층)",마천향마라탕,37.502313,126.8829182,중식,0,0,0
신림동,"서울특별시 구로구 디지털로 271, 벽산디지털밸리Ⅲ 지하1층 B108호 (구로동)",다모아,37.4833346,126.8937875,중식,0,0,0
등촌동,서울특별시 구로구 부일로15길 13 (궁동),쓰부,37.4937657,126.8337875,중식,4.2,18,91
충정로2가,서울특별시 구로구 개봉로12길 38 (개봉동),한식녹두삼계탕,37.4880708,126.8585376,중식,5,1,1
신월동,서울특별시 구로구 개봉로3길 59 (개봉동),북경,37.4860606,126.8529823,중식,1,1,0
영등포동,"서울특별시 구로구 경인로33다길 34, 1층층 (개봉동)",대홍샤브샤브,37.4999527,126.8493624,중식,4.8,14,24
방배동,"서울특별시 구로구 디지털로31길 90, 103호 (구로동, 삼성래미안아파트상가동)",주,37.4875908,126.8919379,중식,3.8,247,95
남가좌동,서울특별시 구로구 경인로23길 1 (오류동),모래내즉석우동짜장,37.4964661,126.844017,중식,2,2,0
신림동,"서울특별시 구로구 구일로10길 27, SK허브수 A동 1층 131호 (구로동)",탐나종합어시장,37.4956952,126.8719364,중식,2.4,9,84
가산동,"서울특별시 구로구 구로동로 171, 3층 (구로동)",현대옥가산역점,37.4938244,126.8829272,중식,3,3,5
대림동,"서울특별시 구로구 경인로 662, 지하2층 (신도림동, 디큐브시티)",와이비양꼬치,37.5083236,126.8884274,중식,0,0,2
중곡동,"서울특별시 구로구 구로중앙로14길 7, 1층 (구로동)",셰프케이,37.4931544,126.8912278,중식,5,6,5
상계동,서울특별시 구로구 구로동로22길 11 (구로동),경성양꼬치,37.4895778,126.885145,중식,2.5,4,7
남가좌동,"서울특별시 구로구 경인로61길 21, 102호 (신도림동, 신도림크라운빌 상가 )",짜우반점,37.5077899,126.8840609,중식,4.2,6,3
동선동5가,서울특별시 구로구 경인로47길 42 (고척동),흑룡강,37.5011422,126.8659895,중식,2.8,5,2
가산동,"서울특별시 구로구 구로동로28길 13, 1,2층 101,201호 (구로동, 갤러리하우스)",독산삼겹살,37.4908847,126.88484,중식,0,0,0
방배동,"서울특별시 구로구 개봉로17길 41, 1층 (개봉동)",궁,37.4912791,126.8535303,중식,5,3,3
상봉동,"서울특별시 구로구 고척로 123-2 (개봉동,(고척동길232)지상2층)",중국성,37.5022949,126.8479957,중식,3.3,7,26
독산동,서울특별시 구로구 구로동로8길 96 (구로동),대흥양꼬치,37.4897798,126.8881979,중식,0,0,0
도봉동,"서울특별시 금천구 가산디지털1로 128, 지상1층 111호 (가산동, STX V-TOWER)",수수,37.4772358,126.8837009,중식,3.7,6,8
동교동,서울특별시 구로구 안양천로537가길 15 (고척동),고구려홍대점,37.5011196,126.8684544,중식,2.8,17,14
대방동,"서울특별시 구로구 구로중앙로 152, NC백화점 지하1층 (구로동)",신흥원,37.5011324,126.8828,중식,3.5,13,3
신당동,"서울특별시 광진구 자양로5길 7, 1층 (자양동)",동대문 마라탕,37.531606,127.0853176,중식,3.7,6,31
성수동1가,서울특별시 광진구 자양로28길 22 (구의동),전설의짬뽕,37.542095,127.0854158,중식,2.3,16,19
독산동,서울특별시 구로구 공원로6나길 29-21 (구로동),화부자마라탕,37.505019,126.8907132,중식,0,0,0
이문동,서울특별시 구로구 새말로16길 30 (구로동),신선루,37.5043026,126.8908635,중식,2.3,4,2
남현동,"서울특별시 구로구 디지털로 300 (구로동, 지밸리비즈플라자 지하1층 108호)",안성각,37.4850307,126.8966116,중식,3.6,18,15
가리봉동,"서울특별시 구로구 오류로 86, 1층 102호 (오류동)",연길양꼬치성,37.4924731,126.8409742,중식,0,0,0
구의동,"서울특별시 구로구 디지털로26길 111, 제이앤케이디지털타워 1층 112호 (구로동)",북경루,37.4825548,126.8970407,중식,0,1,1
당산동3가,"서울특별시 광진구 자양로18길 42, 1층 (구의동)",중국관,37.5378276,127.0857897,중식,0,0,0
이태원동,서울특별시 구로구 개봉로16길 8 (개봉동),왕타이,37.4899571,126.8567319,중식,3.9,169,50
신사동,"서울특별시 구로구 디지털로27길 48, 지하1층,지상1층 (구로동)",연경,37.4838968,126.8915485,중식,1.7,3,0
신길동,서울특별시 광진구 자양로13길 96 (자양동),산동성,37.5328159,127.0799364,중식,3.3,13,0
대현동,"서울특별시 구로구 경인로53길 15 (구로동, 중앙유통단지 E-8-26)",이대마라탕,37.5009708,126.8746491,중식,3.8,25,36
석관동,"서울특별시 구로구 고척로 184, 1층 (고척동)",짜장하우스,37.5041742,126.8538406,중식,4,4,1
서초동,"서울특별시 구로구 경인로47길 76, 알앤디타워 1층 103호 (고척동)",하오차이,37.5021926,126.8645262,중식,3.3,36,49
진관동,"서울특별시 광진구 자양번영로1길 12-1 (자양동,(1층))",진관성,37.5308064,127.074092,중식,1.3,4,1
등촌동,"서울특별시 구로구 디지털로32다길 9 (구로동, 라이프풀러스 1층)",진로반점,37.4823512,126.9002233,중식,0,0,0
쌍문동,"서울특별시 구로구 디지털로27길 51, 1층 (가리봉동)",함지성,37.483757,126.8911749,중식,0,0,0
영등포동,"서울특별시 구로구 경인로33다길 34, 1층층 (개봉동)",대홍샤브샤브,37.4999527,126.8493624,중식,4.8,14,24
가리봉동,서울특별시 구로구 신도림로3길 2 (신도림동),뼈다귀찜,37.5076611,126.8794202,중식,0,0,0
응암동,"서울특별시 광진구 천호대로104길 14 (군자동,(1층))",속초중앙시장해물짬뽕&브라운돈까스&사계절카레,37.5578775,127.0752723,중식,0,0,1
불광동,"서울특별시 구로구 개봉로3가길 7, 점포1칸 1층 (개봉동)",중화원,37.4859723,126.8543194,중식,3.4,121,88
문정동,"서울특별시 구로구 개봉로17라길 9, 지1층 B01호 (개봉동, 부원빌라)",창룡,37.4918752,126.853465,중식,4.7,25,10
명일동,"서울특별시 구로구 도림로 28 (구로동,외 1필지 제 101호)",북경반점,37.4867097,126.8880818,중식,2.5,8,5
동교동,서울특별시 구로구 중앙로 102 (고척동),정원각,37.5066754,126.8604893,중식,4.3,3,8
연남동,서울특별시 구로구 우마길 22 (가리봉동),향미,37.4810204,126.8884965,중식,3.1,95,92
마곡동,"서울특별시 구로구 경인로 430, 지1층 F-2호 (고척동)",신룽푸마라탕 마곡점,37.4982889,126.8671719,중식,2.8,5,12
가산동,"서울특별시 구로구 구로중앙로19길 5, 지1층 (구로동)",진미식당,37.494545,126.8887628,중식,0,0,0
서초동,"서울특별시 광진구 자양로22길 33, 1층 (구의동)",홍콩반점 0410 ,37.5397318,127.0851949,중식,2,18,10
도곡동,서울특별시 구로구 새말로4길 21 (구로동),천향,37.5013895,126.8836024,중식,5,1,8
고척동,서울특별시 구로구 구로중앙로28길 54 (구로동),이씨네숯불구이,37.5004199,126.8883789,중식,0,0,0
양평동2가,"서울특별시 구로구 경인로47길 23 (고척동, 미림빌딩)",북경,37.5003906,126.8664026,중식,0,0,0
신월동,"서울특별시 구로구 개봉로 17-1, 1층 (개봉동)",용문각,37.4873548,126.8559978,중식,4.5,6,1
소공동,"서울특별시 구로구 경인로 192, 1층 11,12,13호 (오류동, 삼익쇼핑)",명동 수미가,37.495043,126.8426543,중식,0,0,0
소공동,"서울특별시 구로구 경인로 192, 1층 11,12,13호 (오류동, 삼익쇼핑)",명동 수미가,37.495043,126.8426543,중식,0,0,0
상계동,"서울특별시 구로구 디지털로32길 79, 2층 203호 (구로동)",라화쿵부상계점,37.4835336,126.8997792,중식,2.5,12,50
신계동,"서울특별시 구로구 디지털로31길 53, 이앤씨벤처드림타워5차 1층 105호 (구로동)",천궁,37.4856903,126.8924453,중식,4,4,1
서소문동,"서울특별시 광진구 자양로15길 80, 1층 (자양동)",배재반점,37.5349888,127.0792419,중식,2.4,10,6
사당동,"서울특별시 구로구 디지털로27길 36 (구로동,이-스페이스 지하1층 비06호)",마라안스 사당점,37.483741,126.8925726,중식,3.9,13,89
수유동,서울특별시 구로구 구로동로 100 (구로동),스타짬뽕,37.4876121,126.8851386,중식,4.2,5,10
하월곡동,"서울특별시 구로구 새말로 102, 1층 117호 (구로동, 신도림포스빌)",THE+짬뽕,37.5057801,126.8914054,중식,4,4,12
수송동,서울특별시 광진구 천호대로112길 10 (능동),청빈,37.5557567,127.081345,중식,3,4,4
길동,서울특별시 구로구 구로동로 125-1 (구로동),다림원,37.4898268,126.8840634,중식,4.5,6,9
한강로2가,"서울특별시 구로구 경인로40길 25 (개봉동,(1층))",일일향,37.4954441,126.8599119,중식,4.1,49,33
상계동,"서울특별시 구로구 구일로10길 27, SK허브수 A동 1층 132호 (구로동)",미락,37.4956952,126.8719364,중식,5,2,2
미아동,"서울특별시 구로구 구로중앙로 217, 형제빌딩 1층 110호,111호 (구로동)",라와마라탕,37.5049627,126.8766224,중식,1.3,6,19
독산동,"서울특별시 구로구 구로동로 73 (구로동, 2층)",쑈훙오리목점,37.4853016,126.8857161,중식,0,0,0
번동,"서울특별시 구로구 남부순환로95길 8-5, 2층 (개봉동)",미산,37.4941741,126.8580423,중식,3.5,9,0
월계동,서울특별시 구로구 구로중앙로 4 (구로동),한끼,37.4908918,126.8929255,중식,0,0,0
구의동,서울특별시 구로구 구로동로17길 7 (구로동),삼거리양꼬치,37.4882838,126.8841165,중식,5,2,2
한남동,"서울특별시 구로구 디지털로32길 97-6, 1층 (구로동)",연옥,37.4831152,126.9007697,중식,1,1,0
개봉동,"서울특별시 구로구 디지털로32길 97-39 (구로동, 성민빌딩 지하1층)",사천마라탕,37.4842667,126.9013723,중식,5,2,0
가락동,"서울특별시 구로구 중앙로3길 46, 강서빌딩 지하1층 비101호 (고척동)",타이지엔,37.499292,126.8614472,중식,3,4,27
대치동,서울특별시 구로구 디지털로27길 61 (가리봉동),남경반점,37.4839154,126.8906245,중식,3.4,20,6
동숭동,"서울특별시 구로구 고척로19길 41 (개봉동,,33-36 지상1층)",만리성,37.5030125,126.8445572,중식,2.8,31,111
구로동,서울특별시 광진구 자양로43길 87 (중곡동),중화가정 구로디지털단지역점,37.554387,127.0893576,중식,2,1,1
신림동,"서울특별시 구로구 도림로12길 20 (구로동,101호)",신룽푸마라탕,37.4865749,126.8891123,중식,3.2,6,14
도화동,"서울특별시 구로구 신도림로 65 (신도림동,월드메르디앙상가 105호)",일일향,37.5095584,126.8820617,중식,3.2,78,84
자양동,"서울특별시 구로구 구일로2길 60, 201동 130호 (구로동,구일우성상가)",동성관,37.4902145,126.8772364,중식,4.2,13,8
숭인동,"서울특별시 구로구 개봉로15길 24, 1층 102호 (개봉동)",홍콩반점,37.4900043,126.8546651,중식,0,0,1
대림동,"서울특별시 구로구 경인로 176-8, 1층 (오류동)",입큰오리,37.4943523,126.840517,중식,5,1,7
도림동,"서울특별시 구로구 디지털로32나길 17-26, 1층 (구로동)",도림186,37.4847783,126.8997858,중식,5,2,22
성내동,"서울특별시 구로구 디지털로 300, 1층 8호 (구로동, 지밸리비즈플라자)",다래성,37.4850307,126.8966116,중식,4,4,0
둔촌동,서울특별시 구로구 구로동로 126-16 (구로동),중화반점,37.4900227,126.8851165,중식,3.7,3,1
천호동,"서울특별시 구로구 부일로 871-10, 지하1층 (온수동)",사미반점 길동점,37.4932979,126.8239628,중식,0,0,4
구로동,"서울특별시 구로구 구로중앙로 217, 형제빌딩 207호 (구로동)",낭만해물,37.5049627,126.8766224,중식,0,0,24
마곡동,"서울특별시 구로구 공원로6나길 43-13, 지1층 (구로동)",피슈마라홍탕,37.505013,126.8916881,중식,3.2,19,164
신림동,"서울특별시 구로구 디지털로19길 23, 1층 (가리봉동)",윤미반점,37.4807226,126.8897399,중식,5,4,1
명동2가,"서울특별시 구로구 경인로 403, A동 105호 (고척동, 원메디타운)",이선생미국가주우육면대왕,37.497976,126.8643784,중식,2.7,3,60
온수동,서울특별시 구로구 구로동로22길 82 (구로동),칠성반점,37.488282,126.8884357,중식,0,0,0
성수동2가,"서울특별시 광진구 자양로13다길 47, 1층 (자양동)",태양각,37.5333067,127.0772817,중식,0,0,2
방이동,서울특별시 구로구 경인로 215 (오류동),형제짬뽕,37.4967255,126.8448214,중식,3.6,8,10
역촌동,"서울특별시 광진구 천호대로127길 26, 1층 (중곡동)",장원,37.5538102,127.0903225,중식,5,1,2
면목동,"서울특별시 구로구 디지털로32길 97-33, 3층 (구로동)",신라방마라탕,37.4840414,126.9011375,중식,5,1,28
수유동,"서울특별시 구로구 도림로12길 24 (구로동,(황토길 22) 101호)",소문난 짜장,37.4864709,126.8893955,중식,0,0,2
성수동1가,서울특별시 구로구 공원로6나길 35-19 (구로동),메이탄성수 유한회사,37.504951,126.8911028,중식,4.3,10,61
남창동,"서울특별시 구로구 경인로53길 15 (구로동, 중앙유통상가 B26-07)",신북경반점,37.5009708,126.8746491,중식,1.8,6,1
잠원동,"서울특별시 구로구 경인로53길 15 (구로동, 중앙유통단지 지하1층 A-05)",연화산,37.5009708,126.8746491,중식,2.8,4,11
둔촌동,"서울특별시 구로구 디지털로32나길 23, 2층 (구로동)",중국성,37.484276,126.9004928,중식,2.5,4,7
길동,"서울특별시 구로구 구로동로28길 63, 1층 (구로동)",왕짜장,37.4910051,126.8876738,중식,2.8,4,5
화곡동,"서울특별시 구로구 남부순환로97길 12, 지하1층 (개봉동)",매화양꼬치,37.4942053,126.8586933,중식,3.4,14,104
역삼동,"서울특별시 구로구 새말로 97 (구로동, 신도림테크노마트 지하1층 FC003호)",홍반점,37.5070143,126.8902633,중식,3.5,2,0
독산동,"서울특별시 구로구 공원로8길 45, 1층 (구로동)",훈춘왕꼬치,37.503895,126.8915513,중식,0,0,0
구로동,"서울특별시 구로구 경인로 661, 150,159호 (신도림동, 신도림1차푸르지오상가)",투보가요리집,37.5095178,126.8877039,중식,0,0,0
여의도동,서울특별시 광진구 천호대로101길 49 (중곡동),세양원,37.5613898,127.0756116,중식,2.8,4,2
서교동,서울특별시 구로구 오리로13길 4 (오류동),홍대점 홍콩반점,37.4897898,126.8335343,중식,2.8,34,26
쌍문동,서울특별시 구로구 디지털로27길 67 (가리봉동),황금성,37.4839285,126.8902812,중식,3.1,25,22
옥수동,"서울특별시 구로구 고척로 128-10, 지상1층 (개봉동)",신자금성,37.5017583,126.848224,중식,2.9,8,3
논현동,서울특별시 구로구 구로중앙로 29 (구로동),진시황,37.4925275,126.8907623,중식,3,1,0
삼성동,서울특별시 구로구 새말로18길 20-27 (구로동),하얼빈 가정식 본점,37.5050602,126.8915343,중식,3,7,19
창천동,"서울특별시 구로구 디지털로31길 81, 상가동 1층 103,104호 (구로동, 구로두산위브)",백양 양꼬치 짬뽕,37.4863569,126.8912735,중식,3,2,0
연남동,서울특별시 구로구 우마길 14 (가리봉동),신안동장,37.4815033,126.888109,중식,2.8,6,3
상도동,"서울특별시 구로구 남부순환로97길 11, 지하층 (개봉동)",채홍,37.4942568,126.8583773,중식,3,31,13
신길동,"서울특별시 구로구 고척로 9, 1층 102호 (오류동)",장보고,37.4956251,126.8404504,중식,3.4,10,6
방배동,서울특별시 구로구 경인로35길 77 (고척동),개화,37.4998481,126.8524326,중식,1.8,22,21
공릉동,서울특별시 구로구 구로동로42길 60-4 (구로동),공릉중화요리,37.4984303,126.8842807,중식,0,0,0
갈현동,서울특별시 광진구 자양번영로 13 (자양동),도화림,37.5308716,127.074793,중식,4.4,8,9
신월동,"서울특별시 광진구 천호대로101길 11 (중곡동,(1층))",왕짜장,37.5597407,127.0746722,중식,0,0,0
신당동,"서울특별시 구로구 디지털로32길 30, 1층 103호 (구로동, 코오롱빌란트 )",중국란주우육면,37.4834351,126.8964929,중식,3,1,0
서초동,"서울특별시 구로구 개봉로3길 40, 1층 (개봉동)",하이난,37.48642,126.8540549,중식,3.2,6,1
가산동,"서울특별시 광진구 자양로 284, 1층 (구의동)",마라일품훠궈,37.5511103,127.0918282,중식,1.9,7,28
답십리동,"서울특별시 구로구 구로중앙로31길 34, 지상2층 (구로동)",소림마라 동대문점,37.4986931,126.8849429,중식,5,3,4
연남동,서울특별시 구로구 중앙로 13 (고척동),란콰이진,37.4991753,126.8641046,중식,3.6,7,182
구로동,"서울특별시 구로구 구로동로28길 55 (구로동, 1층)",서탑반점,37.4909708,126.8872567,중식,5,1,0
신천동,"서울특별시 구로구 경인로 430 (고척동, 고척동 스카이돔 추가매점)",시아우545,37.4982889,126.8671719,중식,5,2,15
서초동,서울특별시 구로구 고척로21나길 2 (개봉동),연화산,37.503133,126.8454984,중식,3.2,20,2
회현동1가,서울특별시 구로구 디지털로32길 79 (구로동),On the rock,37.4835336,126.8997792,중식,4,1,0
도화동,"서울특별시 구로구 오류로 61, 1층 101호 (오류동, 청담파우제)",마포한우물,37.4901925,126.8400896,중식,4.8,25,15
서교동,서울특별시 구로구 신도림로11다길 23 (신도림동),림가기,37.5083481,126.8778556,중식,3.9,41,53
개봉동,"서울특별시 구로구 경인로 662, 3층 판매301일부호 (신도림동, 디큐브시티)",마라공간,37.5083236,126.8884274,중식,5,2,4
자양동,"서울특별시 구로구 디지털로32나길 29, 2층 (구로동)",허씨정통중경마라썅궈,37.4844926,126.9006069,중식,3.8,13,197
구로동,"서울특별시 구로구 구로동로15길 11, 1층 101호 (구로동)",홍매,37.4877403,126.884098,중식,5,3,9
여의도동,서울특별시 구로구 경인로35길 131-42 (고척동),판다익스프레스여의도IFC몰점,37.5016073,126.851271,중식,3,26,100
쌍문동,서울특별시 구로구 구로중앙로18길 71 (구로동),문성해물짬뽕,37.4963927,126.8924348,중식,3.6,29,59
자양동,"서울특별시 구로구 디지털로 288, 지1층 B104호 (구로동, 대륭포스트타워1차)",미국가주우육면대왕&중화반점,37.4837318,126.8953657,중식,3,5,2
공항동,"서울특별시 구로구 구로동로 86, 101호 (구로동)",복성루,37.4863909,126.8856499,중식,5,1,0
마곡동,"서울특별시 구로구 디지털로31길 120, 4동 1층 418호 (구로동, 한신휴플러스아파트)",중식당 청가,37.4886875,126.8905999,중식,3.6,14,17
명일동,서울특별시 구로구 우마길 1 (가리봉동),황푸차이나,37.4825696,126.8875527,중식,3.8,14,21
우면동,"서울특별시 금천구 가산디지털1로 142, 가산 더스카이밸리 1차 지상1층 130호 (가산동)",짬뽕상회,37.4784047,126.8833586,중식,1,1,1
도봉동,"서울특별시 구로구 공원로7길 29, 나동 1층 101호 (구로동, 대원파크빌)",락궁,37.5015556,126.8876957,중식,1,4,0
삼성동,"서울특별시 구로구 구로중앙로27나길 32, 1층 (구로동)",대범천,37.4961657,126.8852551,중식,1.7,3,2
대치동,"서울특별시 구로구 구로동로 118-2, 2층 (구로동)",락앤웍,37.4892455,126.8845494,중식,2.9,9,2
마곡동,"서울특별시 구로구 공원로9길 11, 1층 (구로동)",몽키마라,37.5029089,126.8877027,중식,0,0,0
등촌동,서울특별시 구로구 새말로 81 (구로동),상해지급 강서점,37.5051449,126.888916,중식,0,0,0
입정동,서울특별시 광진구 자양로18길 9 (구의동),홍콩,37.5376301,127.0840406,중식,2.8,27,17
자양동,"서울특별시 구로구 도림로 37-2, 202호 (구로동)",복만루,37.4878,126.8883824,중식,3.5,29,24
역삼동,"서울특별시 구로구 구로동로 167, 1층 107,108호 (구로동, 조일뉴타워)",아방궁,37.4935759,126.8830308,중식,3.2,23,107
견지동,"서울특별시 구로구 경인로23길 8, 103호 (오류동, 대서프라자)",홍성원,37.4968091,126.8440813,중식,4.1,39,15
방학동,서울특별시 구로구 남부순환로105길 52 (가리봉동),형원,37.4796652,126.8899231,중식,2.8,9,0
암사동,"서울특별시 구로구 새말로18길 64, 상가동 1층 106호 (구로동, 엘지신도림자이아파트)",요리왕,37.5035341,126.8921215,중식,0,0,0
자양동,"서울특별시 구로구 서해안로 2098, 항동프라자 2층 201호 (항동)",금하,37.4799845,126.823167,중식,3.5,6,20
남가좌동,"서울특별시 구로구 경인로 662, 지하2층 (신도림동, 디큐브시티)",중화루,37.5083236,126.8884274,중식,1,1,2
신월동,서울특별시 구로구 가마산로9길 4-4 (구로동),수현성,37.4915375,126.8816267,중식,5,4,0
대치동,서울특별시 구로구 구로동로28길 87 (구로동),미쓰양꼬치,37.4916401,126.8887038,중식,3.5,25,352
중화동,서울특별시 구로구 경인로47길 26 (고척동),중화요리하이난,37.5006501,126.8666191,중식,2.7,3,15
잠실동,서울특별시 광진구 천호대로112길 10 (능동),도림,37.5557567,127.081345,중식,3.3,11,24
정릉동,"서울특별시 광진구 자양로26길 31, 연이빌딩 1층 (구의동)",삼미원,37.5415631,127.085743,중식,3.8,5,4
대림동,서울특별시 광진구 천호대로129길 5 (중곡동),안도삼천리냉면,37.5525796,127.0899279,중식,0,0,0
가산동,"서울특별시 구로구 디지털로 288, 지하1층 제비116호 (구로동, 대륭포스트타워1)",자금성,37.4837318,126.8953657,중식,3.3,3,5
압구정동,"서울특별시 구로구 구로동로28길 90, 1층 (구로동)",크리스탈제이드상하이딜라이트,37.4915116,126.8889233,중식,3.9,24,24
증산동,서울특별시 구로구 가마산로 225 (구로동),아리산채,37.494113,126.8860425,중식,4.3,16,22
회기동,"서울특별시 구로구 구로동로18길 60, 1층 (구로동)",삼성루,37.4871227,126.8877323,중식,2,6,23
연희동,"서울특별시 구로구 경인로53길 90, 에스티엑스 더블유 타워 1층 109호 (구로동)",진보,37.5046801,126.8751557,중식,3.1,35,9
녹번동,서울특별시 광진구 천호대로112길 13 (능동),북경,37.5554331,127.081511,중식,3.3,6,0
흑석동,"서울특별시 구로구 구로동로42길 58, 지하1층 (구로동)",미각중식당,37.4982512,126.8843155,중식,0,0,0
한남동,서울특별시 구로구 개봉로19길 43 (개봉동),Black & Recl 중국성,37.4936197,126.8555725,중식,0,0,1
홍은동,서울특별시 광진구 자양로22길 8 (구의동),차이나,37.5394745,127.0837801,중식,5,1,0
반포동,"서울특별시 구로구 개봉로17가길 6, 1층 (개봉동)",크리스탈제이드 파미에스테이션,37.4919045,126.8553353,중식,3.7,69,108
쌍문동,"서울특별시 구로구 디지털로32다길 14 (구로동, 지하1층)",꿩짬뽕,37.4824398,126.8998296,중식,4.7,3,0
동선동1가,"서울특별시 구로구 경인로47길 122, 1층 2호 (고척동)",두끼,37.5040299,126.8636204,중식,3.7,13,93
대림동,"서울특별시 구로구 공원로 34, 지하2층 B201-25,26호 (구로동, 한스타워)",연못,37.5005017,126.8916525,중식,0,0,0
체부동,서울특별시 구로구 고척로10길 65 (오류동),도성,37.4964485,126.8421805,중식,4.7,3,10
영등포동5가,"서울특별시 구로구 새말로 97 (구로동,신도림테크노마트 100동 F10층 022, 023호)",홍콩반점,37.5070143,126.8902633,중식,0,0,0
장위동,"서울특별시 구로구 경서로 53, 지하1층 (고척동)",한일각,37.5018236,126.8587804,중식,1,3,0
신길동,"서울특별시 광진구 자양번영로 13, 1층 (자양동)",원풍,37.5308716,127.074793,중식,0,0,0
회기동,"서울특별시 구로구 경인로 430, 내야2층 1-1호 (고척동, 고척스카이돔구장내)",신,37.4982889,126.8671719,중식,0,0,0
신도림동,"서울특별시 구로구 새말로 97 (구로동,신도림테크노마트 지하1층 FC 015호)",양첸반점 신도림점,37.5070143,126.8902633,중식,5,1,2
원효로3가,"서울특별시 구로구 경인로53길 15, 중앙유통단지 판매시설동 지하1층 D18-03호 (구로동)",만리향,37.5009708,126.8746491,중식,5,2,2
성수동2가,서울특별시 광진구 자양로43길 41 (구의동),가야성,37.5523632,127.0902938,중식,5,1,1
동빙고동,"서울특별시 광진구 천호대로127길 8, 1층 (중곡동)",우영각,37.5534834,127.089323,중식,1,2,0
구의동,"서울특별시 구로구 구로동로35길 21, 미성빌딩 1층 104호 (구로동)",전설의짬뽕,37.493302,126.8827182,중식,4.7,27,13
방배동,"서울특별시 구로구 개봉로5길 44 (개봉동,1층)",다리원,37.4868008,126.8531739,중식,3.7,29,87
신설동,"서울특별시 구로구 공원로6나길 39-6, 1층 (구로동)",모모,37.5047069,126.8918117,중식,0,0,0
역삼동,"서울특별시 구로구 공원로6다길 10, 101호 (구로동)",강남역점 홍콩반점0410,37.5045486,126.8898715,중식,2.3,37,23
천호동,"서울특별시 광진구 자양로50길 25, 1층 (구의동)",라화쿵부마라탕,37.5522712,127.0938308,중식,3.7,15,29
길동,서울특별시 구로구 디지털로32다길 24 (구로동),용천각,37.4820005,126.8995614,중식,0,0,0
방이동,"서울특별시 구로구 경인로53길 15 (구로동,중앙유통상가 B-51)",난랑,37.5009708,126.8746491,중식,3.5,19,10
가리봉동,서울특별시 구로구 디지털로32길 97-31 (구로동),춘화할인식당,37.4839582,126.9010168,중식,5,2,0
공릉동,"서울특별시 구로구 도림로 46, 1층 (구로동)",귀빈,37.4879446,126.8893597,중식,1.5,10,0
여의도동,"서울특별시 구로구 경인로35길 12 (개봉동,, 지상1층)",용용이,37.4979682,126.8553075,중식,3,2,24
신내동,서울특별시 구로구 개봉로3길 6 (개봉동),피자 알볼로,37.4865267,126.8558845,중식,4.5,4,10
화곡동,"서울특별시 광진구 자양번영로 64 (자양동,1층 (지번수정))",소백양 마라탕,37.5352921,127.076527,중식,4.9,8,1
갈현동,"서울특별시 광진구 자양로13길 91, 1층 (자양동)",태성각,37.5327431,127.08029,중식,2.9,10,1
서초동,"서울특별시 구로구 개봉로20길 60, 지1층 (개봉동, 부속건물)",태양,37.4934097,126.8577247,중식,0,0,0
암사동,서울특별시 구로구 구로동로22길 11 (구로동),장홍규중화요리,37.4895778,126.885145,중식,3.1,12,5
정릉동,"서울특별시 구로구 경인로53길 15 (구로동,중앙유통상가 A-04)",황궁,37.5009708,126.8746491,중식,3.5,13,0
구로동,"서울특별시 구로구 오류로 62, 1층 1호 (오류동)",취복림,37.4901737,126.8404719,중식,4,1,0
불광동,"서울특별시 광진구 천호대로127길 9, 지하1층 (중곡동)",보경원 엔 홍차이나,37.5536792,127.0894553,중식,0,0,0
성수동2가,"서울특별시 구로구 개봉로11길 7-64 (개봉동,(개웅초롱1길 20))",미각,37.4869526,126.8555848,중식,3.3,4,24
합정동,서울특별시 구로구 오류로8길 85 (오류동),동평원,37.4931308,126.8447226,중식,4,1,1
신사동,서울특별시 구로구 부일로15길 47 (궁동),중식포차,37.4947937,126.8326377,중식,4.4,7,6
당산동3가,"서울특별시 구로구 경인로47길 122 (고척동,지상1층)",차이향,37.5040299,126.8636204,중식,4.2,5,2
신설동,서울특별시 구로구 고척로33길 101 (고척동),이양식당,37.506901,126.8470134,중식,4.8,4,12
상계동,"서울특별시 구로구 경인로 331, 지하1층 (고척동, 가든상가)",신미방,37.4977098,126.8569368,중식,3.9,11,11
구로동,서울특별시 구로구 경인로 619-3 (신도림동),마라명가,37.5069165,126.8840957,중식,0,0,0
명륜2가,"서울특별시 구로구 경인로 662, 5층 (신도림동, 디큐브시티)",희래식당 대학로점,37.5083236,126.8884274,중식,1.5,29,91
고척동,"서울특별시 구로구 신도림로11길 9-38, 1층 (신도림동)",취화원,37.5077716,126.8792674,중식,4,22,19
서교동,"서울특별시 구로구 우마1길 16, 1층 103호 (가리봉동)",진진,37.4826154,126.8884123,중식,3.9,106,66
마천동,"서울특별시 구로구 개봉로3길 50, 1층 (개봉동)",효동각,37.4863374,126.8535192,중식,2.3,4,2
구의동,"서울특별시 구로구 디지털로26길 111, 제이앤케이디지털타워 1층 112호 (구로동)",북경루,37.4825548,126.8970407,중식,0,1,1
대림동,서울특별시 구로구 경인로 23 (온수동),핫오리,37.489925,126.8249944,중식,0,0,0
방배동,서울특별시 광진구 자양로11길 12 (자양동),오성수타짜장 본점,37.5347761,127.0833195,중식,0,0,0
여의도동,"서울특별시 구로구 경인로47길 67, 102호 (고척동)",훠궈야여의도아이에프씨몰점,37.5018034,126.8646059,중식,3,13,164
이촌동,"서울특별시 광진구 천호대로137길 9, 지하2층 (구의동)",금홍,37.5495359,127.0927783,중식,2.4,23,22
명륜2가,"서울특별시 구로구 경인로 662, 5층 (신도림동, 디큐브시티)",희래식당 대학로점,37.5083236,126.8884274,중식,1.5,29,91
고덕동,"서울특별시 구로구 구일로10길 27 (구로동, SK허브수B동110-1,112-1,113-1호)",정가짬뽕,37.4956952,126.8719364,중식,3.4,11,4
화곡동,"서울특별시 구로구 구로동로 96, 2층 (구로동)",난차이,37.4872049,126.8852617,중식,3.6,5,9
서초동,"서울특별시 구로구 디지털로32나길 17-23, 우남산업 지하1층 (구로동)",양가식탁,37.4840596,126.8998615,중식,3,8,78
개봉동,"서울특별시 구로구 중앙로10길 21 (고척동,현대상가 7동 101호)",청양꼬치,37.5037565,126.863213,중식,5,2,7
구로동,서울특별시 구로구 구로중앙로 25 (구로동),팔계식당,37.4921918,126.8910804,중식,0,0,0
서초동,"서울특별시 구로구 경인로53길 15 (구로동,중앙유통상가 B-26-02)",교동짬뽕,37.5009708,126.8746491,중식,3.3,10,18
자양동,"서울특별시 구로구 남부순환로 775 (개봉동, 개봉푸르지오상가 105동 104호)",란주천면관,37.5007938,126.8479386,중식,5,1,7
당산동2가,서울특별시 구로구 고척로27길 51 (개봉동),양쓰부,37.5041912,126.8464345,중식,0,0,1
장안동,서울특별시 구로구 구로동로 76 (구로동),황금성,37.4855223,126.8859967,중식,1.8,5,1
여의도동,"서울특별시 구로구 경인로54길 4, A동 지층 지하1층식당9호 (구로동, 구로유통상가)",미방,37.500675,126.877525,중식,4.9,8,6
구로동,"서울특별시 구로구 새말로 19 (구로동, 정윤빌딩 4층)",마천향마라탕,37.502313,126.8829182,중식,0,0,0
대림동,"서울특별시 구로구 경인로15길 20 (오류동, 1층)",새마을,37.4952683,126.8394295,중식,0,0,0
목동,"서울특별시 구로구 개봉로15길 13, 1층 (개봉동)",친친,37.489854,126.8552774,중식,5,1,5
여의도동,"서울특별시 구로구 경인로53길 15, 중앙유통단지 지하1층 B27-02호 (구로동)",백리향싱타이,37.5009708,126.8746491,중식,3.9,53,85
동자동,"서울특별시 구로구 고척로 49, 114호 (오류동, 동부골든아파트상가)",티원,37.4993752,126.8398195,중식,3.1,45,52
영등포동6가,"서울특별시 구로구 새말로 18-49, 2층 (구로동)",마라영웅 영등포점,37.5013274,126.8833556,중식,4,3,5
길동,서울특별시 구로구 구로중앙로 4 (구로동),해성원,37.4908918,126.8929255,중식,4,1,4
신림동,"서울특별시 구로구 디지털로26길 110, 1층 103호 (구로동, 동일테크노타운1차)",짬뽕의 복수,37.482035,126.897731,중식,2.6,18,15
송파동,"서울특별시 광진구 천호대로 666, 지하1층 B103호 (구의동)",고궁,37.5513776,127.0893773,중식,4,1,2
신림동,"서울특별시 구로구 공원로 34, 지하2층 B201-33호 (구로동, 한스타워)",사랑마라탕,37.5005017,126.8916525,중식,5,2,2
흑석동,서울특별시 구로구 디지털로32나길 4 (구로동),안동장,37.4834072,126.9000811,중식,2.1,42,9
염창동,서울특별시 구로구 디지털로32길 97-5 (구로동),온정,37.4833333,126.9006404,중식,0,0,0
문래동2가,"서울특별시 구로구 구로중앙로28다길 7, 지상1층 (구로동)",통통,37.5008001,126.8888216,중식,3.3,3,27
등촌동,"서울특별시 구로구 구로동로35길 13, 1층 (구로동)",명가,37.4936276,126.8828332,중식,4.5,11,10
서교동,"서울특별시 구로구 새말로 97 (구로동,신도림테크노마트 10층 058호)",영빈,37.5070143,126.8902633,중식,4.3,7,3
서초동,서울특별시 구로구 고척로32길 11-3 (고척동),공화춘 다이닝포레스트점,37.5021279,126.8497896,중식,3,1,18
화곡동,"서울특별시 구로구 구로중앙로 219 (구로동,,1층 101,102,103)",홍린,37.505304,126.876686,중식,2.5,26,75
충무로4가,서울특별시 구로구 고척로21가길 2 (개봉동),치킨매니아 충무로역점,37.502473,126.845835,중식,4,3,2
성수동2가,"서울특별시 구로구 고척로33길 20, 1층 (고척동)",칸지고고 성수점,37.5035618,126.8488855,중식,4.1,9,6
이촌동,"서울특별시 광진구 천호대로 685, 1,2층 (구의동)",이촌반점,37.5502367,127.0912583,중식,3,2,2
잠실동,"서울특별시 구로구 경인로 318-7, 1층 (개봉동)",탄포포,37.4968933,126.8556828,중식,5,3,17
응암동,"서울특별시 구로구 가마산로27길 52, 3동 1층 103호 (구로동)",만복래반점,37.4991483,126.8908117,중식,3,9,5
방학동,"서울특별시 구로구 디지털로30길 28, 106호 (구로동, 마리오타워)",신짜장,37.4821277,126.8953134,중식,4.1,11,2
문정동,서울특별시 광진구 자양로4길 9 (자양동),오시엔,37.531527,127.0868798,중식,3.2,13,6
무교동,"서울특별시 광진구 자양로18길 15, 2층 (구의동)",북경,37.5376946,127.0843118,중식,3.6,9,11
방배동,서울특별시 구로구 경서로7길 19 (고척동),홍짜장 방배점,37.5025903,126.8581409,중식,3.4,5,3
잠실동,"서울특별시 구로구 경인로 240, 101동 1층 104호 (오류동, 예성라온팰리스)",동북양꼬치구이,37.4974382,126.8472908,중식,3.8,36,10
삼성동,"서울특별시 구로구 구로중앙로 152, NC백화점 지하1층 (구로동)",친친,37.5011324,126.8828,중식,4.5,14,9
구로동,"서울특별시 구로구 구로동로25길 5-6, 1층 103호 (구로동)",리차드궁,37.4902757,126.8835082,중식,2.6,9,5
자양동,"서울특별시 구로구 디지털로32나길 23, 3층 (구로동)",식위천식당,37.484276,126.9004928,중식,5,1,0
회기동,서울특별시 구로구 우마길 27 (가리봉동),고향반점,37.4807243,126.8890141,중식,5,4,1
망원동,"서울특별시 구로구 신도림로 7, 1층 125호 (신도림동)",엘앤에스코리아,37.5063533,126.8772301,중식,0,0,0
한강로3가,"서울특별시 구로구 가마산로27길 56, 미주프라자 1층 103호 (구로동)",이디야용산중앙점,37.4993004,126.8906899,중식,4.3,6,0
숭인동,"서울특별시 구로구 개봉로 51-1, 2층 (개봉동)",중국관,37.4902978,126.8557625,중식,0,0,0
제기동,"서울특별시 구로구 구로중앙로 152, NC백화점 6층 (구로동)",오늘은면발땡기는날,37.5011324,126.8828,중식,2.6,9,1
연희동,"서울특별시 구로구 디지털로32길 87, 1층 (구로동)",양밍산,37.4832604,126.9001203,중식,5,3,6
서초동,서울특별시 구로구 고척로21나길 65 (개봉동),마오,37.5018341,126.8422783,중식,2.5,11,13
방학동,"서울특별시 구로구 도림로 94, 1층 (구로동)",메이,37.4906815,126.8936197,중식,4.7,3,0
영등포동3가,"서울특별시 구로구 고척로 233, 2층 (고척동)",홍콩반점0410영등포역점,37.5064747,126.8588743,중식,3.1,18,21
필동2가,"서울특별시 구로구 경인로67길 23, 1층 108호 (신도림동, 신도림2차푸르지오)",연안식당 충무로역점,37.5105879,126.8894776,중식,2.7,9,25
여의도동,서울특별시 구로구 고척로 235 (고척동),더차이니스,37.5065294,126.8591053,중식,2.8,26,6
상계동,서울특별시 구로구 구로동로26길 121 (구로동),용춘,37.4900211,126.8907967,중식,0,0,10
망우동,"서울특별시 구로구 경서로 82-20, 1층 (고척동)",서원,37.5033175,126.8616325,중식,4,2,7
화곡동,"서울특별시 구로구 구로동로 6, 1층 (가리봉동)",장강,37.4822715,126.8872581,중식,4.8,5,2
고척동,서울특별시 구로구 공원로6가길 43 (구로동),하우마라,37.5032827,126.8899692,중식,0,0,1
신월동,서울특별시 구로구 경인로40길 41 (개봉동),길룡성,37.4950441,126.8590127,중식,1,3,1
화곡동,"서울특별시 구로구 서해안로30길 11, 1층 (오류동)",홍짜장까치산역점,37.4933027,126.8441221,중식,2,5,5
군자동,서울특별시 구로구 도림로 49-1 (구로동),하오츠,37.488448,126.8894879,중식,3.6,29,52
신림동,"서울특별시 구로구 디지털로31길 38-9 (구로동,에이스테크노타워 1층 101,102호)",양자강,37.4860147,126.8932921,중식,2.9,13,2
노량진동,"서울특별시 구로구 부일로9길 135-6, 1층 (온수동)",딘딘향 노량진역점,37.4973076,126.8216741,중식,5,6,3
화곡동,"서울특별시 금천구 가산디지털1로 1, 207호 (가산동, 더루벤스밸리)",진향,37.4662866,126.8871454,중식,5,2,4
도곡동,서울특별시 구로구 구로동로 103 (구로동),홀리차우 도곡점,37.4878839,126.8845326,중식,3.3,25,27
창전동,"서울특별시 구로구 오리로 1158-1, 1층 (오류동)",풍태,37.4876327,126.8384253,중식,4.9,7,2
가리봉동,서울특별시 구로구 구로중앙로 87 (구로동),왕청식당,37.4968653,126.8871956,중식,0,0,0
역삼동,"서울특별시 구로구 디지털로31길 12, 태평양물산 지하1층  B106-4호 (구로동)",지하오,37.4852224,126.8949784,중식,3.4,16,3
창신동,"서울특별시 구로구 경인로53길 15, 중앙유통단지 편익시설 D09동 지하1층 06,07호 (구로동)",쌍용반점,37.5009708,126.8746491,중식,5,3,0
연남동,서울특별시 구로구 우마길 15 (가리봉동),구가원,37.4815531,126.8883195,중식,3.7,12,3
대림동,"서울특별시 구로구 경인로 619-3, 108호 (신도림동, 신도림3차푸르지오아파트)",흠향원국수집,37.5069165,126.8840957,중식,0,0,0
화양동,"서울특별시 구로구 구로중앙로 3-1, 1층 (구로동)",외백,37.4906771,126.8924891,중식,0,0,0
대림동,"서울특별시 금천구 가산디지털1로 1, 지상1층 104 일부호 (가산동, 더루벤스밸리)",허흑오리,37.4662866,126.8871454,중식,0,0,0
목동,서울특별시 구로구 개봉로1나길 36 (개봉동),정짜장,37.4847728,126.8525375,중식,4,14,6
홍은동,"서울특별시 구로구 경인로 661 (신도림동,신도림 1차 푸르지오 144호)",수해복 마라탕,37.5095178,126.8877039,중식,2.8,4,13
방화동,서울특별시 구로구 남부순환로105길 58-5 (가리봉동),노랑통닭 개화산역점,37.4799585,126.8893649,중식,3.2,5,1
불광동,"서울특별시 광진구 천호대로127길 9, 지하1층 (중곡동)",보경원 엔 홍차이나,37.5536792,127.0894553,중식,0,0,0
시흥동,"서울특별시 구로구 도림로23길 2, 1층 (구로동)",시흥식당,37.4911348,126.8935561,중식,3.9,8,13
대신동,"서울특별시 구로구 개봉로12길 23 (개봉동,1층)",효동각,37.4882916,126.8576656,중식,3.1,34,21
행당동,서울특별시 구로구 고척로21가길 25 (개봉동),매란방,37.5018812,126.8446948,중식,3,51,111
성수동2가,서울특별시 구로구 개봉로20길 74 (개봉동),남경관,37.493295,126.8584338,중식,0,0,0
청파동3가,서울특별시 구로구 경인로40길 23 (개봉동),소천,37.4958234,126.8593259,중식,0,0,0
구로동,"서울특별시 구로구 구로동로 211, 1층 (구로동)",구로왕꼬치,37.4975064,126.8823354,중식,0,0,1
봉천동,"서울특별시 구로구 디지털로27길 94, 1층 102호 (구로동)",향도장,37.4845968,126.8890232,중식,4.2,13,6
대치동,"서울특별시 구로구 구로동로 148, 고려대부속구로병원 지하1층 15호 (구로동)",홍콩반점,37.492052,126.8848701,중식,2.4,12,5
일원동,"서울특별시 구로구 디지털로31길 120, 상가2동 1층 226,227호 (구로동, 한신휴플러스아파트)",난랑,37.4886875,126.8905999,중식,2.7,16,3
화곡동,"서울특별시 구로구 디지털로 288 (구로동, 대륭포스트타워 1 B113-1,113-2호일부)",아리랑양꼬치,37.4837318,126.8953657,중식,4.4,5,5
목동,"서울특별시 구로구 우마길 11-1 (가리봉동,(우마길 17))",왕푸징마라탕 목동점,37.4818616,126.8881019,중식,1.8,17,33
동교동,서울특별시 구로구 중앙로13길 9 (고척동),충칭호모두샤브샤브,37.505749,126.859872,중식,3,4,14
대림동,"서울특별시 구로구 고척로27길 115, 1층 (개봉동)",량쟈샤브샤브구이,37.5068392,126.8449981,중식,0,0,0
서교동,서울특별시 구로구 신도림로11다길 22 (신도림동),청운,37.5085454,126.8777458,중식,3,2,2
동교동,서울특별시 구로구 서해안로 2340-31 (오류동),경성양꼬치,37.4932745,126.8446707,중식,4.6,11,29
마곡동,"서울특별시 구로구 새말로 102, 지하1층 129호 (구로동, 신도림 포스빌)",홍성원,37.5057801,126.8914054,중식,4,8,2
시흥동,"서울특별시 구로구 구로동로 212, 1층 (구로동)",동흥관,37.4974503,126.8826892,중식,2.7,101,69
여의도동,"서울특별시 구로구 개봉로 127, 2층 (개봉동)",유성반점,37.4970302,126.8562154,중식,3.8,17,6
남창동,"서울특별시 구로구 경인로53길 15 (구로동, 중앙유통상가 B26-07)",신북경반점,37.5009708,126.8746491,중식,1.8,6,1
삼선동4가,서울특별시 구로구 개봉로17길 24 (개봉동),샤해루,37.4916928,126.8544965,중식,4.3,8,4
방배동,"서울특별시 광진구 천호대로131길 7, 2층 (구의동)",첸산,37.551669,127.0905653,중식,4,11,7
상봉동,서울특별시 구로구 고척로 177 (고척동),춘향이와흥부,37.5041945,126.8531144,중식,0,0,0
가리봉동,"서울특별시 구로구 신도림로 7 (신도림동,금강리빙스텔104호)",멕시칸호프,37.5063533,126.8772301,중식,0,0,0
신당동,"서울특별시 구로구 새말로 102, 제지층 131호 (구로동, 신도림포스빌)",춘향미엔,37.5057801,126.8914054,중식,4.4,8,22
독산동,"서울특별시 구로구 디지털로30길 31, 지하1층 103호 (구로동, 코오롱디지털타워빌란트2차)",래복식당,37.4828775,126.8964891,중식,0,0,0
정동,"서울특별시 구로구 경인로53가길 17 (구로동,지하상가 D09-05)",서안,37.5024,126.874,중식,3.3,4,3
방배동,"서울특별시 구로구 디지털로31길 90, 103호 (구로동, 삼성래미안아파트상가동)",주,37.4875908,126.8919379,중식,3.8,247,95
도화동,"서울특별시 구로구 신도림로 7 (신도림동, 금강리빙스텔 108호)",여명,37.5063533,126.8772301,중식,3.1,24,22
영등포동,"서울특별시 구로구 경인로59길 8 (신도림동,태영프라자 117호)",홍복루,37.5064034,126.8833762,중식,0,0,0
도화동,"서울특별시 구로구 연동로 233, 상가2동 1층 102호 (항동, 항동중흥에스클래스베르데카운티)",차이홍,37.481198,126.8208814,중식,3,2,2
창천동,"서울특별시 구로구 디지털로31길 81, 상가동 1층 103,104호 (구로동, 구로두산위브)",백양 양꼬치 짬뽕,37.4863569,126.8912735,중식,3,2,0
공덕동,서울특별시 구로구 새말로18길 28 (구로동),남선,37.5054605,126.892598,중식,2.3,11,2
자양동,서울특별시 구로구 고척로6길 58-4 (오류동),하이더푸 쟈오쯔전문점,37.4963556,126.8417214,중식,4,5,0
등촌동,서울특별시 구로구 부일로15길 13 (궁동),쓰부,37.4937657,126.8337875,중식,4.2,18,91
동빙고동,"서울특별시 구로구 개봉로20길 54 (개봉동, 1~2층)",차이나궁,37.4934459,126.8573711,중식,3.8,5,5
문정동,서울특별시 광진구 자양로13길 25 (자양동),왕푸징마라탕 가든파이브,37.5350049,127.0828087,중식,1.5,8,35
시흥동,서울특별시 구로구 도림로20길 14 (구로동),짬뽕명가,37.489191,126.8921915,중식,4,4,11
여의도동,서울특별시 구로구 개봉로10길 6-10 (개봉동),차이나플레인,37.4872201,126.8567306,중식,3.8,18,91
고척동,서울특별시 구로구 구로중앙로19길 25-3 (구로동),북경,37.4940168,126.8879911,중식,4.7,12,0
여의도동,"서울특별시 광진구 천호대로129길 40, 1층 101호 (구의동)",열빈,37.5533024,127.0916554,중식,3.8,30,12
답십리동,"서울특별시 구로구 공원로6나길 46, 1층 (구로동)",전설의짬뽕,37.5044978,126.8923704,중식,4,7,2
대림동,"서울특별시 구로구 경서로 79, 1층 (고척동)",대패당,37.5039456,126.8603792,중식,0,0,2
휘경동,"서울특별시 구로구 구로중앙로 152, 지하1층 (구로동)",장짬뽕,37.5011324,126.8828,중식,2,8,0
신사동,"서울특별시 구로구 구로동로22길 34, 1층 (구로동)",채운,37.4894247,126.886233,중식,0,0,0
동교동,서울특별시 구로구 시흥대로 569 (구로동),면사랑,37.4838261,126.9017746,중식,0,0,0
영등포동7가,"서울특별시 구로구 경인로47길 7, 지층 (고척동)",북만장,37.4999199,126.8670996,중식,3.7,3,3
신도림동,"서울특별시 구로구 목동남로 6, 현준프라자 1층 103,104호 (고척동)",팔진향 디큐브점,37.5067192,126.8607745,중식,0,0,12
신림동,"서울특별시 광진구 자양번영로 31, 자양동 (자양동)",마라천부,37.5324761,127.0752022,중식,0,0,0
자양동,"서울특별시 구로구 구로동로22길 5, 서편재 1층 (구로동)",허씨마라회향,37.4895975,126.8847938,중식,5,3,10
등촌동,서울특별시 구로구 새말로 81 (구로동),상해지급 강서점,37.5051449,126.888916,중식,0,0,0
상봉동,"서울특별시 광진구 자양로5길 13 (자양동,(1층))",라화쿵부 상봉점,37.5315599,127.0851642,중식,3.2,41,40
장안동,서울특별시 구로구 구로동로 211 (구로동),북경,37.4975064,126.8823354,중식,0,0,0
화곡동,서울특별시 구로구 디지털로27길 115 (가리봉동),용문각,37.4846529,126.8876836,중식,3,4,1
남영동,"서울특별시 구로구 고척로19길 13 (개봉동, 1층)",미성중국관,37.501845,126.8452133,중식,2.9,13,13
상도동,"서울특별시 구로구 경인로 662, 4층 (신도림동, 디큐브시티)",신룽푸마라탕 숭실대점,37.5083236,126.8884274,중식,4,8,22
수송동,서울특별시 구로구 경인로33길 64 (고척동),홍복성,37.5008131,126.8513185,중식,3.8,8,86
역삼동,서울특별시 구로구 부일로15가길 3 (궁동),차이들,37.4934296,126.8339818,중식,0,0,1
화곡동,"서울특별시 구로구 남부순환로 775 (개봉동, 개봉푸르지오 106동 102호)",중국관,37.5007938,126.8479386,중식,0,0,0
반포동,"서울특별시 구로구 경인로47길 107, 103호 (고척동)",왕금성,37.5034034,126.863642,중식,3.9,42,18
신정동,"서울특별시 구로구 경인로 237, 1층 101호 (개봉동, 우분투포레스트)","설악,동보성",37.4977772,126.8466828,중식,0,0,0
독산동,"서울특별시 광진구 자양로 43, 1층 1호 (자양동)",사계절흥샤브샤브,37.5317125,127.0855468,중식,0,0,2
화곡동,서울특별시 구로구 서해안로 2322 (오류동),옛날짜장,37.492708,126.8427216,중식,2.9,17,3
성내동,서울특별시 구로구 공원로6나길 44 (구로동),타짜,37.504427,126.8922374,중식,0,0,0
가산동,"서울특별시 광진구 자양로 284, 1층 (구의동)",마라일품훠궈,37.5511103,127.0918282,중식,1.9,7,28
상도동,"서울특별시 구로구 도림로 81, 지1층 (구로동)",만리장성,37.4902626,126.8921637,중식,3.7,6,7
대치동,서울특별시 구로구 구로동로18길 12 (구로동),홍운장,37.4881026,126.8852286,중식,3.1,51,11
보광동,"서울특별시 광진구 천호대로 629, 대영빌딩 1층 (중곡동)",한일각,37.5543932,127.0875705,중식,1.5,2,0
논현동,서울특별시 구로구 새말로12길 33 (구로동),차이나라,37.502023,126.8867912,중식,0,0,0
성수동1가,"서울특별시 광진구 천호대로129길 28 (구의동,(1층))",홍보석,37.5528666,127.0911894,중식,3.6,36,15
망우동,"서울특별시 구로구 경인로 208, 1층 (오류동)",동해원,37.495925,126.8442193,중식,5,1,0
풍납동,"서울특별시 구로구 고척로 90, 1층 (개봉동)",하오츠 중식당,37.5006061,126.8442407,중식,4.2,6,0
역삼동,서울특별시 구로구 구로동로5길 2 (가리봉동),노쉡참치 스시,37.4850509,126.885768,중식,4.7,23,177
묵동,"서울특별시 구로구 경인로 662, 지하2층 (신도림동, 디큐브시티)",은혜성,37.5083236,126.8884274,중식,4.7,6,4
여의도동,"서울특별시 구로구 부일로 985 (궁동,103호)",장타이펑,37.4934392,126.8369607,중식,3.8,6,2
논현동,"서울특별시 구로구 공원로6나길 43-2, 지하1층 (구로동)",불이아,37.504658,126.8921893,중식,3.7,45,38
구로동,서울특별시 구로구 구로동로 85 (구로동),구오구오,37.486314,126.8853131,중식,2.5,2,1
명일동,서울특별시 구로구 구로중앙로28다길 7 (구로동),도쿄짬뽕,37.5008001,126.8888216,중식,2.5,2,29
서초동,"서울특별시 구로구 개봉로 43, 지상1층 (개봉동)",제레미20 서초점,37.4895135,126.8559531,중식,1.6,5,8
역삼동,서울특별시 구로구 구로동로 31 (가리봉동),소윤화,37.4844414,126.8859922,중식,4.5,2,4
역삼동,"서울특별시 구로구 서해안로 2322 (오류동,1층)",라공방,37.492708,126.8427216,중식,2.6,85,312
양재동,"서울특별시 구로구 경인로47길 14, 지상2층 (고척동)",화차이,37.500236,126.8670771,중식,4.6,16,5
도봉동,"서울특별시 구로구 디지털로32나길 26, 지하1층 (구로동)",메이콴,37.4841701,126.9008989,중식,2.8,11,6
성수동2가,"서울특별시 구로구 중앙로6길 46, 3층 (고척동)",일일향,37.5001147,126.8664482,중식,3.4,18,21
대림동,서울특별시 구로구 경인로61길 7 (신도림동),오이일,37.5071962,126.8847664,중식,0,0,0
대림동,서울특별시 구로구 고척로 225 (고척동),양탕관,37.5060857,126.8579696,중식,0,0,0
서초동,"서울특별시 구로구 디지털로32나길 17-12, 2층 (구로동)",츠츠허허,37.4844457,126.8999151,중식,2.7,7,2
역삼동,서울특별시 구로구 구로동로7길 8 (구로동),본가강남점,37.4853716,126.8855466,중식,2.5,7,11
번동,서울특별시 구로구 남부순환로105라길 5 (가리봉동),락궁,37.4802626,126.8890453,중식,2.7,3,1
천호동,"서울특별시 구로구 디지털로 306, 대륭포스트타워2차 1층 112호 (구로동)",다래성,37.4859916,126.8977359,중식,3,2,1
대림동,"서울특별시 구로구 디지털로33길 55, 이앤씨벤처드림타워2차 1층 101호 (구로동)",송죽,37.4868362,126.8929796,중식,0,0,0
사근동,"서울특별시 구로구 가마산로 268, 102호 (구로동, 대림역와이즈플레이스)",대연각,37.4957168,126.8902483,중식,2.3,13,0
논현동,"서울특별시 구로구 구로동로 126-16, 가(호)동 1층 (구로동)",안방,37.4900227,126.8851165,중식,5,1,5
구로동,서울특별시 구로구 구로중앙로14길 11-3 (구로동),진달래냉면,37.4933241,126.8914457,중식,0,0,0
등촌동,"서울특별시 구로구 구로동로35길 13, 1층 (구로동)",명가,37.4936276,126.8828332,중식,4.5,11,10
신사동,"서울특별시 구로구 구로동로 15-4, 2층 (가리봉동)",동천홍,37.4832067,126.8866242,중식,3.5,26,12
구로동,서울특별시 구로구 구로동로26길 3 (구로동),미화반점,37.4906189,126.8843474,중식,0,0,0
오류동,"서울특별시 구로구 구로동로 209-1, 원빌딩 지하1층 (구로동)",오류원,37.4973212,126.8822935,중식,2.8,6,0
도곡동,"서울특별시 구로구 디지털로33길 28 (구로동,우림이비지센타  B110호)",요리왕,37.486742,126.8954755,중식,0,0,0
신월동,"서울특별시 구로구 새말로 97, 10층 062호 (구로동, 신도림테크노마트)",화룡양꼬치,37.5070143,126.8902633,중식,0,0,7
원효로3가,서울특별시 광진구 천호대로 659 (구의동),통일반점,37.5523098,127.0899427,중식,1.7,6,2
창동,서울특별시 구로구 도림로 6-10 (구로동),신상하이,37.4850227,126.8871208,중식,3.1,9,1
등촌동,서울특별시 구로구 구로동로 32 (가리봉동),진미향,37.4845029,126.8864327,중식,5,3,3
천호동,"서울특별시 구로구 구로동로20길 17, 1층 (구로동)",부흥반점,37.4889444,126.8854487,중식,1,1,0
안암동5가,서울특별시 구로구 개봉로3가길 8 (개봉동),차이니웍,37.4858744,126.8541271,중식,5,2,1
잠원동,"서울특별시 구로구 경인로35길 94-2 (고척동,1층)",이모 전주콩나물 국밥,37.5005435,126.8525187,중식,4,6,7
신대방동,"서울특별시 구로구 도림로 82 (구로동,(도림로329)지상3층)",연경,37.489938,126.8925072,중식,1.7,3,0
양재동,"서울특별시 광진구 자양로15길 72, 1층 (자양동)",홍차우,37.5351343,127.0798023,중식,3,19,5
천호동,"서울특별시 금천구 가산디지털1로 1, 더루벤스밸리 지상1층 105호 (가산동)",정가짜장,37.4662866,126.8871454,중식,0,0,0
논현동,"서울특별시 구로구 구로중앙로 152 (구로동, 지하1층 푸드코트 중앙위치)",대가방 본점,37.5011324,126.8828,중식,3.3,181,103
양평동6가,"서울특별시 광진구 자양로43길 18, 1층 (구의동)",백미향,37.5515284,127.0909003,중식,0,0,0
풍납동,"서울특별시 구로구 구로중앙로28길 59, 지하1층 (구로동)",마마양꼬치,37.5002921,126.8886051,중식,4.5,2,1
마곡동,"서울특별시 구로구 구로동로28길 87 (구로동, 103호)",동천,37.4916401,126.8887038,중식,3.4,12,70
도림동,"서울특별시 구로구 경인로20가길 68, 오류동행복주택 상가동 1층 120호 (오류동, 오류동행복주택)",희망양꼬치,37.4956902,126.8476987,중식,0,0,0
문정동,"서울특별시 구로구 고척로 152-10, 1층 (고척동)",송강,37.5026703,126.8508072,중식,2.2,6,5
도렴동,서울특별시 구로구 고척로22길 34 (개봉동),차이,37.5000219,126.8469728,중식,4.1,17,0
마곡동,"서울특별시 금천구 가산디지털1로 131, C동 지상1층 122호 (가산동, BYC하이시티)",홍콩별밤,37.4770424,126.8819679,중식,0,0,0
목동,서울특별시 구로구 경서로 77 (고척동),친친,37.5038534,126.860251,중식,5,1,5
답십리동,"서울특별시 구로구 구로동로 29, 2층 (가리봉동)",대광반점,37.4843124,126.8861632,중식,4,9,3
대림동,"서울특별시 구로구 경인로 430, 2층 (고척동, 고척스카이돔내 내야 편의시설 2)",이치뉴피바,37.4982889,126.8671719,중식,0,0,0
제기동,서울특별시 구로구 구로동로 21-1 (가리봉동),안동장,37.4835725,126.8863609,중식,5,2,1
마곡동,"서울특별시 구로구 구로중앙로 207, 오퍼스1 2층 245호 (구로동)",홍차이 발산본점,37.5045068,126.8774747,중식,4.3,3,30
상계동,서울특별시 구로구 공원로11길 4 (구로동),소림마라 노원점,37.5038233,126.8873255,중식,0,0,4
길동,서울특별시 구로구 디지털로32다길 26 (구로동),다래성,37.4818929,126.8994889,중식,0,0,0
문정동,서울특별시 금천구 가마산로 70 (가산동),고추짜장,37.4848914,126.8743179,중식,2,1,23
성수동2가,"서울특별시 구로구 개봉로1나길 6, 1층 (개봉동)",차이나플레인,37.4839175,126.8536801,중식,1.9,15,67
동자동,"서울특별시 구로구 가마산로 280, 1층 101호 (구로동, 구로2차순영웰라이빌)",차돌짬뽕,37.4960691,126.8915795,중식,3.2,15,14
신림동,"서울특별시 구로구 디지털로32나길 38 (구로동, 지하1층)",북청,37.4845467,126.9012185,중식,4.5,2,0
동교동,"서울특별시 구로구 중앙로 101, 110호 (고척동, 청솔아파트 상가110호)",니뽕내뽕홍대점,37.5062017,126.8597653,중식,3,20,34
대림동,"서울특별시 구로구 디지털로34길 55 (구로동,코오롱사이언스벨리2차 B108,B109)",야동꼬치,37.4841595,126.8994585,중식,5,2,7
마곡동,"서울특별시 구로구 구로동로 122 (구로동, 1층일부)",왕푸징,37.4894216,126.8846788,중식,0,0,0
논현동,"서울특별시 구로구 공원로6나길 43-2, 지하1층 (구로동)",불이아,37.504658,126.8921893,중식,3.7,45,38
문정동,서울특별시 구로구 개봉로3길 29 (개봉동),홍보성,37.4860915,126.854628,중식,3.5,10,10
자양동,"서울특별시 구로구 구로동로22길 5, 서편재 1층 (구로동)",허씨마라회향,37.4895975,126.8847938,중식,5,3,10
가산동,"서울특별시 구로구 구로동로 171, 3층 (구로동)",현대옥가산역점,37.4938244,126.8829272,중식,3,3,5
미아동,"서울특별시 구로구 공원로 83, 1층 (구로동)",효동반점,37.5036561,126.8875479,중식,5,1,2
미아동,"서울특별시 구로구 디지털로32나길 34 (구로동,3층)",벤투라 커피,37.4843328,126.9010503,중식,3.9,7,17
삼성동,"서울특별시 구로구 구로동로38길 9, 1층 (구로동)",티엔티엔티엔,37.4948815,126.8834045,중식,4.1,8,3
봉천동,서울특별시 구로구 디지털로19길 23 (가리봉동),우동이랑짜장이랑,37.4807226,126.8897399,중식,0,0,2
염창동,"서울특별시 구로구 디지털로27길 24, 101호 (구로동,벽산디지털밸리 지)",가야성,37.4835081,126.8930021,중식,2.3,10,0
문정동,"서울특별시 구로구 개봉로11길 7-70 (개봉동,지층)",금정,37.4867804,126.8556082,중식,3.3,9,2
상계동,"서울특별시 구로구 남부순환로105길 54, 1층 (가리봉동)",경화루,37.4797263,126.889702,중식,1.2,13,33
문정동,서울특별시 구로구 경인로47길 58 (고척동),서울 전집,37.5015897,126.8651967,중식,5,1,1
삼성동,"서울특별시 구로구 구로동로28길 93, 1층 (구로동)",복라이,37.491816,126.8890044,중식,3.3,6,6
자양동,서울특별시 구로구 남부순환로97길 26-2 (개봉동),호운래,37.4941478,126.8590366,중식,5,1,0
관수동,"서울특별시 구로구 가마산로25길 8, 호성빌딩 1층 (구로동)",서호장,37.4967355,126.8905741,중식,3.4,22,42
대림동,서울특별시 구로구 고척로27길 119 (개봉동),백궁양꼬치,37.5070695,126.8449646,중식,0,0,0
구로동,"서울특별시 구로구 신도림로11라길 8 (신도림동, 신도림동 293-118,292-230)",민기양꼬치,37.5094992,126.8787962,중식,0,0,0
방이동,"서울특별시 광진구 자양로18길 39, 지하1층 (구의동)",바다풍경,37.5380185,127.0857674,중식,2.3,3,14
한강로1가,서울특별시 구로구 개봉로11길 38-40 (개봉동),주사부,37.4897692,126.8539429,중식,1.9,37,54
동교동,"서울특별시 구로구 오리로10길 20, 1층 (오류동, 제1호)",취홍,37.4886115,126.8379674,중식,4.4,10,25
체부동,서울특별시 구로구 고척로10길 65 (오류동),도성,37.4964485,126.8421805,중식,4.7,3,10
서교동,"서울특별시 구로구 중앙로10길 16, 1층 105호 (고척동)",존앤슨피자펍,37.5035405,126.8631481,중식,4.7,3,5
목동,서울특별시 구로구 개봉로20길 84 (개봉동),신흥반점,37.4932327,126.8589383,중식,0,0,0
양재동,서울특별시 구로구 개봉로11길 7-42 (개봉동),최고집손짬뽕,37.4871139,126.8555788,중식,2.1,21,14
진관동,"서울특별시 광진구 자양번영로3길 7, 1층 (자양동)",신진관성,37.5316455,127.0746,중식,2.3,7,0
개봉동,"서울특별시 광진구 자양로53길 50, 1층 (중곡동)",홍중샤브부페,37.5553222,127.0917989,중식,4,4,13
대치동,"서울특별시 구로구 디지털로30길 31, 코오롱디지털타워빌란트Ⅱ 101호 (구로동)",취화헌,37.4828775,126.8964891,중식,2.3,7,6
회현동3가,"서울특별시 구로구 개봉로 21-1, 1층 (개봉동)",조아루,37.4876663,126.8560428,중식,3,1,1
진관동,"서울특별시 구로구 디지털로33길 12 (구로동,우림이비지쎈타 107호)",만리향샤브샤브,37.4865757,126.8961598,중식,4.8,12,22
공릉동,"서울특별시 구로구 구로동로26길 9, 1층 (구로동)",남선반점,37.4905368,126.8847524,중식,3.3,3,2
용두동,서울특별시 광진구 자양로 265 (구의동),김여사짜장앤짬뽕,37.5499175,127.0903601,중식,1,2,0
봉천동,"서울특별시 구로구 디지털로 300 (구로동, 지밸리비즈플라자 지하1층 103호)",소문장,37.4850307,126.8966116,중식,4.1,9,3
가산동,"서울특별시 구로구 공원로6나길 35-1, 지상1층 (구로동)",문씨양꼬치,37.5043504,126.8915881,중식,0,0,4
가산동,"서울특별시 구로구 구로중앙로 43, 1층 1,2,3호 (구로동)",대성,37.493595,126.8898707,중식,5,1,5
독산동,"서울특별시 구로구 구로동로 167, B101호 (구로동, 조일뉴타워)",메콩쌀국수,37.4935759,126.8830308,중식,5,2,3
휘경동,"서울특별시 구로구 구로중앙로 152, 지하1층 (구로동)",장짬뽕,37.5011324,126.8828,중식,2,8,0
회기동,"서울특별시 구로구 구로동로 148 (구로동, 고려대학교구로병원내 편의시설 지하1층  13호)",당식당,37.492052,126.8848701,중식,2.6,5,29
신림동,"서울특별시 구로구 디지털로 273, 에이스트윈타워2차 지하1층 B104,B105호 (구로동)",용궁,37.4839906,126.8941311,중식,3,2,0
신내동,"서울특별시 구로구 경서로 11, 지상1층 104,105,107호 (개봉동)",린,37.4985837,126.8564769,중식,5,2,1
종암동,"서울특별시 광진구 자양로18길 48 (구의동,1층)",화원정,37.5379643,127.0862166,중식,4.3,3,0
명동2가,"서울특별시 구로구 경인로 403, A동 105호 (고척동, 원메디타운)",이선생미국가주우육면대왕,37.497976,126.8643784,중식,2.7,3,60
신당동,"서울특별시 광진구 자양번영로6길 67, 1층 (자양동)",만다리,37.5315901,127.0792323,중식,2.6,20,17
청량리동,서울특별시 구로구 구로동로 6 (가리봉동),중국관,37.4822715,126.8872581,중식,4,4,2
이태원동,서울특별시 광진구 자양로18길 14 (구의동),북경반점,37.5374909,127.084302,중식,4,5,3
무교동,서울특별시 광진구 자양로 277-10 (구의동),피슈마라홍탕,37.5509811,127.0908787,중식,4.3,13,38
대림동,"서울특별시 광진구 자양로30길 56, 1층 (구의동)",해성반점,37.5430867,127.0879352,중식,3,3,1
종암동,"서울특별시 구로구 경인로53길 15, 중앙유통단지 지하1층 C-12-02,03,04호 (구로동)",멘보샤 종암2호점,37.5009708,126.8746491,중식,4.8,4,9
공릉동,서울특별시 구로구 구로동로28길 9 (구로동),용문각,37.4908811,126.8846819,중식,5,1,3
보문동7가,서울특별시 구로구 경인로47다길 3 (고척동),이용짬뽕전문가,37.5036484,126.8639161,중식,3.4,8,0
공항동,"서울특별시 구로구 구로동로 86, 101호 (구로동)",복성루,37.4863909,126.8856499,중식,5,1,0
화곡동,서울특별시 구로구 도림로14길 10 (구로동),중국관,37.487311,126.8891375,중식,0,0,0
월계동,"서울특별시 구로구 구로중앙로 217 (구로동,105호)",마오중식,37.5049627,126.8766224,중식,0,0,0
신정동,"서울특별시 구로구 경인로47길 113, 1층 106호 (고척동)",가원,37.5036324,126.8635074,중식,2.9,17,5
응암동,"서울특별시 광진구 자양로18길 95, 1층 (구의동)",태화루,37.5387822,127.0887394,중식,0,0,0
신내동,서울특별시 구로구 고척로27길 58 (개봉동),왕짜장,37.5044701,126.8464897,중식,4.1,7,7
서초동,"서울특별시 구로구 디지털로34길 27 (구로동, 대륭포스트타워3차 114호)",샤오짠 서초점,37.4852945,126.8982362,중식,4.3,6,11
역삼동,"서울특별시 구로구 구로동로22길 21, 1층 (구로동)",연화산,37.4895598,126.8856194,중식,4.1,7,3
중계동,"서울특별시 구로구 공원로 27 (구로동,대림역대성스카이렉스 103호)",메이향,37.4993972,126.891009,중식,2.1,8,4
성내동,서울특별시 구로구 공원로6나길 44 (구로동),타짜,37.504427,126.8922374,중식,0,0,0
논현동,서울특별시 구로구 구로동로 203 (구로동),뽕사부,37.4967229,126.8822692,중식,3.2,14,72
신정동,"서울특별시 광진구 자양로18길 91 (구의동,(1층))",상하이쿵,37.5387897,127.0885578,중식,3.7,6,2
잠실동,"서울특별시 구로구 고척로33길 4, 1층 (고척동)",마라공방 잠실새내점,37.5028847,126.8492244,중식,1.8,4,66
금호동2가,서울특별시 구로구 가마산로 138 (구로동),홍짜장,37.4882364,126.8807129,중식,1.3,8,3
용두동,"서울특별시 구로구 구로동로20길 13, 지상1층 (구로동)",옛날짜장,37.4889385,126.8852491,중식,4,1,1
독산동,"서울특별시 구로구 새말로 97 (구로동,신도림테크노마트 지하1층 S006호)",30마라탕,37.5070143,126.8902633,중식,5,2,1
성수동2가,"서울특별시 구로구 고척로 238 (고척동,1층 2호)",송가,37.5061969,126.8593896,중식,0,0,5
신사동,서울특별시 광진구 자양로45길 39 (중곡동),따청푸드,37.5528198,127.0907928,중식,0,0,0
반포동,"서울특별시 구로구 경인로 430, 3층 3-28호 (고척동, 고척스카이돔내)",FOOD DOES MATTER,37.4982889,126.8671719,중식,4.5,44,67
용두동,"서울특별시 구로구 구로동로 27, 지층 (가리봉동)",중국성,37.484065,126.886262,중식,2.8,4,3
풍납동,"서울특별시 구로구 개봉로 50, 2층 (개봉동)",천궁,37.4901307,126.8563282,중식,3.5,9,1
공덕동,"서울특별시 구로구 공원로6나길 12, 2층 (구로동)",청명,37.5036498,126.8907861,중식,5,5,3
삼선동5가,서울특별시 구로구 가마산로 229 (구로동),중화명가,37.494271,126.8863685,중식,2.7,7,2
중계동,서울특별시 구로구 구로동로28길 98 (구로동),도쿄짬뽕 중계점,37.4917263,126.8892642,중식,2.7,6,1
동선동2가,"서울특별시 구로구 경인로53길 15, D03동 지1층 01호 (구로동, 판매시설동)",꼬치인,37.5009708,126.8746491,중식,2.3,4,5
자양동,서울특별시 구로구 디지털로19길 29 (가리봉동),매운향솥,37.4809889,126.8896304,중식,3.9,67,363
동선동1가,서울특별시 구로구 경인로 619-54 (신도림동),카레경반,37.5071733,126.8842712,중식,5,3,32
신길동,"서울특별시 광진구 자양로18길 81, 1층 (구의동)",중국관,37.5386023,127.0880546,중식,2,2,0
시흥동,"서울특별시 구로구 디지털로 300, 1층 11호 (구로동, 지밸리비즈프라자)",양자강,37.4850307,126.8966116,중식,1.8,4,1
신정동,"서울특별시 구로구 개봉로3길 19-1, 1층 (개봉동)",아방궁,37.4862495,126.8552011,중식,2.4,5,14
방배동,서울특별시 구로구 경인로 170 (오류동),연희중식,37.4942915,126.8404028,중식,5,2,1
상수동,"서울특별시 구로구 중앙로 32, 2층층 (고척동)",명성관,37.5007704,126.8638719,중식,3.8,34,55
역촌동,"서울특별시 광진구 자양로13길 60, 1층 (자양동)",서향원,37.5340076,127.0813215,중식,4.3,13,1
대치동,"서울특별시 구로구 고척로6길 22, 지하1층 (오류동)",이비가짬뽕 대치본점,37.497178,126.8402356,중식,3.2,9,53
봉천동,"서울특별시 구로구 디지털로27길 52, 지하1층 (구로동)",외래향,37.4839725,126.8912915,중식,3.3,169,86
답십리동,서울특별시 구로구 구로동로7길 100 (가리봉동),성운각,37.4860129,126.8812019,중식,0,0,0
영등포동4가,"서울특별시 구로구 고척로52길 81, 1층 (고척동)",차이린영등포타임스퀘어점,37.5014648,126.8560191,중식,3.7,10,17
대림동,서울특별시 구로구 경서로 53-1 (고척동),조개구이.찜,37.5019147,126.8588734,중식,0,0,0
동소문동1가,"서울특별시 광진구 자양로19길 42, 1층 (자양동)",짜앤짬,37.5383155,127.0810904,중식,4,1,1
대림동,"서울특별시 구로구 개봉로23가길 76, 한마음프라자 1층 105호 (개봉동)",라화쿵부마라탕,37.4946999,126.8602741,중식,2.7,19,118
오금동,서울특별시 구로구 경인로47길 30 (고척동),기린 차이나,37.5007681,126.8664304,중식,2.9,14,15
응암동,"서울특별시 구로구 공원로 27, 104호 (구로동, 대성스카이렉스 )",교동짬뽕,37.4993972,126.891009,중식,3.7,19,12
대림동,서울특별시 구로구 경인로35길 103-1 (고척동),린궁즈멘관,37.5009516,126.8521982,중식,4.1,12,14
여의도동,"서울특별시 광진구 자양로18길 56 (구의동,1층)",홍콩,37.5379776,127.0866659,중식,1.8,5,10
대림동,서울특별시 구로구 경인로33길 2 (개봉동),송화강미식,37.4981425,126.852461,중식,0,0,0
역삼동,서울특별시 구로구 구로중앙로34길 33-46 (구로동),박사부's 역삼점,37.5013328,126.8837276,중식,0,0,57
삼성동,"서울특별시 구로구 디지털로33길 48, 203호 (구로동, 대륭포스트타워7차)",딤딤섬 파르나스몰점,37.4872609,126.8945149,중식,3.4,20,134
상계동,"서울특별시 구로구 구로동로 24-1, 1층 (가리봉동)",짜장과우동,37.4839634,126.8867356,중식,3.3,4,0
봉천동,"서울특별시 구로구 고척로52나길 62, 1층 103호 (고척동)",미래식부,37.5055903,126.8593691,중식,5,1,1
사당동,서울특별시 구로구 구로동로25길 11 (구로동),육촌,37.4904709,126.8833089,중식,3.3,17,27
개봉동,"서울특별시 구로구 우마길 15 (가리봉동,,79)",왕짬뽕,37.4815531,126.8883195,중식,3.8,6,1
이촌동,"서울특별시 광진구 천호대로 521, 호텔 더디자이너스 건대 1층 (중곡동)",한강춘,37.5586656,127.0765944,중식,1.3,3,1
성수동2가,"서울특별시 광진구 자양로18길 7-1, 1층 (구의동)",WeiHAi,37.5377525,127.0838352,중식,3.9,25,42
상암동,서울특별시 구로구 시흥대로 571 (구로동),서룡,37.4839945,126.9018264,중식,3.9,103,49
전농동,서울특별시 구로구 구로중앙로22길 39-22 (구로동),짬투더뽕,37.4968803,126.8886115,중식,0,0,0
여의도동,"서울특별시 구로구 고척로 133 (개봉동,지상2층)",호우양꼬치,37.5025014,126.8485745,중식,3.8,8,2
신사동,"서울특별시 구로구 구로동로 174-9, 1층 (구로동)",다케야,37.4945485,126.8835181,중식,0,0,0
통의동,"서울특별시 광진구 천호대로112길 17 (능동,1층)",여수한두레,37.5553449,127.0814043,중식,3.9,29,3
화곡동,"서울특별시 구로구 구로중앙로 229 (구로동,월드상가 1층 13호, 14호)",교동짬뽕 강서구청점,37.5056791,126.8757743,중식,3.3,12,7
상도동,"서울특별시 구로구 디지털로 272, 지층 B102-3호 (구로동, 한신아이티타워)",황궁쟁반짜장,37.4824913,126.8944086,중식,2.7,11,2
이문동,"서울특별시 구로구 경인로 430, 2층 2-18호 (고척동, 고척스카이돔내)",촨커,37.4982889,126.8671719,중식,4.2,28,55
숭인동,서울특별시 구로구 경인로43길 74 (고척동),동묘 양갈비&양꼬치,37.4991777,126.8598476,중식,5,1,3
대현동,"서울특별시 구로구 디지털로33길 55, 이앤씨벤처드림타워2차 지하1층 B101호 (구로동)",의원상,37.4868362,126.8929796,중식,4,4,4
양재동,"서울특별시 구로구 가마산로 286, SR친오애 주상복합 아파트 1동 1층 103호 (구로동)",다래성,37.4966207,126.8921743,중식,3.7,6,1
봉천동,"서울특별시 구로구 도림천로 448, 201동 1층 102호 (구로동, 예성유토피아)",푸드센터 봉천점,37.4856198,126.8990539,중식,0,0,0
천호동,서울특별시 구로구 디지털로32길 97-27 (구로동),선사짬뽕,37.4837477,126.9010254,중식,0,0,0
방배동,서울특별시 구로구 개봉로 52-1 (개봉동),일일향 방배점,37.4903318,126.856449,중식,4,7,42
중곡동,"서울특별시 구로구 구일로4길 66, 103호 (구로동)",애래향,37.493692,126.876332,중식,5,5,1
오류동,"서울특별시 구로구 서해안로 2295, 1층 1호 (오류동, 익준빌딩)",셰셰,37.4917032,126.8401437,중식,5,1,0
방화동,서울특별시 구로구 시흥대로 557 (구로동),중화루,37.4829989,126.9010632,중식,2,1,1
서초동,"서울특별시 구로구 경인로47다길 8, 1층 101호 (고척동)",최고야 해물짬뽕,37.5034458,126.8642254,중식,0,0,0
개봉동,서울특별시 구로구 신도림로11길 9 (신도림동),인화각,37.5083597,126.8797708,중식,3.5,2,0
성산동,서울특별시 구로구 시흥대로 577-11 (구로동),천년각,37.4845008,126.9018837,중식,2,29,14
상봉동,서울특별시 구로구 개봉로 9 (개봉동),중국집,37.4865468,126.8561874,중식,3.4,7,7
신천동,"서울특별시 구로구 경서로 55, 지하1층 B1-나호 (고척동)",락앤웍,37.502005,126.858913,중식,5,1,30
신천동,서울특별시 구로구 고척로 153 (고척동),시그니엘클럽,37.50333,126.850769,중식,5,1,2
산천동,서울특별시 구로구 경인로35길 48 (개봉동),엄지,37.4990799,126.8538865,중식,0,0,1
송파동,"서울특별시 광진구 자양로18길 39, 1층 (구의동)",서울 중국집,37.5380185,127.0857674,중식,1,1,24
쌍문동,서울특별시 구로구 디지털로 223 (가리봉동),산동성,37.4803051,126.8907262,중식,3,2,5
화양동,"서울특별시 구로구 구로동로15길 5, 1층 (구로동)",권씨양꼬치,37.4877635,126.8844707,중식,0,0,6
청담동,"서울특별시 구로구 구로동로28길 64-8, 1층 105호 (구로동)",세광양대창 청담점,37.4906,126.8877302,중식,5,3,45
장위동,"서울특별시 구로구 개봉로 72 (개봉동,(개봉로57)지상1층)",세동반점,37.4920357,126.8563223,중식,2.3,3,2
중림동,"서울특별시 구로구 경인로61길 21, 지상1층 107호 (신도림동, 신도림크라운빌상가)",적사부,37.5077899,126.8840609,중식,3.5,4,2
하월곡동,"서울특별시 구로구 새말로 102, 1층 117호 (구로동, 신도림포스빌)",THE+짬뽕,37.5057801,126.8914054,중식,4,4,12
증산동,서울특별시 구로구 개봉로23가길 86 (개봉동),다리원,37.4945317,126.860596,중식,3.9,28,12
대방동,서울특별시 구로구 디지털로27길 52 (구로동),태원,37.4839725,126.8912915,중식,3.9,15,5
구로동,서울특별시 구로구 오류로 64 (오류동),다연호프,37.4903201,126.8407557,중식,0,0,0
노량진동,"서울특별시 구로구 디지털로27길 83-3, 2층 (가리봉동)",취복루,37.4841561,126.889314,중식,4.2,5,17
시흥동,"서울특별시 구로구 디지털로 288, 지하1층 B117-1호 (구로동, 대륭포스트타워1차)",만리장성,37.4837318,126.8953657,중식,2,5,0
봉천동,"서울특별시 구로구 도림천로 448, 예성유토피아 201동 지하1층 (구로동)",하울링데이즈,37.4856198,126.8990539,중식,2.7,11,69
정릉동,"서울특별시 구로구 개봉로23가길 10, 103호 (개봉동, 한양아이클래스 구로)",양산박,37.4954631,126.8569309,중식,2,4,0
역촌동,"서울특별시 광진구 천호대로124길 24, 1층 (능동)",장가구,37.5523475,127.0878771,중식,4.4,5,14
자양동,"서울특별시 구로구 도림로 24 (구로동,지상1층 101호)",청두인상,37.4864544,126.887871,중식,3.7,3,80
등촌동,"서울특별시 구로구 구로동로 222, 1층 (구로동)",중화가정 강서,37.4983192,126.8827453,중식,2.7,3,9
방배동,"서울특별시 광진구 자양번영로3길 38, 1층 (자양동)",공리특허짬뽕,37.5322095,127.0732061,중식,5,1,9
구로동,"서울특별시 구로구 신도림로 105, 지층 6호 (신도림동, 우성상가)",명가교동,37.5124613,126.8854894,중식,3.8,10,15
방배동,"서울특별시 구로구 경인로31길 68, 1층 (개봉동)",향원,37.500222,126.849172,중식,4.5,4,2
구의동,"서울특별시 광진구 자양번영로 42 (자양동,,10)",진향,37.5333151,127.0759583,중식,0,0,0
장안동,서울특별시 구로구 구로동로 119-2 (구로동),천리향,37.4893019,126.8841599,중식,1,1,4
대림동,서울특별시 구로구 경인로47길 31 (고척동),고향소탕집,37.5006072,126.8661148,중식,0,0,0
개봉동,"서울특별시 광진구 자양로53길 50, 1층 (중곡동)",홍중샤브부페,37.5553222,127.0917989,중식,4,4,13
신당동,서울특별시 구로구 고척로 208 (고척동),현대식당,37.5051114,126.8563402,중식,0,0,0
성수동2가,"서울특별시 광진구 자양로13나길 32, 1층 (자양동)",유향소,37.5344123,127.0796757,중식,2,7,1
자양동,"서울특별시 구로구 디지털로 288, 지하1층 B116-1호 (구로동)",작은양꼬치,37.4837318,126.8953657,중식,5,1,3
신길동,"서울특별시 구로구 새말로 97, FC029호 (구로동, 신도림테크노마트)",표니중식포차,37.5070143,126.8902633,중식,0,0,0
신림동,"서울특별시 구로구 도림로 107 (구로동, 럭키아파트상가 301호)",윤셰프,37.4923256,126.8944123,중식,3.8,10,3
사당동,서울특별시 구로구 도림로 44-4 (구로동),자금성,37.487846,126.8892184,중식,3.5,17,3
신림동,"서울특별시 구로구 디지털로34길 43, B101호 (구로동, 코오롱사이언스벨리1차)",타오짬뽕,37.4851514,126.8988405,중식,0,0,0
대림동,"서울특별시 광진구 자양로 206-1, 1층 (구의동)",안동장,37.5456404,127.0861757,중식,2.3,6,0
석촌동,"서울특별시 구로구 개봉로3길 46 (개봉동,(개웅길 34) 1층)",동성양꼬치,37.4863482,126.8536908,중식,5,2,6
신도림동,"서울특별시 구로구 구로중앙로18길 44, 1층 (구로동)",창라이,37.4956363,126.8916489,중식,1,1,0
신길동,"서울특별시 구로구 경인로53길 15, 지하층 E01호 (구로동, 중앙유통단지 상가 )",동해루,37.5009708,126.8746491,중식,5,1,2
방배동,서울특별시 광진구 자양번영로 12 (자양동),명품훠궈 샤브샤브,37.5306451,127.0752015,중식,4.4,7,34
자양동,서울특별시 구로구 구로동로25길 26 (구로동),샤오롱바오,37.4907107,126.8824698,중식,4.9,12,16
여의도동,"서울특별시 광진구 자양번영로 45, 1층 101호 (자양동)",종로계림닭도리탕원조여의도점,37.5337203,127.0756365,중식,3,1,23
대치동,서울특별시 구로구 구로동로28길 10 (구로동),하이보,37.4907054,126.8845886,중식,2.7,24,34
도봉동,"서울특별시 구로구 디지털로32나길 26, 지하1층 (구로동)",메이콴,37.4841701,126.9008989,중식,2.8,11,6
신림동,"서울특별시 구로구 디지털로33길 11, 103호 (구로동, 에이스테크노타워8차)",성빈각,37.4856729,126.8954779,중식,4,4,0
일원동,서울특별시 구로구 새말로4길 18-4 (구로동),삼성웰스토리,37.5016508,126.8834455,중식,0,0,0
대조동,서울특별시 광진구 천호대로111길 10 (중곡동),개풍반점,37.5567902,127.0822775,중식,3.1,14,15
가산동,"서울특별시 구로구 디지털로 300, 209호 (구로동, 지밸리비즈플라자)",일품향,37.4850307,126.8966116,중식,0,0,0
구로동,"서울특별시 구로구 구로동로15길 11, 1층 101호 (구로동)",홍매,37.4877403,126.884098,중식,5,3,9
공덕동,서울특별시 구로구 오류로8길 87 (오류동),용가,37.4931818,126.8448383,중식,3.2,34,7
대림동,서울특별시 구로구 경인로47길 30 (고척동),대박실내포차,37.5007681,126.8664304,중식,0,0,0
반포동,서울특별시 구로구 경인로47길 26 (고척동),차이나웨이,37.5006501,126.8666191,중식,1.3,3,1
중계동,"서울특별시 구로구 서부샛길 822, 지상2층 (구로동)",짜장1번지,37.4885122,126.8731438,중식,4.8,4,0
수유동,"서울특별시 구로구 구로동로 179, 1층 (구로동)",신짬뽕,37.4944099,126.8825703,중식,3.5,2,1
천호동,서울특별시 구로구 새말로4길 18 (구로동),북경반점,37.5016128,126.8835361,중식,0,0,0
개포동,"서울특별시 구로구 구로동로25길 26 (구로동, 1층)",만리장성,37.4907107,126.8824698,중식,3.4,7,2
석촌동,"서울특별시 구로구 구일로10길 27, A동 1층 129호 (구로동,  SK허브수)",소림마라 송파점,37.4956952,126.8719364,중식,5,1,1
응암동,"서울특별시 광진구 천호대로112길 13 (능동,(1층))",중화각,37.5554331,127.081511,중식,5,1,0
신내동,"서울특별시 구로구 경서로 11, 지상1층 104,105,107호 (개봉동)",린,37.4985837,126.8564769,중식,5,2,1
망원동,"서울특별시 구로구 구로중앙로28길 35-25, 1층 (구로동)",이,37.5005614,126.8868176,중식,5,2,10
신당동,"서울특별시 구로구 가마산로 282 (구로동,대림오피스벨리 1층 2호)",유락반점,37.4964284,126.891644,중식,2.6,8,9
상일동,서울특별시 구로구 도림로 51 (구로동),화통 소금구이,37.488556,126.8896096,중식,0,0,3
가리봉동,서울특별시 구로구 신도림로11라길 35 (신도림동),월래순교자관,37.5107491,126.8795478,중식,3.7,65,293
방이동,"서울특별시 구로구 가마산로22길 27, 삼성드림빌 지하1층 B01호 (구로동, 삼성드림빌)",북경원,37.4932357,126.887989,중식,4,4,1
가락동,서울특별시 구로구 고척로33길 21 (고척동),미성 양꼬치 앤 훠궈,37.5035137,126.8487003,중식,0,0,1
상도동,서울특별시 구로구 도림로 82 (구로동),다래원,37.489938,126.8925072,중식,1.6,9,54
성내동,"서울특별시 구로구 디지털로31길 41, 2층 201호 (구로동, 이앤씨벤처드림타워6차)",알촌 올림픽공원점,37.4851724,126.8927217,중식,5,2,4
공항동,"서울특별시 구로구 새말로 97, 지하1층 FC031호 (구로동, 신도림테크노마트)",중화식탁,37.5070143,126.8902633,중식,5,1,2
홍은동,"서울특별시 구로구 디지털로34길 55, 코오롱싸이언스밸리2차 지하1층 103,140호 (구로동)",홍은양꼬치,37.4841595,126.8994585,중식,3.5,11,3
암사동,서울특별시 구로구 구로동로42길 60 (구로동),담백,37.4983009,126.8841994,중식,5,1,1
영등포동4가,"서울특별시 구로구 공원로 3, 선경오피스텔 지층 003호 (구로동)",지로우라멘,37.4976985,126.8922636,중식,2.9,17,65
신림동,"서울특별시 구로구 디지털로33길 12, 1층 106호 (구로동, 우림이비지센터2차)",짜장마을,37.4865757,126.8961598,중식,2.6,5,3
회현동1가,서울특별시 구로구 가마산로 225 (구로동),유가,37.494113,126.8860425,중식,3.7,25,61
삼성동,"서울특별시 구로구 구로동로 9, 지상1층 (가리봉동)",일공중식,37.4827263,126.8869659,중식,4,4,2
화곡동,"서울특별시 구로구 남부순환로105가길 7, 1층일부 (가리봉동)",진성관,37.4794486,126.8922152,중식,2.9,17,3
여의도동,"서울특별시 광진구 자양로 278, 1층 103호 (구의동)",금화쿵푸,37.5506258,127.0914575,중식,3.7,10,3
역촌동,서울특별시 구로구 가마산로 148-1 (구로동),난징,37.4891718,126.8811085,중식,4.3,9,1
구로동,"서울특별시 구로구 공원로 40, 106-3호 (구로동, 신도림쌍용플래티넘노불상가)",라로쫭,37.5009591,126.8912982,중식,4.5,2,19
신림동,"서울특별시 구로구 디지털로27길 75 (가리봉동, 지상1층)",낙원양꼬치,37.4840882,126.8898008,중식,4.5,17,42
합정동,"서울특별시 구로구 신도림로 87 (신도림동,신도림동아1차아파트상가 106호)",연희중식,37.5111182,126.8827567,중식,4.1,22,61
구로동,"서울특별시 구로구 디지털로34길 43, 코오롱싸이언스밸리1차 1층 106호 (구로동)",일상중식,37.4851514,126.8988405,중식,0,0,0
구의동,서울특별시 구로구 디지털로32다길 15 (구로동),연경양꼬치,37.482119,126.8999715,중식,3,1,9
봉천동,"서울특별시 구로구 디지털로26길 111, 지하009호 (구로동, 제이앤케이디지털타워)",만리향,37.4825548,126.8970407,중식,0,0,0
화양동,"서울특별시 금천구 가산디지털1로 142, 가산 더스카이밸리 1차 지상2층 228,229호 (가산동)",미식반점,37.4784047,126.8833586,중식,0,0,1
평창동,"서울특별시 광진구 천호대로 573, 1층 (중곡동)",락궁,37.5565891,127.0818633,중식,2.7,9,1
시흥동,서울특별시 광진구 자양번영로 16 (자양동),라쿵푸마라탕,37.5310141,127.0752648,중식,1.5,4,7
신림동,"서울특별시 구로구 디지털로32나길 22, 2층 (구로동)",청운장,37.4840106,126.9007086,중식,5,1,2
신사동,"서울특별시 광진구 자양로 73, 지층 (자양동)",신룽푸마라탕 가로수길점,37.5343489,127.084127,중식,1.3,3,17
잠원동,서울특별시 구로구 개봉로24길 3 (개봉동),공리,37.4966876,126.8567258,중식,3,24,175
답십리동,"서울특별시 구로구 구로중앙로31길 34, 지상2층 (구로동)",소림마라 동대문점,37.4986931,126.8849429,중식,5,3,4
봉천동,"서울특별시 구로구 디지털로 300 (구로동, 지밸리비즈플라자 지하1층 103호)",소문장,37.4850307,126.8966116,중식,4.1,9,3
망원동,서울특별시 구로구 서해안로 2340-11 (오류동),하오하오,37.4934609,126.8446818,중식,5,2,3
신사동,서울특별시 구로구 중앙로6길 42 (고척동),니하오,37.5001725,126.8660874,중식,0,0,0
봉천동,"서울특별시 구로구 디지털로27가길 5-1, 1층 101호 (구로동)",칭다오,37.4840286,126.8920518,중식,5,1,2
홍은동,서울특별시 구로구 가마산로 260 (구로동),만리장성,37.49526,126.8896686,중식,3,3,0
대림동,"서울특별시 구로구 경인로35길 113-5, 1층 102호 (고척동)",대초원샤브샤브,37.5013428,126.8518546,중식,0,0,1
길동,서울특별시 구로구 구로중앙로 6 (구로동),메이탄길동점,37.4911045,126.8927794,중식,3.8,19,89
목동,"서울특별시 구로구 새말로 18, 백봉빌딩 1층 (구로동)",일품사천불짬뽕,37.5019944,126.8831468,중식,4.2,6,9
명동2가,"서울특별시 광진구 자양로 55, 1동 107호 (자양동, 자양아파트)",마루벤벤,37.5329392,127.0853686,중식,3.4,5,67
중계동,"서울특별시 구로구 디지털로27라길 5, 1층 (구로동)",전원반점,37.4850165,126.8881648,중식,1,2,0
면목동,"서울특별시 구로구 고척로27길 126, 1층 105호 (개봉동, 동양빌딩)",왕짜장,37.5075385,126.8452476,중식,3.4,7,1
역촌동,서울특별시 광진구 자양로18길 49 (구의동),중국집,37.5381506,127.0862191,중식,4.3,13,1
여의도동,"서울특별시 구로구 경인로35길 12 (개봉동,, 지상1층)",용용이,37.4979682,126.8553075,중식,3,2,24
연건동,서울특별시 구로구 경서로 9 (개봉동),자금성,37.4983839,126.8565301,중식,0,0,0
상계동,서울특별시 구로구 구로중앙로 82-1 (구로동),중화명가,37.4966979,126.8879285,중식,1.5,12,2
구로동,"서울특별시 구로구 구로중앙로 217, 형제빌딩 207호 (구로동)",낭만해물,37.5049627,126.8766224,중식,0,0,24
회기동,"서울특별시 구로구 디지털로31길 12, 지하1층 B106-1호 (구로동)",탕화쿵푸마라탕,37.4852224,126.8949784,중식,3.8,4,15
화양동,"서울특별시 구로구 디지털로27길 116, 102호 (구로동)",홍콩,37.4848966,126.8879775,중식,3.4,13,106
방배동,"서울특별시 구로구 공원로 34, 지하2층 B201-27호 (구로동, 한스타워)",월량,37.5005017,126.8916525,중식,3.8,16,30
아현동,"서울특별시 구로구 우마길 19, 2층 (가리봉동)",영빈,37.4812662,126.8885347,중식,3.3,3,0
명륜1가,"서울특별시 광진구 자양로15길 98, 1층 (자양동)",화경루,37.5347631,127.0783187,중식,4,2,1
보문동5가,"서울특별시 구로구 고척로 162, 2층 (고척동)",신진원,37.503289,126.8515169,중식,4,6,12
봉천동,"서울특별시 구로구 디지털로26길 5 (구로동, 에이스하이엔드타워 B106)",흑룡강,37.4816106,126.8934794,중식,3,31,9
상봉동,"서울특별시 금천구 가산디지털1로 119, SK트윈테크타워 B동 지상1층 101호 (가산동)",춘리,37.4757709,126.8829708,중식,1,1,2
염창동,"서울특별시 구로구 구로동로 111-1, 2층 (구로동)",JK블라썸호텔,37.4885957,126.8843343,중식,3.4,18,150
여의도동,"서울특별시 구로구 경인로 662, 6층 (신도림동, 디큐브시티타워)",피슈마라홍탕,37.5083236,126.8884274,중식,4.5,10,56
신사동,"서울특별시 구로구 구로중앙로 152, NC백화점 지하1층 (구로동)",천미미,37.5011324,126.8828,중식,3.8,36,91
신천동,"서울특별시 구로구 경인로35길 49, 1층 105호 (개봉동)",북경,37.4989925,126.8536957,중식,1,2,4
마장동,"서울특별시 광진구 자양로19길 40, 1층 (자양동)",양자강,37.5384073,127.0811655,중식,0,0,1
동자동,"서울특별시 구로구 개봉로 53, 1층 (개봉동)",홍콩중국요리,37.4903971,126.8557604,중식,0,0,0
창신동,서울특별시 구로구 경인로35길 44 (개봉동),나마스테인 서울,37.4990369,126.8540201,중식,0,0,0
용산동6가,"서울특별시 광진구 천호대로 677, 세진빌딩 1층 103,104호 (구의동)",메이향,37.5508158,127.0907297,중식,2,1,0
연남동,서울특별시 구로구 중앙로 13 (고척동),란콰이진,37.4991753,126.8641046,중식,3.6,7,182
자양동,"서울특별시 구로구 구로동로22길 16, 1층 (구로동)",소성공자샤브샤브,37.489411,126.8852963,중식,3.1,7,54
방학동,"서울특별시 구로구 도림로 94, 유일빌딩 2층 (구로동)",치파오,37.4906815,126.8936197,중식,5,2,0
남대문로5가,서울특별시 구로구 가마산로22길 5 (구로동),타이판,37.4941139,126.8875824,중식,3,3,7
수서동,"서울특별시 구로구 시흥대로163길 16 (구로동,(문성2길 10))",홍짜장,37.4817517,126.899199,중식,3.1,7,4
방배동,서울특별시 구로구 개봉로 14 (개봉동),주래등,37.4869476,126.8566774,중식,3,2,1
중화동,"서울특별시 구로구 디지털로32길 97-16, 2층 (구로동)",라와마라탕,37.4835361,126.9011517,중식,5,1,0
마곡동,"서울특별시 구로구 디지털로35길 37 (구로동, 부1층)",원보완탕,37.4877311,126.8955739,중식,5,1,5
한남동,서울특별시 광진구 자양로15길 38 (자양동),홍콩반점0410,37.5355834,127.0815399,중식,3,9,5
사당동,서울특별시 구로구 공원로6나길 12 (구로동),북경양꼬치,37.5036498,126.8907861,중식,4,3,90
신림동,"서울특별시 구로구 디지털로26길 123 (구로동, 지플러스 코오롱디지털타워지하1층 B108호)",포36거리 신림역점,37.4830869,126.8977122,중식,4.4,7,55
구로동,"서울특별시 구로구 중앙로3길 50, 가동 B126호 (고척동, 고척공구상가)",홍원도양꼬치,37.4998338,126.8609847,중식,0,0,1
봉천동,"서울특별시 구로구 디지털로 300, 지밸리비즈플라자 B104호 (구로동)",교자킹,37.4850307,126.8966116,중식,4.2,6,36
구로동,서울특별시 구로구 부일로1나길 22-21 (온수동),가연,37.4937376,126.8162062,중식,0,0,0
청량리동,서울특별시 구로구 구로동로 6 (가리봉동),중국관,37.4822715,126.8872581,중식,4,4,2
수유동,서울특별시 구로구 새말로16길 29 (구로동),흑룡강,37.5043201,126.891163,중식,5,2,0
독산동,"서울특별시 구로구 구로동로14길 4, 101호 (구로동)",도쿄짬뽕,37.4877075,126.8851923,중식,4,2,3
자양동,"서울특별시 광진구 자양로 258-1, 1층 (구의동)",라이거마라탕,37.5491239,127.0901739,중식,4.7,17,40
수표동,"서울특별시 광진구 자양로50길 8, 1층 (구의동)",차이,37.5519106,127.0928165,중식,1,1,15
가산동,"서울특별시 구로구 디지털로 288, 지하1층 제비116호 (구로동, 대륭포스트타워1)",자금성,37.4837318,126.8953657,중식,3.3,3,5
양재동,서울특별시 광진구 자양번영로 25-1 (자양동),차이홍,37.5320124,127.0749629,중식,3,2,1
당산동3가,"서울특별시 구로구 구일로10길 27, SK허브수 A동 1층 122호 (구로동)",피슈마라홍탕영등포구청점,37.4956952,126.8719364,중식,4.5,2,26
길음동,"서울특별시 광진구 천호대로127길 9, 별이회관 1층 (중곡동)",만족한식당,37.5536792,127.0894553,중식,0,0,0
신천동,서울특별시 구로구 경인로47길 26 (고척동),차이,37.5006501,126.8666191,중식,4.8,4,5
신길동,"서울특별시 구로구 고척로 9, 1층 102호 (오류동)",장보고,37.4956251,126.8404504,중식,3.4,10,6
신림동,"서울특별시 구로구 디지털로26길 5, B107호 (구로동, 에이스 하이앤드타워 )",성보장,37.4816106,126.8934794,중식,5,2,0
장위동,"서울특별시 구로구 경인로53길 15 (구로동,중앙유통상가 D-18-02)",시골밥상.생선구이,37.5009708,126.8746491,중식,1.8,15,6
가락동,"서울특별시 광진구 자양로22길 18, 1층 (구의동)",장강,37.5395151,127.0843181,중식,2.5,15,8
안암동5가,"서울특별시 구로구 디지털로31길 53 (구로동,이앤씨타워5차 104호)",미스터왕,37.4856903,126.8924453,중식,3.8,11,3
번동,"서울특별시 구로구 도림로 104, 일진빌딩 1층 102호 (구로동)",혜성원,37.4911984,126.8945305,중식,4,3,0
대치동,"서울특별시 구로구 구일로4길 26, 상가동 103호 (구로동)",송원,37.4915996,126.8762888,중식,3.3,7,0
대림동,서울특별시 구로구 개봉로16길 41 (개봉동),110양꼬치,37.4902371,126.8585804,중식,0,0,0
상일동,서울특별시 구로구 구로중앙로25길 30 (구로동),첨밀밀 양꼬치,37.4970775,126.8870295,중식,4.9,7,1
삼전동,"서울특별시 광진구 자양번영로6길 15-1, 1층 (자양동)",홍짜장,37.5324123,127.0765172,중식,2.3,11,5
목동,"서울특별시 구로구 경서로 82-20, 1층 (고척동)",상하이짬뽕,37.5033175,126.8616325,중식,0,0,0
서초동,"서울특별시 구로구 경인로 331 (고척동,(007호))",칸지고고,37.4977098,126.8569368,중식,2.6,14,5
대림동,"서울특별시 구로구 고척로32길 11-4, 2호 (고척동)",원조BT풍광고시,37.501995,126.8498547,중식,0,0,0
반포동,서울특별시 구로구 개봉로 27 (개봉동),도화,37.4882015,126.8560197,중식,2.8,8,7
마곡동,서울특별시 구로구 구로동로 101-1 (구로동),본도시락,37.4877033,126.8846926,중식,2.6,5,2
상수동,서울특별시 구로구 시흥대로 571 (구로동),본식,37.4839945,126.9018264,중식,3.7,128,39
행당동,서울특별시 광진구 자양로53길 111 (중곡동),우마왕마라탕,37.557126,127.0889627,중식,4.4,5,9
잠실동,"서울특별시 구로구 경인로53길 15, A동 지1층 03호 (구로동, 구로중앙유통상가)",심포니오브차이나,37.5009708,126.8746491,중식,4.6,16,22
상도동,"서울특별시 구로구 경인로 430, 3층 3-27호 (고척동, 고척스카이돔내)",블랙&차이나,37.4982889,126.8671719,중식,5,4,5
흥인동,서울특별시 광진구 천호대로 575 (중곡동),아사원,37.5564985,127.0821439,중식,2.2,15,2
행당동,"서울특별시 구로구 경인로67길 23, 123,124호 (신도림동, 신도림2차푸르지오)",광명대창집 왕십리점,37.5105879,126.8894776,중식,3.4,8,117
서초동,서울특별시 구로구 경인로43길 8 (고척동),난랑,37.4970956,126.8626066,중식,3.5,54,13
신림동,서울특별시 구로구 디지털로27길 89 (가리봉동),영화루,37.4843149,126.8890878,중식,0,0,0
가리봉동,"서울특별시 구로구 구로동로28길 37, 1층 (구로동)",머리닭갈비,37.4909245,126.8862372,중식,0,0,0
대림동,"서울특별시 구로구 우마2길 3, 1층 103호 (가리봉동)",순풍샤브샤브,37.481922,126.8882199,중식,3.4,5,47
낙원동,"서울특별시 구로구 고척로 49, 상가동 1층 118호 (오류동, 동부골든아파트)",짬뽕타임24,37.4993752,126.8398195,중식,4,4,5
상도동,"서울특별시 구로구 공원로9길 10, 1층 (구로동)",황제짬뽕,37.5030562,126.887604,중식,3,2,1
가락동,서울특별시 구로구 디지털로32나길 19 (구로동),라운지 목화,37.4840971,126.9004539,중식,4,3,13
수색동,"서울특별시 광진구 자양로 243, 1층 (구의동)",청,37.5482917,127.0885872,중식,4.2,5,3
화곡동,"서울특별시 구로구 남부순환로105라길 8-4, 1층 (가리봉동)",동경각,37.4800764,126.8894561,중식,0,0,0
을지로2가,"서울특별시 광진구 자양로13길 28, 지하1층 (자양동)",다마시떼,37.5350997,127.0825741,중식,0,0,4
신정동,"서울특별시 광진구 자양로15길 67, 1층 (자양동)",차이나,37.5350038,127.0799719,중식,0,0,0
양재동,서울특별시 구로구 경인로47길 27 (고척동),용무 있습니까,37.5005783,126.8663076,중식,3.2,19,27
상도동,서울특별시 구로구 남부순환로105라길 5 (가리봉동),가야성,37.4802626,126.8890453,중식,2.5,24,10
양재동,"서울특별시 구로구 경인로53길 15 (구로동,중앙유통상가 D21-02)",마오,37.5009708,126.8746491,중식,3,76,17
한강로2가,서울특별시 광진구 자양로26길 21 (구의동),대만원,37.5417273,127.0853073,중식,3.2,13,8
도화동,"서울특별시 구로구 오류로 20, 114호 (오류동)",평화장,37.4861761,126.8395024,중식,2.8,13,16
가리봉동,"서울특별시 구로구 새말로16길 29, 2층 (구로동)",도문양꼬치,37.5043201,126.891163,중식,0,0,0
신내동,"서울특별시 구로구 개봉로17길 34, 1층 (개봉동, A열9호)",전설의짬뽕,37.4917998,126.8540906,중식,2,2,4
군자동,"서울특별시 구로구 공원로 34, 지하1층 B101-3호 (구로동, 한스타워)",마라강호,37.5005017,126.8916525,중식,4.9,9,1
서초동,"서울특별시 구로구 공원로6나길 12 (구로동, 경방빌딩 1층)",홍등,37.5036498,126.8907861,중식,4.3,7,21
목동,서울특별시 구로구 경서로 77 (고척동),친친,37.5038534,126.860251,중식,5,1,5
화곡동,서울특별시 구로구 구로동로 106-2 (구로동),까치성,37.4881878,126.8848795,중식,3.5,6,4
세종로,"서울특별시 구로구 가마산로23길 9, 1층 (구로동)",가봉루,37.4960098,126.8889576,중식,3,22,5
동선동1가,"서울특별시 구로구 경인로47길 40, 1층 (고척동)",성신여대점 홍콩반점0410,37.5010825,126.8660356,중식,2.6,21,25
방이동,"서울특별시 구로구 경서로5길 1, 1층 (고척동)",봉선생 훠궈,37.5013022,126.8583966,중식,3,4,32
당산동1가,"서울특별시 구로구 디지털로32길 97-39, 2층 (구로동, 성민빌딩)",소림마라영등포점,37.4842667,126.9013723,중식,0,0,3
자양동,서울특별시 구로구 공원로6나길 17-2 (구로동),라천하,37.5040161,126.8909145,중식,5,1,51
논현동,"서울특별시 구로구 구로동로20길 18-26, 1층 (구로동)",제이에스가든,37.4883428,126.8852553,중식,3.4,5,64
봉천동,"서울특별시 구로구 디지털로34길 43, 코오롱싸이언스밸리1차 1층 104호 (구로동)",여의주,37.4851514,126.8988405,중식,4.2,5,2
회기동,"서울특별시 광진구 자양로 92, 1층 (자양동)",리후찬팅,37.5359952,127.0840743,중식,5,5,3
천호동,"서울특별시 구로구 디지털로 306, 대륭포스트타워2차 1층 101-2호 (구로동)",옛날짜장,37.4859916,126.8977359,중식,0,0,1
구의동,서울특별시 구로구 남부순환로105라길 12 (가리봉동),신짬뽕,37.4803121,126.8893755,중식,4.6,8,2
문정동,"서울특별시 구로구 경인로53길 15, 편익상가동동 지하1층 B19-01호 (구로동, 중앙유통당지상가)",만석장 가든파이브점,37.5009708,126.8746491,중식,1,1,3
신림동,서울특별시 구로구 디지털로19길 40 (가리봉동),기사식당,37.4815896,126.8900471,중식,2.6,10,2
낙원동,서울특별시 광진구 자양로13나길 37 (자양동),보화장,37.5347014,127.0792482,중식,4,4,0
신림동,"서울특별시 구로구 경인로 662, 4층 (신도림동, 디큐브시티)",위탑에프앤비,37.5083236,126.8884274,중식,0,0,0
노량진동,서울특별시 구로구 구로동로42길 60-4 (구로동),자금성,37.4984303,126.8842807,중식,3.9,8,7
독산동,"서울특별시 구로구 경인로 661 (신도림동, 신도림1차 푸르지오 2층 제244호 제252호)",아인카트누들,37.5095178,126.8877039,중식,0,0,0
대치동,서울특별시 구로구 새말로 22 (구로동),호우양꼬치,37.5020834,126.8835417,중식,0,0,0
고척동,서울특별시 구로구 공원로6나길 49-2 (구로동),등대반점,37.5047938,126.8924291,중식,4,1,2
갈현동,서울특별시 광진구 천호대로143길 8-7 (광장동),북경원,37.5460091,127.103432,중식,2.5,10,9
역삼동,"서울특별시 구로구 천왕로 36, 2층 203호 (천왕동, 천왕센타프라자)",마라와라,37.4808802,126.8393789,중식,4,4,17
구로동,"서울특별시 구로구 새말로18길 28-5, B1,1층 (구로동)",천지식당,37.5054002,126.8924183,중식,0,0,0
구로동,서울특별시 구로구 신도림로11라길 50 (신도림동),행복한 박가네,37.5110731,126.8801676,중식,0,0,0
동숭동,서울특별시 구로구 고척로 204 (고척동),연경,37.5049589,126.8560003,중식,5,1,7
신사동,"서울특별시 광진구 자양번영로12길 5-3, 1층 (자양동)",옛날짜장,37.5371378,127.0771287,중식,2.4,5,6
창천동,"서울특별시 금천구 가마산로 96, 지상1층 112호 (가산동, 대륭테크노타운8차)",라오상하이,37.4852606,126.8774699,중식,4.9,8,8
당산동3가,"서울특별시 구로구 경인로23길 8, 102호 (오류동, 대서프라자 )",일품불짬뽕,37.4968091,126.8440813,중식,4.5,2,0
용두동,"서울특별시 구로구 구로동로 96-2, 지상1층 (구로동)",홍반장,37.4873461,126.8855136,중식,3.8,4,1
봉천동,"서울특별시 광진구 자양번영로 20, 자양빌딩 1층 (자양동)",중화각,37.5314025,127.0753718,중식,3.8,5,4
행당동,"서울특별시 구로구 개봉로20길 74, 1층 (개봉동)",금룡,37.493295,126.8584338,중식,2.5,13,11
서초동,"서울특별시 광진구 천호대로111길 36, 1층 (중곡동)",북경 반점,37.5579279,127.0828748,중식,3.5,2,9
독산동,"서울특별시 구로구 구로동로 167, B101호 (구로동, 조일뉴타워)",메콩쌀국수,37.4935759,126.8830308,중식,5,2,3
홍은동,"서울특별시 구로구 경인로47다길 4, 1층 103호 (고척동)",진차이나,37.5034199,126.8640361,중식,1,2,0
압구정동,"서울특별시 구로구 구로동로28길 90, 1층 (구로동)",크리스탈제이드상하이딜라이트,37.4915116,126.8889233,중식,3.9,24,24
성수동1가,서울특별시 구로구 가마산로20길 4 (구로동),부덕관,37.4933879,126.8858197,중식,4.2,7,2
여의도동,"서울특별시 구로구 경인로54길 4, A동 지층 지하1층식당9호 (구로동, 구로유통상가)",미방,37.500675,126.877525,중식,4.9,8,6
논현동,"서울특별시 금천구 가산디지털1로 142, 가산 더스카이밸리 1차 지상2층 220,221호 (가산동)",마라마라,37.4784047,126.8833586,중식,4.5,61,80
신공덕동,"서울특별시 구로구 오류로8길 46 (오류동,103호)",신성각,37.491838,126.8430554,중식,3.3,103,85
수유동,서울특별시 광진구 자양로 39 (자양동),월아천,37.531533,127.0857323,중식,0,0,1
효자동,"서울특별시 구로구 경서로 11, 2층 202(가)호 (개봉동)",그옛날손짜장,37.4985837,126.8564769,중식,3.3,4,4
돈암동,서울특별시 구로구 개봉로12길 8 (개봉동),초림정,37.4880542,126.8568238,중식,4.9,14,6
갈현동,"서울특별시 광진구 천호대로110길 50, 1층 (능동)",만리장성,37.5551485,127.0790863,중식,3.7,6,2
장위동,"서울특별시 광진구 자양로22길 33 (구의동,(1층))",태화장,37.5397318,127.0851949,중식,0,0,0
성내동,"서울특별시 구로구 도림천로 338, 1층 (구로동)",린찐,37.4948153,126.8938221,중식,2.4,131,69
여의도동,서울특별시 구로구 가마산로22길 10 (구로동),차이홍,37.4939294,126.8874648,중식,3.6,16,4
하월곡동,"서울특별시 구로구 고척로 132, 1층 (개봉동, 서정빌딩)",담소사골순대 월곡역점,37.5022298,126.848664,중식,3.4,18,8
신월동,서울특별시 광진구 자양로13길 25 (자양동),328 치킨,37.5350049,127.0828087,중식,2.3,3,1
한강로3가,서울특별시 구로구 개봉로11길 7-3 (개봉동),상하이,37.4879124,126.8557318,중식,1.9,36,3
가리봉동,"서울특별시 구로구 중앙로14길 19 (고척동,(신평길 17 ) 지층)",소백양샤브샤브,37.5069175,126.8623542,중식,0,0,0
자양동,"서울특별시 구로구 중앙로1길 18-19, 지하1층 1,2호 (고척동)",아리랑양꼬치,37.4987979,126.8626519,중식,0,0,5
가산동,서울특별시 구로구 디지털로32길 97-28 (구로동),도미라마라탕,37.4839565,126.9015215,중식,0,0,0
공항동,"서울특별시 구로구 우마길 10, 1층 101호 (가리봉동)",램앤와인,37.4819728,126.887704,중식,0,0,0
영등포동5가,"서울특별시 구로구 새말로 97 (구로동,신도림테크노마트 100동 F10층 022, 023호)",홍콩반점,37.5070143,126.8902633,중식,0,0,0
서초동,서울특별시 구로구 개봉로 51-1 (개봉동),안동장,37.4902978,126.8557625,중식,0,0,0
도곡동,"서울특별시 구로구 구로동로 112-3, 1층 (구로동)",국빈,37.4887379,126.8848325,중식,3.6,7,5
봉천동,"서울특별시 구로구 디지털로26길 5 (구로동, 에이스하이엔드타워 B106)",흑룡강,37.4816106,126.8934794,중식,3,31,9
창동,"서울특별시 구로구 고척로31길 25-1 (개봉동,지상1층)",라화쿵부창동역점,37.5034424,126.8480526,중식,4.4,5,18
한강로1가,"서울특별시 광진구 자양로22길 50, 1층 (구의동)",태양,37.5396384,127.0861622,중식,5,1,0
구로동,"서울특별시 구로구 안양천로539길 6, 고척빌딩 (고척동)",풍성양꼬치,37.5050772,126.8705414,중식,3.8,4,2
봉천동,"서울특별시 구로구 디지털로 242, 지층 B101호 (구로동, 한화비즈메트로)",아비정전,37.480822,126.8926893,중식,5,2,8
상암동,"서울특별시 구로구 신도림로 7, 1층 128호 (신도림동)",양대리수산시장,37.5063533,126.8772301,중식,5,1,2
창동,서울특별시 구로구 구로동로 128 (구로동),향원,37.4900965,126.8843986,중식,4.9,7,3
대림동,서울특별시 구로구 경인로15길 8 (오류동),일일양꼬치,37.4948712,126.8398231,중식,5,2,0
영등포동3가,서울특별시 구로구 개봉로10길 6-2 (개봉동),만강홍,37.4875875,126.8566796,중식,3.5,2,4
화곡동,서울특별시 구로구 남부순환로95길 8-9 (개봉동),가인양꼬치,37.4943039,126.8580987,중식,3.8,5,10
대조동,"서울특별시 구로구 가마산로 278 (구로동,로얄프라자 101호)",홍보,37.4960988,126.8913126,중식,3.7,4,1
용답동,"서울특별시 구로구 디지털로33길 55, 103호 (구로동, 이엔씨벤처드림2차  지하1층)",기연각,37.4868362,126.8929796,중식,4.7,7,6
가양동,"서울특별시 구로구 도림로 30, 1층 (구로동)",북경원,37.4868386,126.8881827,중식,3,1,0
공릉동,"서울특별시 구로구 구일로8길 92, 118호 (구로동, 하이츠상가)",공덕관,37.4970779,126.8759093,중식,2.6,27,21
북가좌동,"서울특별시 광진구 천호대로132길 56, 지층 (구의동)",짜장나라짬뽕나라,37.5488653,127.0879949,중식,1.8,5,2
청파동3가,서울특별시 구로구 경인로40길 23 (개봉동),소천,37.4958234,126.8593259,중식,0,0,0
구로동,"서울특별시 구로구 부일로17길 50-3, 1층 3호 (궁동)",마라소면,37.49519,126.8330786,중식,0,0,0
양평동6가,"서울특별시 광진구 자양로43길 18, 1층 (구의동)",백미향,37.5515284,127.0909003,중식,0,0,0
구로동,서울특별시 광진구 자양로 309 (구의동),중화연구소,37.5530913,127.0931335,중식,4,3,13
구로동,"서울특별시 구로구 구일로10길 27, SK허브수 1층 111, 111-1, 112, 119호 (구로동)",주왕족발,37.4956952,126.8719364,중식,2.8,7,24
답십리동,서울특별시 구로구 공원로6나길 49-16 (구로동),교동짬뽕,37.5053074,126.8920072,중식,5,3,2
옥수동,서울특별시 구로구 개봉로20길 18 (개봉동),락앤웍 옥수점,37.4929044,126.8564606,중식,0,0,0
신림동,"서울특별시 구로구 디지털로27길 75 (가리봉동, 지상1층)",낙원양꼬치,37.4840882,126.8898008,중식,4.5,17,42
역삼동,"서울특별시 구로구 구로중앙로 152, 7층 (구로동, AK플라자구로점 )",청학루,37.5011324,126.8828,중식,3.8,12,5
묵동,서울특별시 구로구 고척로22길 74 (개봉동),옛가,37.4983786,126.847268,중식,0,0,0
금호동2가,서울특별시 구로구 경인로 373 (고척동),용무있습니까 금호점,37.4969239,126.8619052,중식,3,3,5
홍은동,"서울특별시 구로구 고척로32길 11-10, 1층 (고척동)",천하일과,37.5020685,126.8501528,중식,5,3,5
대림동,"서울특별시 구로구 경인로65길 44, 보미플라자 1층 110호 (신도림동)",봉자마라탕,37.5095917,126.8852068,중식,5,1,5
신설동,"서울특별시 구로구 구로중앙로 134, 4층 4가28호 (구로동, 신구로자이나인스에비뉴)",서라벌,37.4999176,126.8846199,중식,5,1,0
정릉동,"서울특별시 광진구 천호대로112길 36 (능동,(1층))",미진각,37.554758,127.0807057,중식,0,0,0
신림동,"서울특별시 구로구 경인로 619-1, 1층 102호 (신도림동)",교동짬뽕,37.5068123,126.8846567,중식,2.3,4,3
여의도동,"서울특별시 광진구 자양로13길 84 (자양동,(1층))",백리향,37.5331869,127.0803934,중식,3.9,53,85
안암동5가,"서울특별시 광진구 자양로 206, 1층 (구의동)",고려성,37.5455532,127.0860847,중식,3.1,17,22
공릉동,"서울특별시 구로구 구로중앙로 198, 6,7호 (구로동, 구로공구상가 C블럭)",남선반점,37.504154,126.879538,중식,3.3,3,2
자양동,서울특별시 광진구 자양로45길 34 (구의동),원조 외파가 마라탕 마라샹궈,37.5527647,127.0910643,중식,3.8,5,4
대림동,"서울특별시 구로구 고척로 230, 2층 201호 (고척동)",순풍샤브샤브,37.505935,126.8585312,중식,3.4,5,47
연희동,"서울특별시 금천구 가산디지털1로 119 (가산동,SK트윈타워 B-136 (디지털단지로 325))",성호각,37.4757709,126.8829708,중식,4.8,53,1
용강동,"서울특별시 구로구 오리로15길 42, 덕화빌딩 1층 (궁동)",부영각,37.4942643,126.8312564,중식,3.5,30,21
문래동3가,"서울특별시 구로구 경인로 661, 신도림1차푸르지오 1층 163호 (신도림동)",문래동차이훙,37.5095178,126.8877039,중식,5,4,4
서초동,"서울특별시 구로구 새말로 97 (구로동, 신도림테크노마트 지하1층 S 018호)",중식당 표량,37.5070143,126.8902633,중식,5,1,42
신월동,서울특별시 구로구 개봉로17길 7 (개봉동),영빈관,37.4915718,126.8553862,중식,3,2,2
역삼동,"서울특별시 구로구 구로동로 81-1 (구로동,지상1층)",경성,37.4860833,126.8853977,중식,3,2,28
관철동,서울특별시 광진구 자양로43길 48 (중곡동),구이와찌개,37.5527771,127.0903342,중식,5,5,0
길동,서울특별시 구로구 구로중앙로 4 (구로동),해성원,37.4908918,126.8929255,중식,4,1,4
거여동,"서울특별시 구로구 경서로1길 19, 1층 (개봉동)",아재짜장,37.4990196,126.8557022,중식,0,0,2
역삼동,"서울특별시 구로구 공원로 26, 지하1층 05-3호 (구로동, 금호아파트)",만월,37.5000583,126.8919875,중식,0,0,0
거여동,서울특별시 구로구 개봉로15길 3 (개봉동),투썸플레이스 거여역점,37.4898716,126.8557638,중식,3.1,14,5
하월곡동,서울특별시 광진구 천호대로 593 (중곡동),만리장성,37.5558003,127.0839441,중식,0,0,0
신정동,"서울특별시 구로구 경인로47길 113, 1층 106호 (고척동)",가원,37.5036324,126.8635074,중식,2.9,17,5
방배동,서울특별시 광진구 자양번영로 12 (자양동),명품훠궈 샤브샤브,37.5306451,127.0752015,중식,4.4,7,34
논현동,"서울특별시 구로구 구로중앙로 152, NC백화점 6층 (구로동)",만리향,37.5011324,126.8828,중식,4,12,10
신정동,서울특별시 구로구 가마산로27길 7 (구로동),도연정,37.4973224,126.8916313,중식,5,1,1
미아동,"서울특별시 구로구 경인로 661, 신도림1차푸르지오 지하1층 개러지키친 7호 (신도림동)",인생닭강정,37.5095178,126.8877039,중식,4.5,2,1
화곡동,서울특별시 구로구 서해안로 2322 (오류동),옛날짜장,37.492708,126.8427216,중식,2.9,17,3
사당동,"서울특별시 구로구 남부순환로95길 10, 지층 지하101호 (개봉동)",중국성,37.4939776,126.8579217,중식,4,6,0
대현동,"서울특별시 광진구 천호대로116길 7, 1층 101호 (능동)",산청자매훠궈,37.5547134,127.0842694,중식,4.7,3,10
증산동,"서울특별시 광진구 자양로 242, 1층 (구의동)",락궁,37.5479836,127.088835,중식,1,2,1
하왕십리동,"서울특별시 구로구 새말로 97 (구로동, 신도림테크노마트 지하1층 FC 010호)",미스터 추,37.5070143,126.8902633,중식,0,0,4
신공덕동,서울특별시 구로구 오류로8길 34 (오류동),주몽,37.4914868,126.8426054,중식,3.4,8,4
방화동,서울특별시 구로구 서해안로30길 12 (오류동),방화동 교동짬뽕,37.4932333,126.8439155,중식,4.5,26,30
구로동,서울특별시 구로구 구로동로 108 (구로동),뽕사부,37.4882604,126.8848742,중식,3.5,2,29
서초동,"서울특별시 광진구 자양로 249 (구의동,,35호)",리향,37.5488417,127.0891722,중식,2.7,25,46
하월곡동,"서울특별시 구로구 경인로65길 16-15, 상가동 104호 (신도림동, 신도림4차e-편한세상)",내동장,37.51111,126.88737,중식,3.9,8,3
서초동,"서울특별시 광진구 천호대로102길 70, 1층 (군자동)",황궁,37.5562714,127.0724585,중식,2.4,10,5
쌍문동,"서울특별시 구로구 남부순환로95길 10, 지층 201호 (개봉동)",쎄쎄,37.4939776,126.8579217,중식,3.8,16,9
고덕동,서울특별시 구로구 디지털로27길 49 (가리봉동),동보성,37.4837158,126.8912514,중식,2.8,4,0
서초동,"서울특별시 구로구 경인로53길 15 (구로동,중앙유통상가 B-26-02)",교동짬뽕,37.5009708,126.8746491,중식,3.3,10,18
내수동,"서울특별시 구로구 경인로20가길 68, 상가동 1층 112호 (오류동, 오류동행복주택)",양선생,37.4956902,126.8476987,중식,4,1,3
중곡동,"서울특별시 구로구 구일로10길 27, B동 111-1호 (구로동, SK허브수)",향미마라탕마라샹궈,37.4956952,126.8719364,중식,2.8,4,10
신길동,서울특별시 구로구 고척로 127 (개봉동),천천소면,37.5023539,126.8481781,중식,0,0,0
연희동,서울특별시 광진구 자양번영로 22 (자양동),연희일품향,37.5316407,127.0754802,중식,4.4,13,11
오류동,"서울특별시 구로구 새말로 75, 1층 (구로동)",패밀리 마라탕,37.5049423,126.8885559,중식,0,0,2
내발산동,서울특별시 구로구 구로동로 214-16 (구로동),다래향,37.497643,126.8834509,중식,2.2,14,11
논현동,서울특별시 구로구 새말로4길 16 (구로동),향방,37.5016833,126.8835552,중식,3.7,9,18
대치동,"서울특별시 구로구 구로동로 9, 1층 (가리봉동)",세양원,37.4827263,126.8869659,중식,0,0,0
전농동,서울특별시 구로구 디지털로32길 97-22 (구로동),만추 롯데백화점 청량리점,37.4837527,126.9013077,중식,1.6,5,0
삼성동,"서울특별시 구로구 구로동로28길 93, 1층 (구로동)",복라이,37.491816,126.8890044,중식,3.3,6,6
양평동4가,"서울특별시 광진구 천호대로110길 8-10, 지하1층 (능동)",향원,37.5564997,127.0798576,중식,5,4,4
이문동,서울특별시 구로구 구로중앙로19길 27 (구로동),장터분식해성만두,37.4940482,126.8877633,중식,5,2,1
당산동6가,서울특별시 광진구 천호대로141길 10-11 (광장동),홍콩반점당산역점,37.5462079,127.1029611,중식,2.1,14,11
노량진동,서울특별시 구로구 도림로 83 (구로동),칭따오양꼬치,37.4903735,126.8924364,중식,4.2,5,48
역촌동,"서울특별시 광진구 자양로13길 60, 1층 (자양동)",서향원,37.5340076,127.0813215,중식,4.3,13,1
신천동,서울특별시 구로구 경인로35길 56 (개봉동),일월성,37.4993727,126.8535416,중식,2.8,15,1
구로동,"서울특별시 구로구 우마길 16-7 (가리봉동,1층)",등비룡 탕절대부 마라탕,37.4810475,126.8880434,중식,5,4,2
면목동,서울특별시 구로구 새말로16길 16 (구로동),금화성,37.504857,126.8904026,중식,0,0,0
자양동,"서울특별시 구로구 도림로10길 14, 1층 101호 (구로동)",복만루,37.4858974,126.8881895,중식,3.5,29,24
충정로3가,"서울특별시 구로구 경인로 661, 1층 147호 (신도림동, 신도림1차푸르지오)",홍콩,37.5095178,126.8877039,중식,2,1,0
불광동,"서울특별시 구로구 개봉로23가길 10, 1층 104호 (개봉동, 한양아이클래스 구로)",삼부자순대국,37.4954631,126.8569309,중식,4,2,1
창동,서울특별시 구로구 도림로 31-1 (구로동),원빈,37.4873069,126.8880274,중식,2,4,0
신사동,"서울특별시 구로구 서해안로 2334, 지상1층 (오류동)",딩딤1968,37.4933351,126.8437239,중식,3.4,58,128
명일동,"서울특별시 구로구 구로동로20길 6-11, 1층 (구로동)",홍짜장 명일점,37.4885425,126.8850916,중식,3.9,10,4
반포동,서울특별시 구로구 경인로47길 18 (고척동),서래향,37.5003695,126.8668905,중식,3.1,22,139
용두동,서울특별시 구로구 공원로8길 33 (구로동),도쿄짬뽕,37.5036325,126.8910898,중식,4,2,1
화곡동,"서울특별시 구로구 디지털로 288, 지1층 B104호 (구로동, 대륭포스트타워1차)",천진,37.4837318,126.8953657,중식,0,0,0
홍제동,"서울특별시 구로구 경인로53길 15 (구로동,중앙유통상가 B-28-11)",환차이,37.5009708,126.8746491,중식,3.4,5,0
장안동,서울특별시 구로구 구로동로35길 13 (구로동),서장각,37.4936276,126.8828332,중식,3,5,0
사당동,서울특별시 구로구 구로동로28길 98 (구로동),샤오촨,37.4917263,126.8892642,중식,4.1,8,13
당산동5가,"서울특별시 구로구 경인로 393-7, 2동 1층 144호 (고척동, 일이삼전자타운)",딘딘향당산역점,37.4974484,126.8630394,중식,4,12,26
공평동,"서울특별시 광진구 자양로 322 (구의동,(1층))",라오베이징,37.5539357,127.0940712,중식,2.3,3,19
홍은동,"서울특별시 구로구 고척로32길 11-10, 1층 (고척동)",천하일과,37.5020685,126.8501528,중식,5,3,5
도렴동,"서울특별시 구로구 부일로15길 26 (궁동, 1층 일부)",광화문 커피집,37.4943189,126.8335458,중식,4,5,0
금호동2가,서울특별시 구로구 경인로 373 (고척동),용무있습니까 금호점,37.4969239,126.8619052,중식,3,3,5
남가좌동,"서울특별시 구로구 경인로 662, 지하2층 (신도림동, 디큐브시티)",중화루,37.5083236,126.8884274,중식,1,1,2
신월동,"서울특별시 구로구 경서로 82-4, 지상1층 (고척동, 지상1층)",미스차이나,37.5037496,126.8610164,중식,2.9,20,15
가양동,"서울특별시 구로구 디지털로 300, 지밸리비즈플라자 2층 205-1호 (구로동)",중국관,37.4850307,126.8966116,중식,2.1,7,0
성내동,"서울특별시 구로구 디지털로 300 (구로동, 지밸리비즈플라자 201호)",후아닝,37.4850307,126.8966116,중식,4,10,6
한남동,"서울특별시 구로구 경인로20가길 68, 1층 101호 (오류동, 오류동행복주택)",넘버원양꼬치,37.4956902,126.8476987,중식,3.3,9,17
반포동,서울특별시 구로구 경인로 324 (개봉동),차알반포 주식회사,37.4971296,126.8561845,중식,3.5,47,210
가리봉동,서울특별시 구로구 구로중앙로 223 (구로동),신선마라탕,37.5054551,126.8765387,중식,3,3,5
성산동,"서울특별시 구로구 오류로 30, 상가동 103호 (천왕동, 천왕연지타운1단지)",길림성,37.4865503,126.8401818,중식,4.2,6,3
신도림동,"서울특별시 구로구 새말로6길 12, 1층 (구로동)",경복궁 디큐브점,37.50204,126.8838314,중식,2.4,9,43
봉천동,"서울특별시 구로구 디지털로31길 41 (구로동, 이엔씨6차 2층 202,205호)",다빈,37.4851724,126.8927217,중식,3.7,3,39
신정동,서울특별시 구로구 개봉로3길 69 (개봉동),가향,37.4860388,126.8523621,중식,2.6,14,6
이문동,"서울특별시 구로구 구로중앙로 198, 구로기계공구상가 디블럭동 지하1층 3호전체,4호일부호 (구로동)",황하,37.504154,126.879538,중식,3.6,11,33
고척동,"서울특별시 구로구 중앙로14길 31 (고척동, 신성빌딩 1층)",고척짬뽕,37.5076028,126.8631393,중식,3.1,9,8
신당동,"서울특별시 구로구 공원로6나길 35-3, 지1층 (구로동)",설경,37.5044555,126.8915086,중식,5,1,4
을지로6가,"서울특별시 구로구 경인로67길 23 (신도림동,신도림2차 푸르지오 상가(101동) 119호)",마라텐샤,37.5105879,126.8894776,중식,0,0,4
동교동,"서울특별시 구로구 오류로8길 16, 세명프라자 1층 105호 (오류동)",마라양꼬치,37.4909937,126.8415153,중식,2.6,8,14
독산동,서울특별시 구로구 공원로7길 18 (구로동),옛날짜장,37.5019646,126.8879355,중식,0,0,0
남대문로4가,서울특별시 광진구 자양로 244 (구의동),남경,37.5481677,127.0890276,중식,2.9,9,1
중곡동,"서울특별시 구로구 남부순환로97길 3 (개봉동, 개봉푸르미엄 3층)",중국관,37.4940221,126.8582496,중식,1,1,1
길동,"서울특별시 구로구 디지털로33길 48, 대륭포스트타워7차 지1층 105호 (구로동)",소림마라,37.4872609,126.8945149,중식,1,2,4
대림동,"서울특별시 구로구 새말로 97 (구로동,신도림테크노마트 10층 36호)",아향부 꼬치마을,37.5070143,126.8902633,중식,0,0,0
성산동,"서울특별시 구로구 신도림로 29, 1층 (신도림동, 신성빌딩)",홍콩,37.507514,126.8793093,중식,3.3,17,4
가산동,서울특별시 구로구 디지털로32길 97-28 (구로동),도미라마라탕,37.4839565,126.9015215,중식,0,0,0
상계동,"서울특별시 구로구 디지털로33길 48, 204호 (구로동, 대륭포스트타워 7차 2층)",차이,37.4872609,126.8945149,중식,2,2,0
동숭동,"서울특별시 구로구 경인로 661 (신도림동,신도림1차푸르지오상가 112호)",도담 찜닭,37.5095178,126.8877039,중식,5,2,7
한강로2가,서울특별시 구로구 디지털로32가길 13 (구로동),탕화쿵푸,37.4826282,126.8990587,중식,2.8,6,23
암사동,서울특별시 광진구 자양로 265 (구의동),중화요리 미미,37.5499175,127.0903601,중식,5,2,0
신월동,서울특별시 구로구 가마산로 232-5 (구로동),아무리생각해도난짜장,37.4939279,126.8871899,중식,5,2,1
군자동,"서울특별시 구로구 도림천로 336, 1층 (구로동)",빠오즈푸,37.4950175,126.8937556,중식,4,117,217
필동3가,"서울특별시 구로구 디지털로31길 81, 두산위브상가 1층 105호 (구로동)",남경,37.4863569,126.8912735,중식,3.2,6,0
중곡동,"서울특별시 구로구 구일로10길 27, SK허브수 B동 1층 127호 (구로동)",동화장,37.4956952,126.8719364,중식,3.7,6,2
마곡동,"서울특별시 구로구 새말로 102, 지하1층 129호 (구로동, 신도림 포스빌)",홍성원,37.5057801,126.8914054,중식,4,8,2
금호동4가,"서울특별시 광진구 자양로28길 18, 1층 (구의동)",금수원,37.5421807,127.0851648,중식,5,2,1
수유동,"서울특별시 구로구 구일로10길 27, A동 1층 121호 (구로동, SK허브수)",소림마라 강북점,37.4956952,126.8719364,중식,0,0,1
중계동,서울특별시 구로구 구로중앙로28길 24 (구로동),푸라닭 상계역점,37.4991981,126.8873962,중식,4.4,28,0
봉천동,"서울특별시 구로구 새말로 102, 신도림포스빌 1층 127호 (구로동)",소림마라 관악점,37.5057801,126.8914054,중식,3,2,2
오금동,서울특별시 광진구 자양로 306 (구의동),홀리차이나,37.5526194,127.093086,중식,4.3,3,4
남영동,"서울특별시 광진구 천호대로109길 7, 1층 (중곡동)",마라박사,37.5572271,127.0808249,중식,4,5,33
갈현동,"서울특별시 광진구 자양로26길 19, 1층 (구의동)",유진,37.5417596,127.0851517,중식,0,0,0
거여동,"서울특별시 구로구 경인로 365, 1층 (고척동)",거여 양꼬치 양다리 전문점,37.4969283,126.8611601,중식,0,0,1
시흥동,"서울특별시 구로구 구로동로 78, 1층 (구로동)",만다린,37.4858069,126.8858836,중식,0,0,0
독산동,"서울특별시 구로구 새말로 97 (구로동,신도림테크노마트 지하1층 S006호)",30마라탕,37.5070143,126.8902633,중식,5,2,1
잠실동,"서울특별시 광진구 자양로13길 60, 1층 (자양동)",만리향,37.5340076,127.0813215,중식,0,0,0
마곡동,"서울특별시 구로구 구로중앙로8길 27, 지하1층 (구로동)",홍짜장,37.492462,126.8931389,중식,0,0,2
자양동,"서울특별시 구로구 디지털로26길 61, 에이스하이엔드타워2차 1층 105호 (구로동)",쿵푸소룽샤&마라룽샤,37.4811291,126.8953038,중식,4.7,17,154
대림동,"서울특별시 구로구 경인로67길 23 (신도림동, 신도림푸르지오2차 101동 123,124호)",연변복무대로냉면,37.5105879,126.8894776,중식,0,0,2
여의도동,"서울특별시 광진구 천호대로129길 16 (구의동,(1층))",정동각,37.5526236,127.0906806,중식,4.3,4,4
대치동,서울특별시 구로구 부일로15길 29 (궁동),진티엔,37.4941586,126.8330801,중식,4.1,7,11
창동,서울특별시 구로구 남부순환로105라길 8-4 (가리봉동),화원,37.4800764,126.8894561,중식,1,1,2
용강동,"서울특별시 구로구 새말로 97, 신도림테크노마트 10층 032호 (구로동)",노독일처,37.5070143,126.8902633,중식,5,1,2
금호동3가,서울특별시 구로구 가마산로21길 1 (구로동),만리장성,37.4939517,126.8857534,중식,4.3,4,1
성내동,"서울특별시 구로구 공원로7길 12, 1층 102호 (구로동, 삼성드림빌)",황제짬뽕,37.5021551,126.8882351,중식,3.9,8,2
하월곡동,"서울특별시 구로구 경인로 661, 110호 (신도림동, 대우푸르지오상가)",조가연마라탕,37.5095178,126.8877039,중식,4,4,14
자양동,"서울특별시 구로구 구로동로22길 70, 1층 (구로동)",송쉐프구의점,37.4887264,126.8880618,중식,4.3,16,45
서교동,"서울특별시 구로구 오리로 1300, 1층 104호 (궁동, 청솔빌라)",범이네,37.4975045,126.8294372,중식,0,0,66
잠실동,"서울특별시 구로구 새말로 102, 신도림포스빌 1층 119호 (구로동)",마라정,37.5057801,126.8914054,중식,0,0,2
역삼동,"서울특별시 구로구 구로동로 167, 1층 107,108호 (구로동, 조일뉴타워)",아방궁,37.4935759,126.8830308,중식,3.2,23,107
노량진동,"서울특별시 구로구 디지털로32나길 7, 2층 (구로동)",영빈관,37.4836141,126.9000317,중식,4.4,22,22
구로동,서울특별시 구로구 부일로1나길 22-21 (온수동),가연,37.4937376,126.8162062,중식,0,0,0
서초동,"서울특별시 구로구 디지털로34길 27, 109호 (구로동, 대륭포스트타워3차)",마라청춘 마라탕,37.4852945,126.8982362,중식,5,1,19
교남동,"서울특별시 구로구 경인로 176 (오류동,시티월드 지층 120호)",메이탄,37.4943847,126.8410607,중식,3.8,22,132
면목동,서울특별시 구로구 경인로33길 61-3 (개봉동),동해루,37.5005693,126.8510141,중식,3.4,20,28
대림동,서울특별시 구로구 경인로47길 48 (고척동),미국캘리포니아우육면,37.5013464,126.8656438,중식,3,1,1
고척동,"서울특별시 구로구 중앙로10길 16, 1층 102호 (고척동)",차이나,37.5035405,126.8631481,중식,3,4,1
신천동,서울특별시 광진구 자양로18길 59 (구의동),양자강,37.5383369,127.0868102,중식,3.7,3,0
영등포동6가,"서울특별시 광진구 천호대로109길 9, 리아리움더언타워 1층 105-2호 (중곡동)",동방미식성,37.5573491,127.0807915,중식,3.6,7,6
공항동,"서울특별시 구로구 구로동로 99-2, 2층 (구로동)",리진,37.4875943,126.8847293,중식,3,4,15
면목동,"서울특별시 구로구 개봉로 59 (개봉동,동남상가102호)",왕짜장,37.4909979,126.8557106,중식,3.4,7,1
숭인동,서울특별시 구로구 경인로43길 8 (고척동),옛날,37.4970956,126.8626066,중식,0,0,0
양평동5가,"서울특별시 구로구 경인로47길 64, 1층 (고척동)",칸지고고선유도점,37.5017496,126.8649716,중식,2,2,3
반포동,서울특별시 구로구 경인로47길 26 (고척동),차이나웨이,37.5006501,126.8666191,중식,1.3,3,1
가락동,"서울특별시 구로구 새말로 97 (구로동, 신도림테크노마트 10층014호)",중경식객 송파점,37.5070143,126.8902633,중식,5,2,18
망원동,서울특별시 구로구 구로동로28길 70-2 (구로동),황금룡,37.4909841,126.8880601,중식,4.2,26,11
신대방동,"서울특별시 구로구 구로동로26길 118, 1층 (구로동)",천안문,37.489895,126.8905316,중식,4.3,12,3
상도동,"서울특별시 구로구 디지털로 288, 1층 107호 (구로동, 대륭포스트타워1 )",옥문,37.4837318,126.8953657,중식,3.5,41,22
성수동2가,"서울특별시 구로구 고척로33길 14, 1층 (고척동)",라화쿵부,37.5032369,126.849037,중식,3,2,29
신정동,"서울특별시 광진구 자양로13길 22, 1층 (자양동)",향만원,37.5352658,127.0827431,중식,0,0,1
송파동,"서울특별시 구로구 경인로 572 (구로동, 스타팰리스111, 112호)",중화일상,37.5033033,126.8811111,중식,4.1,19,54
신정동,서울특별시 구로구 개봉로3길 69 (개봉동),가향,37.4860388,126.8523621,중식,2.6,14,6
창동,"서울특별시 구로구 남부순환로95길 34 (개봉동,,지상1층)",미화반점,37.494134,126.8565155,중식,3,6,1
명륜3가,"서울특별시 광진구 자양로15길 78 (자양동,(1층))",희래등반점,37.5350183,127.0793625,중식,0,0,0
내발산동,서울특별시 구로구 서해안로 2328-1 (오류동),명지각,37.4931207,126.8431684,중식,4.5,2,0
신림동,"서울특별시 구로구 디지털로31길 12, 지1층 비102호 (구로동, 태평양물산)",청호,37.4852224,126.8949784,중식,3.8,17,8
묵동,"서울특별시 금천구 가산디지털1로 145, 에이스하이엔드타워3차 지상1층 109호 (가산동)",오자매양꼬치,37.4781927,126.8816063,중식,5,1,3
영등포동,서울특별시 구로구 고척로 133 (개봉동),차이,37.5025014,126.8485745,중식,2.9,19,74
역삼동,"서울특별시 구로구 구로동로 197, 2층 (구로동)",향원,37.4961568,126.8823531,중식,4,2,2
회기동,"서울특별시 광진구 자양로50길 6, 1층 (구의동)",얼땅쟈,37.5518777,127.0926319,중식,4.5,2,20
회기동,서울특별시 구로구 구로동로 216 (구로동),홍콩반점,37.4978399,126.8826991,중식,2.7,15,5
염창동,"서울특별시 구로구 남부순환로 1287, 정성요양병원 1층 (가리봉동)",동보성,37.478969,126.8938864,중식,1.8,5,79
화곡동,"서울특별시 구로구 서해안로 2328, 1층 (오류동)",초원양꼬치,37.4930656,126.843093,중식,4.5,24,19
신사동,서울특별시 구로구 구로동로25길 7 (구로동),미미갈비,37.4904381,126.8834985,중식,3,2,79
제기동,"서울특별시 구로구 경인로 618, 1층 (102)호 (신도림동)",팔바자마라탕고대직영점,37.5062517,126.8847095,중식,0,0,0
청담동,서울특별시 구로구 구로동로 100 (구로동),파불라,37.4876121,126.8851386,중식,4.3,65,86
홍익동,"서울특별시 광진구 천호대로 646 (능동,능동나이스빌딩)",정궁,37.5529428,127.08859,중식,4.5,4,1
자양동,"서울특별시 구로구 부일로1길 26-12, 지하1층 B05호 (온수동, 다청림시티)",매화반점,37.4922205,126.8212079,중식,3.3,191,90
신사동,"서울특별시 구로구 구로중앙로 152, NC백화점 6층 (구로동)",성하루,37.5011324,126.8828,중식,4.9,15,6
체부동,"서울특별시 구로구 경인로25길 25, 1층 (오류동)",청우,37.4972636,126.8436075,중식,0,0,0
문정동,서울특별시 구로구 경인로25길 25 (오류동),고려반점,37.4972636,126.8436075,중식,1,2,6
중계동,"서울특별시 구로구 구로중앙로 58, 진흥빌딩 지하1층 (구로동)",꿀돼지,37.4948841,126.889501,중식,4,1,2
신림동,서울특별시 구로구 도림로 103 (구로동),어느멋진날,37.4914754,126.8942514,중식,4.8,5,0
방배동,"서울특별시 광진구 자양로13길 64, 1층 (자양동)",대연,37.5338284,127.0811168,중식,0,0,19
화곡동,서울특별시 구로구 디지털로32다길 24 (구로동),자금성,37.4820005,126.8995614,중식,2.4,14,6
대림동,서울특별시 구로구 개봉로10길 6-2 (개봉동),대초원양꼬치,37.4875875,126.8566796,중식,0,0,1
역삼동,서울특별시 구로구 서해안로26길 10 (오류동),윤가양꼬치,37.4922781,126.8421875,중식,2.4,5,10
면목동,"서울특별시 구로구 경인로 208 (오류동,(경인로 717))",쌍용각,37.495925,126.8442193,중식,0,0,0
화곡동,"서울특별시 구로구 경인로 430, 지1층 C-6호 (고척동)",천유향화곡,37.4982889,126.8671719,중식,2.5,4,1
중계동,"서울특별시 구로구 공원로 27 (구로동,대림역대성스카이렉스 103호)",메이향,37.4993972,126.891009,중식,2.1,8,4
반포동,"서울특별시 구로구 경인로53길 15, D동 22-02호 (구로동,중앙유통단지)",황제,37.5009708,126.8746491,중식,2.4,11,3
중화동,서울특별시 구로구 경인로47길 31 (고척동),대흥각,37.5006072,126.8661148,중식,0,0,1
상도동,"서울특별시 구로구 디지털로32나길 17-28 (구로동,(창조3길 16))",정묘당1987,37.4850079,126.8997116,중식,3.4,11,21
수유동,서울특별시 구로구 구로동로22길 14 (구로동),중원,37.4894003,126.8851628,중식,0,0,0
제기동,"서울특별시 구로구 구로중앙로 60, 지하1층 B101호 (구로동, 대림오페라타워)",그옛날즉석짜장,37.495142,126.8894253,중식,4.5,2,3
상계동,서울특별시 구로구 구로중앙로 82-1 (구로동),중화명가,37.4966979,126.8879285,중식,1.5,12,2
신천동,"서울특별시 구로구 경인로 661, 242호 (신도림동, 신도림1차 푸르지오)",하오미앤,37.5095178,126.8877039,중식,5,5,22
논현동,서울특별시 구로구 구로중앙로 29 (구로동),진시황,37.4925275,126.8907623,중식,3,1,0
마포동,서울특별시 광진구 자양로 93 (자양동),희상봉요리,37.5359891,127.0835147,중식,2.7,3,0
대림동,"서울특별시 구로구 경인로33길 72, 1층 (고척동)",복래복반점,37.5010713,126.8510641,중식,0,0,0
방이동,"서울특별시 구로구 경인로 430 (고척동, 외부관리동)",피슈마라홍탕 방이동점,37.4982889,126.8671719,중식,3.7,7,50
능동,"서울특별시 구로구 디지털로26길 111, 지하1층 B008호 (구로동, 제이앤케이디지털타워)",천미천훠궈,37.4825548,126.8970407,중식,4.8,21,110
대림동,"서울특별시 구로구 경인로23길 8, 대서프라자 지하2층 201호 (오류동)",사천생소면,37.4968091,126.8440813,중식,5,1,1
반포동,"서울특별시 금천구 가산디지털1로 1, 지상1층 104일부호 (가산동, 더루벤스밸리)",중화가정 서울고속터미널점,37.4662866,126.8871454,중식,1,4,2
구의동,"서울특별시 구로구 우마3길 13, 1층 (가리봉동)",메이탄,37.4817121,126.8889502,중식,4.7,22,71
충무로1가,서울특별시 광진구 자양로45길 10 (구의동),딤딤섬 신세계본점,37.5516325,127.0915434,중식,2.8,10,48
마곡동,"서울특별시 구로구 경인로 430, 지1층 F-2호 (고척동)",신룽푸마라탕 마곡점,37.4982889,126.8671719,중식,2.8,5,12
면목동,서울특별시 구로구 새말로16길 16 (구로동),금화성,37.504857,126.8904026,중식,0,0,0
논현동,서울특별시 구로구 부일로1길 37 (온수동),크레이지마라,37.4923566,126.8199179,중식,0,0,0
삼성동,서울특별시 구로구 구로동로 23 (가리봉동),달링스테이크 선정릉역점,37.4837553,126.8863487,중식,4.7,3,18
구로동,서울특별시 구로구 오리로 1301 (궁동),실크로드,37.4975457,126.8289331,중식,1,1,2
구산동,서울특별시 광진구 자양로2길 10 (자양동),중국관,37.5307901,127.0874551,중식,3.5,7,0
양평동4가,"서울특별시 구로구 경인로 661 (신도림동,신도림1차푸르지오 1층 141호)",강사부,37.5095178,126.8877039,중식,5,1,1
삼성동,"서울특별시 구로구 디지털로33길 48, 203호 (구로동, 대륭포스트타워7차)",딤딤섬 파르나스몰점,37.4872609,126.8945149,중식,3.4,20,134
동선동1가,"서울특별시 구로구 디지털로33길 27 (구로동, 삼성IT밸리 107호일부)",신룽푸마라탕 성신여대점,37.4860022,126.8947419,중식,1.6,11,55
구로동,서울특별시 구로구 디지털로32나길 11 (구로동),오미향,37.4837191,126.9001371,중식,0,0,0
신길동,서울특별시 구로구 고척로30길 13-6 (개봉동),샤브왕,37.5017049,126.8490952,중식,5,1,39
신림동,서울특별시 구로구 디지털로27길 89 (가리봉동),영화루,37.4843149,126.8890878,중식,0,0,0
가리봉동,서울특별시 구로구 신도림로11라길 60 (신도림동),금삼각식당,37.5114509,126.880515,중식,0,0,1
구로동,서울특별시 구로구 구로중앙로 29 (구로동),청도,37.4925275,126.8907623,중식,3,11,30
신림동,"서울특별시 구로구 디지털로26길 5, 에이스하이엔드타워1차 지상1층 101호 (구로동)",희래원,37.4816106,126.8934794,중식,2,1,0
미아동,"서울특별시 구로구 디지털로 306, 대륭포스트타워2차 1층 106호 (구로동)",중국성,37.4859916,126.8977359,중식,3,1,0
신림동,"서울특별시 금천구 가마산로 96 (가산동,대륭테크노타운8차 105호 (가산디지털2길11))",사천짜장오천짬뽕,37.4852606,126.8774699,중식,0,0,0
독산동,서울특별시 구로구 구로중앙로19가길 9 (구로동),경성양꼬치,37.4942297,126.8890239,중식,5,1,0
독산동,서울특별시 구로구 구로동로 5 (가리봉동),대흥반점,37.4824408,126.8869487,중식,0,0,1
연남동,"서울특별시 구로구 신도림로11길 45 (신도림동,, 1층)",홍대교동짬뽕,37.5093721,126.8782178,중식,2.6,12,15
동자동,"서울특별시 광진구 자양번영로1길 18, 1층 (자양동)",홍짜장,37.5308337,127.0739451,중식,4.3,12,10
방학동,"서울특별시 구로구 디지털로32나길 8, 1층 (구로동)",한강반점,37.4835097,126.900277,중식,0,0,0
중계동,"서울특별시 구로구 구로동로28길 25 (구로동, 2층)",한강,37.490889,126.8855666,중식,3.3,4,0
수하동,"서울특별시 구로구 경인로47길 7 (고척동, 1층)",몽중헌 페럼타워,37.4999199,126.8670996,중식,3.6,42,63
염창동,서울특별시 구로구 디지털로32길 97-5 (구로동),온정,37.4833333,126.9006404,중식,0,0,0
홍은동,서울특별시 구로구 가마산로 260 (구로동),만리장성,37.49526,126.8896686,중식,3,3,0
종로6가,서울특별시 광진구 천호대로110길 50 (능동),덕성각,37.5551485,127.0790863,중식,0,0,0
미아동,서울특별시 구로구 도림로 27 (구로동),대성원,37.4868912,126.8877381,중식,2.7,3,0
개봉동,"서울특별시 구로구 경인로 662, 3층 판매301일부호 (신도림동, 디큐브시티)",마라공간,37.5083236,126.8884274,중식,5,2,4
역촌동,"서울특별시 구로구 가마산로 278 (구로동,로얄프라자 101,103,105호)",이상향,37.4960988,126.8913126,중식,3.8,16,63
신정동,서울특별시 구로구 가마산로27길 7 (구로동),도연정,37.4973224,126.8916313,중식,5,1,1
신사동,서울특별시 구로구 구로동로42길 60-4 (구로동),베트남쌀국수 포몬스 압구정로데오점 & 파리에 다녀온 치킨,37.4984303,126.8842807,중식,4,3,20
가산동,"서울특별시 구로구 도림로 15, 2층 다호 (구로동)",만다린,37.4861,126.8870764,중식,4.5,19,14
신수동,"서울특별시 구로구 디지털로31길 38-9, 1층 104호 (구로동, 에이스테크노타워1차)",두찜 마포신수점,37.4860147,126.8932921,중식,3.5,2,0
대림동,"서울특별시 구로구 경인로19가길 14-10 (오류동,(경인로 724-15) 2층)",성해반점,37.4961967,126.8431999,중식,3,1,0
가리봉동,서울특별시 구로구 우마길 22 (가리봉동),고향맛집,37.4810204,126.8884965,중식,0,0,0
흑석동,서울특별시 구로구 구로동로26길 125 (구로동),신룽푸마라탕 중앙대점,37.4898912,126.8910595,중식,4,2,14
충무로1가,서울특별시 광진구 자양로45길 10 (구의동),딤딤섬 신세계본점,37.5516325,127.0915434,중식,2.8,10,48
고덕동,서울특별시 구로구 디지털로27길 49 (가리봉동),동보성,37.4837158,126.8912514,중식,2.8,4,0
자양동,"서울특별시 구로구 구로동로26길 51-7, 1층 101호 (구로동)",얼땅쟈,37.4904614,126.8871896,중식,3.7,11,134
일원동,"서울특별시 구로구 구로동로42길 54-3, 2층 (구로동)",연경,37.4980122,126.884389,중식,2.3,3,3
한남동,"서울특별시 금천구 가산디지털1로 145 (가산동,에이스하이엔드타워3차 106호)",불이아이태원점,37.4781927,126.8816063,중식,5,3,4
서교동,"서울특별시 구로구 우마길 3, 2층 (가리봉동)",남경장,37.4824129,126.8876593,중식,2.9,11,1
청파동2가,"서울특별시 광진구 자양로6길 5 (자양동,(1층))",탕화쿵푸숙대점,37.5320538,127.086308,중식,5,4,29
방배동,"서울특별시 구로구 개봉로5길 44 (개봉동,1층)",다리원,37.4868008,126.8531739,중식,3.7,29,87
상계동,"서울특별시 구로구 구로동로 15-5, 1층 (가리봉동)",홍익짬뽕,37.4829878,126.8864978,중식,4.3,21,38
가산동,서울특별시 구로구 구로동로 9 (가리봉동),홍짜장 가산디지털점,37.4827263,126.8869659,중식,0,0,1
여의도동,"서울특별시 구로구 중앙로3길 50, 가동 지1층 B152호 (고척동, 고척산업용품종합상가)",덕곰탕,37.4998338,126.8609847,중식,3.5,4,3
성내동,"서울특별시 구로구 새말로 102 (구로동,(새말길 102)신도림포스빌1층 146)",황제짬뽕,37.5057801,126.8914054,중식,3.9,8,2
홍제동,"서울특별시 광진구 자양로39길 14, 1층 (구의동)",양자강,37.5491173,127.0885258,중식,0,0,0
응암동,서울특별시 구로구 가마산로 181 (구로동),자금성,37.4920346,126.8819254,중식,3,34,24
남현동,"서울특별시 구로구 구일로4길 66 (구로동,주공일반점포3호)",만경,37.493692,126.876332,중식,3.8,23,35
도곡동,"서울특별시 구로구 디지털로31길 120 (구로동,한신휴플러스상가 217호)",두메,37.4886875,126.8905999,중식,4.6,8,4
명일동,"서울특별시 구로구 디지털로31길 38-9, 지1층 B101호 (구로동, 에이스테크노타워)",옛날손짜장,37.4860147,126.8932921,중식,3.1,17,6
평창동,서울특별시 광진구 자양로18길 16 (구의동),덕성관,37.5375215,127.0844323,중식,2.3,3,0
성수동2가,서울특별시 구로구 가마산로 217 (구로동),용짜장,37.4937438,126.8853182,중식,3.5,14,53
연희동,"서울특별시 구로구 가마산로 191 (구로동,지하1층)",일화성,37.4931245,126.8826596,중식,4.4,7,4
서교동,"서울특별시 구로구 새말로 97 (구로동,신도림테크노마트 10층 058호)",영빈,37.5070143,126.8902633,중식,4.3,7,3
마천동,"서울특별시 광진구 자양로28길 11, 1층 (구의동)",하나로,37.5423983,127.0849999,중식,0,1,0
청담동,서울특별시 구로구 공원로8길 11 (구로동),마오,37.5030582,126.8899365,중식,3.5,66,30
여의도동,"서울특별시 구로구 경인로 173, 1층 (오류동)",홍콩반점0410 여의도2호,37.4947965,126.8404425,중식,3.5,14,6
역삼동,"서울특별시 구로구 구로중앙로 51, 1층 (구로동)",차이,37.4941841,126.8893677,중식,3.7,3,0
북창동,"서울특별시 광진구 천호대로129길 7, 1층 (중곡동)",동서 양꼬치 짬뽕,37.5526133,127.0900468,중식,4.3,3,26
역삼동,서울특별시 구로구 구로동로29길 3 (구로동),베이징코야강남점,37.4910354,126.8836519,중식,3.7,28,22
신림동,서울특별시 구로구 디지털로27길 123 (가리봉동),거목쟁반짜장,37.4847507,126.8872771,중식,0,0,0
중계동,"서울특별시 구로구 구로중앙로28길 73 (구로동, 구로하우비 제105호)",양꼬치가,37.5008621,126.8893263,중식,3.7,3,16
창천동,"서울특별시 구로구 고척로 129, 1층 (개봉동)",복성각,37.5024346,126.8483787,중식,3,132,29
양재동,"서울특별시 구로구 가마산로26길 5, 로제리움2차 1층 102호 (구로동)",희래등,37.4960142,126.8910628,중식,3.5,3,0
중곡동,"서울특별시 구로구 디지털로 300 (구로동, 지밸리비즈플라자 2층 203호)",양자강,37.4850307,126.8966116,중식,1.9,16,6
을지로5가,서울특별시 구로구 경인로 213-1 (오류동),아리산,37.4966102,126.8446448,중식,2.8,4,1
하월곡동,서울특별시 광진구 자양로18길 53 (구의동),마동장,37.5381873,127.0863927,중식,3,3,0
망우동,"서울특별시 구로구 경인로33길 66, 1층 (고척동)",짬뽕9단,37.5008818,126.8511885,중식,3.3,12,13
대림동,"서울특별시 구로구 경인로35길 113-5, 1층 102호 (고척동)",대초원샤브샤브,37.5013428,126.8518546,중식,0,0,1
연건동,"서울특별시 광진구 천호대로125길 72, 1층 (중곡동)",국빈,37.5575871,127.0873095,중식,3.1,14,6
서초동,"서울특별시 구로구 경인로43길 18, 2층 (고척동)",인생짬뽕,37.4974424,126.862086,중식,0,0,0
면목동,"서울특별시 구로구 고척로21길 31 (개봉동,.  1층)",마장소곱창,37.5029537,126.8455961,중식,0,0,8
면목동,"서울특별시 구로구 경인로 240, 101동 1층 104호 (오류동, 예성 라온팰리스)",스타면,37.4974382,126.8472908,중식,0,0,0
고척동,서울특별시 구로구 구로동로 215-1 (구로동),대연각,37.4978591,126.8822956,중식,3.2,12,17
서초동,"서울특별시 광진구 자양로 244, 1층 (구의동)",홍콩반점 0410,37.5481677,127.0890276,중식,2,18,10
아현동,서울특별시 구로구 오리로 1154-15 (오류동),양정원,37.4876018,126.8391188,중식,2.5,2,0
상계동,"서울특별시 금천구 가산디지털1로 131, B120호 (가산동, BYC HIGHCITY)",인생마라 노원본점,37.4770424,126.8819679,중식,0,0,1
역삼동,서울특별시 구로구 구로중앙로 103 (구로동),리원,37.4981438,126.8860873,중식,2.8,9,11
대림동,서울특별시 구로구 고척로 128 (개봉동),고향풍미,37.5020295,126.8480988,중식,0,0,0
역삼동,서울특별시 구로구 구로중앙로 8 (구로동),짜짜루,37.4912335,126.8926735,중식,5,3,2
양재동,서울특별시 광진구 자양로 294 (구의동),훠궈 샤브샤브,37.5517662,127.0923552,중식,4.6,7,24
제기동,"서울특별시 구로구 구로중앙로21길 50, 1층 (구로동)",해곤선생,37.4957682,126.8853681,중식,3.8,4,4
문정동,"서울특별시 구로구 부일로17길 49, 1층 (궁동)",차이킹,37.4948489,126.8331266,중식,3,1,0
자양동,"서울특별시 구로구 디지털로 288, 지하1층 B116-1호 (구로동)",작은양꼬치,37.4837318,126.8953657,중식,5,1,3
목동,서울특별시 광진구 자양로18길 37 (구의동),락앤웍,37.5379679,127.0855827,중식,3.6,12,6
봉천동,서울특별시 광진구 자양번영로 56 (자양동),빈이네양꼬치,37.5344875,127.0762899,중식,4.7,9,10
신림동,"서울특별시 구로구 디지털로 243, 지하이시티 1층 107호 (구로동)",시장탕수육,37.4819922,126.892349,중식,3.9,14,17
역삼동,"서울특별시 구로구 디지털로27다길 61, 1층 (구로동)",대려도,37.4869402,126.8900344,중식,3.9,41,29
신대방동,"서울특별시 구로구 디지털로33길 11 (구로동, 비101호)",황금오리,37.4856729,126.8954779,중식,0,0,0
당산동2가,서울특별시 구로구 개봉로 24-2 (개봉동),보련각,37.4878837,126.8565113,중식,5,2,2
여의도동,"서울특별시 광진구 자양로28길 12, 1층 (구의동)",만강홍,37.5422715,127.084896,중식,3.7,9,5
쌍문동,서울특별시 구로구 도림로 8-1 (구로동),락궁,37.4853722,126.8868953,중식,2.2,37,0
신대방동,"서울특별시 구로구 디지털로 288 (구로동, 대륭포스트타워 1차 지하 124,125,126호)",동북선미,37.4837318,126.8953657,중식,0,0,0
구로동,서울특별시 구로구 구로동로 171 (구로동),상하이수타짜장,37.4938244,126.8829272,중식,4.2,5,1
상일동,"서울특별시 구로구 구로동로26길 111, 1층 (구로동)",다래성,37.4902417,126.8902734,중식,2.3,10,31
이태원동,서울특별시 구로구 경인로35길 40 (개봉동),리치몬드,37.4990046,126.854209,중식,5,1,0
창전동,"서울특별시 금천구 가산디지털1로 145 (가산동,에이스하이엔드타워3 109호)",교동짬뽕,37.4781927,126.8816063,중식,3,6,16
을지로4가,서울특별시 광진구 자양로13나길 6 (자양동),송림원,37.5337589,127.0806486,중식,3.2,5,0
자양동,서울특별시 구로구 구로동로18길 16-7 (구로동),중국성,37.4877087,126.8854621,중식,4.2,5,3
대림동,"서울특별시 구로구 경인로33길 37, 지상1층 (개봉동)",윤가네양탕요리,37.4996304,126.8514942,중식,0,0,0
도선동,"서울특별시 구로구 공원로6나길 29-20, 1층 (구로동)",왕십리 마라탕훠궈,37.504991,126.890946,중식,4.3,6,4
구로동,"서울특별시 구로구 중앙로 27, 지상1층 108호 (고척동, 구일상가)",짬뽕상회 신도림점,37.5004907,126.8631474,중식,4.3,3,3
이문동,"서울특별시 구로구 구로중앙로19길 25, 1층 (구로동)",돈카츠.우동.돼랑이우랑이,37.4941223,126.8879162,중식,2.7,13,6
자양동,서울특별시 구로구 디지털로27가길 3-3 (구로동),차우동짜장,37.4838133,126.891799,중식,0,0,4
대림동,"서울특별시 구로구 디지털로34길 55 (구로동,코오롱싸이언스밸리2차 지하114호)",신조개천국,37.4841595,126.8994585,중식,0,0,1
능동,"서울특별시 구로구 디지털로26길 111, 지하1층 B008호 (구로동, 제이앤케이디지털타워)",천미천훠궈,37.4825548,126.8970407,중식,4.8,21,110
가양동,"서울특별시 구로구 디지털로 300 (구로동, 지밸리비즈플라자 지하 1층 B101호)",중국성,37.4850307,126.8966116,중식,3.7,3,6
오금동,"서울특별시 구로구 경인로33길 66 (고척동, 1층일부)",동명원,37.5008818,126.8511885,중식,2.8,4,1
가락동,"서울특별시 구로구 디지털로32길 97-33 (구로동,(창조1길 19))",라화쿵부 가락동점,37.4840414,126.9011375,중식,0,0,3
역삼동,서울특별시 구로구 구로동로 229-1 (구로동),아리산,37.4990639,126.8823111,중식,3.4,9,2
대림동,서울특별시 구로구 경인로47길 14 (고척동),치청춘,37.500236,126.8670771,중식,5,1,3
수유동,"서울특별시 구로구 구로동로 119-2 (구로동, 2층)",짬뽕장이,37.4893019,126.8841599,중식,4.3,16,31
응암동,"서울특별시 광진구 천호대로112길 13 (능동,(1층))",중화각,37.5554331,127.081511,중식,5,1,0
구로동,서울특별시 구로구 신도림로11길 35 (신도림동),심양꼬치,37.5090495,126.878669,중식,0,0,0
역삼동,"서울특별시 구로구 구로동로2길 34, 1층 (가리봉동)",아리스타 커피,37.4844126,126.8882775,중식,4.3,6,9
삼선동4가,서울특별시 구로구 개봉로17길 24 (개봉동),샤해루,37.4916928,126.8544965,중식,4.3,8,4
방화동,서울특별시 구로구 새말로16길 15 (구로동),만나면,37.5049683,126.8906219,중식,5,1,0
마곡동,"서울특별시 구로구 구로동로28길 87 (구로동, 103호)",동천,37.4916401,126.8887038,중식,3.4,12,70
신내동,"서울특별시 구로구 디지털로31길 81, 두산위브상가 2층 207-210호 (구로동)",진,37.4863569,126.8912735,중식,3.8,9,7
성내동,"서울특별시 구로구 구일로8길 92 (구로동,중앙구로하이츠상가 117호)",차이젠,37.4970779,126.8759093,중식,3.8,14,9
봉천동,"서울특별시 구로구 디지털로26길 111, 지하009호 (구로동, 제이앤케이디지털타워)",만리향,37.4825548,126.8970407,중식,0,0,0
상봉동,"서울특별시 구로구 경인로47다길 8, 1층 (고척동)",장가네해물짬뽕,37.5034458,126.8642254,중식,3,6,8
을지로3가,"서울특별시 광진구 자양로22길 8, 1층 (구의동)",안동장,37.5394745,127.0837801,중식,3.4,149,149
창전동,"서울특별시 구로구 중앙로15길 125, 상가동 101호 (고척동,삼익1단지 아파트)",교동마을,37.5075902,126.8524426,중식,2.1,9,29
망우동,"서울특별시 구로구 경인로 192, 지하1층 (오류동, 삼익쇼핑 )",경보장,37.495043,126.8426543,중식,2.4,8,0
신당동,"서울특별시 구로구 경인로38길 13, 상가동 1층 101호 (개봉동, 신개봉삼환아파트)",이화원,37.4968824,126.8576983,중식,3.4,21,34
당산동4가,서울특별시 광진구 자양로18길 45 (구의동),대성루,37.5381284,127.0860771,중식,3,8,1
독산동,"서울특별시 구로구 디지털로 272 (구로동, 한신IT타워 B102-2)",아성원,37.4824913,126.8944086,중식,5,1,1
상계동,"서울특별시 구로구 디지털로32길 79, 2층 203호 (구로동)",라화쿵부상계점,37.4835336,126.8997792,중식,2.5,12,50
미아동,"서울특별시 구로구 디지털로32나길 34 (구로동,3층)",벤투라 커피,37.4843328,126.9010503,중식,3.9,7,17
신림동,"서울특별시 구로구 디지털로 306, B126호 (구로동, 대륭포스트타워2차 )",서경,37.4859916,126.8977359,중식,3.3,3,0
시흥동,서울특별시 구로구 도림로20길 14 (구로동),짬뽕명가,37.489191,126.8921915,중식,4,4,11
남영동,"서울특별시 구로구 경인로20가길 68, 1층 113,114호 (오류동, 오류동행복주택)",요리상점,37.4956902,126.8476987,중식,5,1,0
상도1동,"서울특별시 구로구 경인로 662, 3층 (신도림동, 디큐브시티)",바른탕수육,37.5083236,126.8884274,중식,5,3,0
동자동,"서울특별시 광진구 자양로23길 72, 1,2층 (구의동)",산들바다,37.5434829,127.0838316,중식,4.3,4,5
방배동,서울특별시 구로구 경인로 170 (오류동),연희중식,37.4942915,126.8404028,중식,5,2,1
논현동,서울특별시 구로구 구로동로 203 (구로동),뽕사부,37.4967229,126.8822692,중식,3.2,14,72
신길동,"서울특별시 구로구 가마산로22길 8-2 (구로동,지상1층)",우빈양꼬치,37.4940422,126.8873852,중식,0,0,3
자양동,"서울특별시 구로구 디지털로32나길 7, 1층 (구로동)",명봉반점,37.4836141,126.9000317,중식,3.7,64,413
자양동,"서울특별시 구로구 새말로 102, 신도림포스빌 1층 132호 (구로동)",얼땅쟈,37.5057801,126.8914054,중식,3.7,11,134
서초동,"서울특별시 구로구 경인로40길 11 (개봉동, 영화아파트 상가동 제103호)",초선과여포,37.4963739,126.8601696,중식,3.8,26,114
상수동,"서울특별시 구로구 신도림로 16, 주상가동 1층 102호 (신도림동, 신도림대림1,2차아파트)",맛이차이나,37.5055754,126.8779061,중식,3.5,130,142
안암동5가,"서울특별시 구로구 디지털로31길 53 (구로동,이앤씨타워5차 104호)",미스터왕,37.4856903,126.8924453,중식,3.8,11,3
금호동4가,"서울특별시 광진구 자양로28길 18, 1층 (구의동)",금수원,37.5421807,127.0851648,중식,5,2,1
대림동,서울특별시 구로구 경인로15길 80-4 (오류동),연길양꼬치,37.4972176,126.8370493,중식,0,0,0
서교동,서울특별시 구로구 안양천로537가길 6 (고척동),홍대이찌멘,37.5009635,126.8689689,중식,2.9,20,27
서초동,서울특별시 구로구 경인로40길 20 (개봉동),란꾸이팡,37.4960413,126.8587379,중식,3.1,8,22
성내동,서울특별시 구로구 구로동로28길 9 (구로동),2.5 짜장,37.4908811,126.8846819,중식,3.8,12,15
충무로2가,"서울특별시 구로구 경인로 433-1, 1층 (고척동)",아이샹 마라탕,37.4998057,126.867025,중식,5,2,8
청운동,"서울특별시 광진구 천호대로111길 41, 1층 (중곡동)",중국,37.5582796,127.082811,중식,4.3,43,31
화곡동,"서울특별시 구로구 구로중앙로 43 (구로동, B동4,5호)",홍콩반점0410 까치산역점,37.493595,126.8898707,중식,2.8,12,16
개봉동,"서울특별시 구로구 구로중앙로 223, 1층 (구로동)",두만강양꼬치샤브샤브,37.5054551,126.8765387,중식,4.5,11,8
신길동,"서울특별시 구로구 우마길 11-1, 2층 (가리봉동)",쏘핫마라탕,37.4818616,126.8881019,중식,4.5,2,2
불광동,"서울특별시 광진구 자양로43길 48, 3층 301호 (중곡동, 태광빌딩)",스시도,37.5527771,127.0903342,중식,4.1,21,11
익선동,"서울특별시 구로구 고척로21길 29, 지1층 (개봉동)",희래성,37.502794,126.8456731,중식,3.2,12,3
성수동2가,"서울특별시 구로구 개봉로1나길 6, 1층 (개봉동)",차이나플레인,37.4839175,126.8536801,중식,1.9,15,67
오류동,서울특별시 구로구 오리로20길 44 (궁동),동해루,37.4976343,126.8314814,중식,2.6,5,0
신정동,"서울특별시 구로구 경인로19길 26-3, 1층 (오류동)",산동성 중화요리,37.4970107,126.8426746,중식,3,3,0
가산동,서울특별시 구로구 새말로 22 (구로동),궁정짬뽕,37.5020834,126.8835417,중식,0,0,0
목동,"서울특별시 광진구 자양로15길 43, 1층 (자양동)",동천홍,37.5353598,127.0813549,중식,3.4,5,1
여의도동,"서울특별시 광진구 자양로32길 32, 1층 (구의동)",왕산,37.5441931,127.086801,중식,2.4,9,31
저동2가,"서울특별시 광진구 자양로13길 62, 1층 (자양동)",제일호,37.533899,127.0812273,중식,3,2,2
신당동,서울특별시 광진구 자양번영로11길 19 (자양동),보보챠이나,37.5371376,127.0756615,중식,4.1,15,21
대림동,서울특별시 구로구 개봉로23길 46 (개봉동),신흥원,37.4963455,126.8567365,중식,3.3,27,7
대치동,"서울특별시 구로구 구로중앙로14길 19 (구로동, 102호)",옛날손짜장,37.4934673,126.8917551,중식,3,2,5
창동,"서울특별시 구로구 경인로 556 (구로동, 성신빌딩)",한스친친,37.5024525,126.8794147,중식,2.2,9,55
시흥동,서울특별시 구로구 구로동로 73 (구로동),보배반점 시흥점,37.4853016,126.8857161,중식,5,1,12
상계동,"서울특별시 구로구 구로동로 15-5, 1층 (가리봉동)",홍익짬뽕,37.4829878,126.8864978,중식,4.3,21,38
영등포동6가,"서울특별시 구로구 고척로 238, 101동 1층 3호 (고척동, 하이리빙아파트)",황제짬뽕,37.5061969,126.8593896,중식,3.6,5,7
영등포동4가,"서울특별시 구로구 구로중앙로28길 53-8 (구로동,(운정길 6))",신차이타임스퀘어점,37.5004199,126.8883789,중식,2.9,19,74
방학동,"서울특별시 구로구 디지털로32나길 26 (구로동, 2층)",윤짬뽕,37.4841701,126.9008989,중식,4.7,28,50
대림동,"서울특별시 구로구 고척로33길 11, 1층 (고척동)",십리향,37.5031528,126.8488991,중식,0,0,0
