소재지전체주소,도로명전체주소,사업장명,위도,경도,업태구분명,kakao_star,kakao_star_nums,kakao_blog_review
영등포구,"서울특별시 성북구 오패산로 46 (하월곡동, 두산@부상가104호)",만복국수여의도역점,37.6070692,127.0387215,한식,3.3,4,2
송파구,"서울특별시 성북구 삼선교로24길 51 (삼선동5가,1층)",핀치,37.5881832,127.0169436,한식,0,0,0
중랑구,"서울특별시 송파구 석촌호수로 210, 지하1층 22호 (석촌동, 석촌호수효성해링턴타워)",그린하우스,37.5065795,127.1003607,한식,5,1,0
영등포구,서울특별시 서대문구 연세로5가길 28 (창천동),명가칼국수,37.5574211,126.9351622,한식,3.7,3,4
영등포구,"서울특별시 송파구 오금로13길 9, 석정빌딩 지하1층 10호 (방이동)",지평선닭곰탕,37.5134283,127.108711,한식,4.2,9,4
중구,"서울특별시 마포구 망원로 19 (망원동,107호)",이조갈비,37.5563112,126.8991161,한식,4.3,3,12
중구,서울특별시 송파구 올림픽로12길 16 (잠실동),국고집,37.510148,127.0829881,한식,4.3,22,61
종로구,서울특별시 성북구 동소문로20길 29 (동선동1가),소담,37.5913486,127.0169244,한식,0,0,0
서초구,"서울특별시 송파구 석촌호수로12길 10 (잠실동,1층)",샛집남원추어탕,37.5092385,127.0853258,한식,3.3,3,2
은평구,"서울특별시 송파구 중대로18길 6, 지상1층 (가락동)",해송면옥,37.4977282,127.1261227,한식,5,1,0
서초구,"서울특별시 성동구 상원4길 4, 2층 (성수동1가)",진대감,37.5473619,127.0488158,한식,3.8,56,100
동대문구,"서울특별시 성동구 아차산로13길 23-1, 지상1층 (성수동2가)",명륜진사갈비 신설동점,37.545466,127.0613346,한식,2.9,13,2
은평구,"서울특별시 서초구 올림픽대로 2085-14, 채빛섬 1층 (반포동)",국수 가,37.5124526,126.995981,한식,3.6,14,39
용산구,"서울특별시 서초구 바우뫼로41길 13, 1층 (양재동)",상차림,37.4811194,127.0410165,한식,4.3,6,6
은평구,"서울특별시 서대문구 이화여대7길 14, 1호 1층 (대현동)",고기요,37.5588249,126.9449564,한식,5,1,1
서대문구,"서울특별시 서초구 서운로6길 26, 1층 (서초동)",홍제닭한마리,37.485536,127.0308258,한식,0,0,0
중랑구,"서울특별시 성동구 행당로17길 22 (행당동, 행당동 292-45 지상1층)",대명이네해장국,37.5602408,127.033233,한식,5,1,0
성북구,"서울특별시 송파구 송파대로 167, 문정역테라타워 B동 1층 127호 (문정동)",백이손두부,37.4846615,127.1209336,한식,0,0,8
중랑구,서울특별시 성동구 청계천로10나길 80 (마장동),한도니,37.5701204,127.0372403,한식,3.6,11,33
중구,"서울특별시 송파구 성내천로21길 12 (마천동,외1필지 신동아아파트상가 101호)",조선마루,37.5004316,127.1447443,한식,0,0,3
강동구,"서울특별시 송파구 풍성로 27-1, 1층 (풍납동)",여로집 천호점,37.534784,127.1158216,한식,3,2,15
서초구,서울특별시 송파구 가락로 257 (방이동),본죽 방배상문고점,37.5109538,127.1184693,한식,4,6,1
서대문구,"서울특별시 성동구 용답중앙15길 9-1 (용답동, 58-4 지상1층)",고향전집,37.5645308,127.0534495,한식,0,0,0
광진구,"서울특별시 도봉구 도봉로169나길 12, 1층 (도봉동)",강희자얼큰손만두국,37.6791633,127.0434773,한식,4.4,8,27
서대문구,서울특별시 송파구 삼학사로11길 14 (삼전동),주당,37.5016628,127.0954449,한식,0,0,0
영등포구,"서울특별시 서대문구 연희로 94, 지상2층 (연희동)",행운식당,37.5663627,126.9307798,한식,0,0,0
송파구,"서울특별시 성동구 매봉길 13, 상가동 지하4층 422호 (옥수동, 래미안 옥수리버젠)",장지생꼬치구이,37.5453087,127.0156973,한식,0,0,0
종로구,"서울특별시 송파구 올림픽로 295, 지하1층 (신천동, 삼성생명 잠실사옥)",포차싸롱,37.5149274,127.1032491,한식,0,0,0
중구,"서울특별시 송파구 올림픽로 348 (방이동,2층.3층.4층)",진땡이순대국,37.5159235,127.1090032,한식,3.7,18,3
양천구,서울특별시 서초구 사평대로57길 58 (반포동),장원가마솥순대국,37.5068486,127.0225607,한식,4.6,9,2
강동구,"서울특별시 양천구 목동중앙서로 40 (목동,(1층))",동래 파전,37.5328574,126.8682619,한식,0,0,1
양천구,"서울특별시 서초구 신반포로 45 (반포동,(1층 주택 6호))",골목길연탄구이,37.5040998,126.9899654,한식,4.7,3,2
광진구,"서울특별시 성동구 왕십리로22길 10-1 (도선동,(지상1층))",조가네석쇠한판,37.5629086,127.0348911,한식,0,0,0
서초구,"서울특별시 송파구 마천로41길 22, 지상1층 102-1호 (마천동)",산골짜기 다람쥐,37.4969175,127.1499552,한식,4,2,2
송파구,"서울특별시 서초구 서초중앙로 14, 지하1층 (서초동)",송파해물탕,37.4836095,127.0178819,한식,3.9,13,18
서대문구,"서울특별시 서초구 서초대로75길 37, 1층 (서초동, 제이와이빌딩 주건축물제1동)",지호한방삼계탕 연희점,37.5007369,127.0247641,한식,3.3,8,7
종로구,"서울특별시 송파구 송이로23길 10, 지상1층 (가락동, 무지개빌딩 )",숙성의 미 껍데기 익선점,37.4952346,127.1245773,한식,3.5,4,26
강서구,서울특별시 송파구 토성로15길 3-3 (풍납동),명동김밥,37.5293235,127.1169501,한식,4.7,11,16
강남구,"서울특별시 성동구 연무장15길 11, 가동 1층 B101호 (성수동2가)",정 한뿌리죽 삼성점,37.54283,127.0589872,한식,0,0,10
서초구,"서울특별시 서초구 태봉로 68, 우면프라자Ⅱ 1층 104호 (우면동)",본 가마 순대국,37.4643185,127.0253426,한식,2.5,2,7
성동구,"서울특별시 마포구 월드컵북로42다길 28, 지1층 (상암동)",산메촌,37.5762341,126.8969904,한식,0,0,38
중구,"서울특별시 마포구 양화로16길 34, 101호 (서교동)",재정이네,37.5528847,126.9213479,한식,0,0,0
노원구,"서울특별시 성동구 연무장7가길 10, 1층 (성수동2가)",먹쉬돈나,37.5429074,127.0553365,한식,4.3,4,12
중랑구,"서울특별시 송파구 오금로59길 10, 1층 (거여동)",소육옥,37.4942839,127.144345,한식,0,0,5
송파구,"서울특별시 성동구 용답중앙15길 10, 지하1층 (용답동, 14-8)",신사 소곱창,37.5642313,127.0536277,한식,2.3,3,48
성동구,"서울특별시 마포구 토정로37길 46, 지1-동 5호호 (도화동,정우)",원할머니보쌈,37.5426083,126.9473125,한식,2.3,8,15
은평구,"서울특별시 마포구 동교로23길 64, 지층 (연남동)",싱싱바다 오징어,37.558557,126.91893,한식,5,1,0
양천구,"서울특별시 서초구 강남대로65길 10, 3층 (서초동)",아우네매운갈비찜,37.5005009,127.0249641,한식,1,1,1
중랑구,"서울특별시 서초구 효령로31길 19, 2층 (방배동)",두채사랑 전주콩나물 국밥,37.4820404,126.9961498,한식,4.9,17,6
용산구,"서울특별시 마포구 임정로 51-1, 1층동 (신공덕동)",더함,37.5444514,126.9576515,한식,3.3,39,37
성북구,"서울특별시 송파구 삼전로 91, 지상1층 (잠실동)",청기와,37.5066634,127.0896109,한식,0,0,0
중구,서울특별시 마포구 월드컵북로 125 (성산동),"종로칼국수,손만두",37.5640934,126.9125864,한식,5,2,1
은평구,"서울특별시 마포구 동교로29길 32 (연남동, 1층 일부)",마포구이마당,37.5619309,126.9232802,한식,3.9,25,218
서초구,"서울특별시 송파구 가락로16길 2-6, 지상1층 (석촌동)",진대감강남역교보타워,37.5010417,127.1081235,한식,4.1,18,98
송파구,서울특별시 성동구 마조로3가길 30 (행당동),LA갈비찜닭&냉면,37.5598138,127.0403235,한식,0,0,1
동대문구,"서울특별시 성동구 왕십리광장로 17, 1층 C-02호 (행당동, 왕십리민자역사)",인생설렁탕 경희대점,37.5614086,127.0384812,한식,4.3,7,17
종로구,"서울특별시 송파구 오금로53길 55, 1층 101호 (거여동)",별미곱창,37.498752,127.1448317,한식,4.2,14,38
영등포구,"서울특별시 서대문구 연희맛로 38, 지하1층 (연희동)",우산속,37.5681844,126.9311788,한식,0,0,0
영등포구,"서울특별시 송파구 가락로 136, 지상1층 (송파동)",춘천1번지닭갈비,37.5021554,127.1111499,한식,0,0,3
종로구,"서울특별시 마포구 희우정로 127 (망원동,1층)",전라도 밥상,37.5556532,126.8993685,한식,3.9,9,13
강서구,서울특별시 성동구 성수일로12길 19-1 (성수동2가),독한도깨비족발,37.5484365,127.0534522,한식,3.7,3,0
서초구,"서울특별시 성동구 무학봉15길 26-1, 1층 6호 (하왕십리동)",전주콩뿌리콩나물국밥,37.5635684,127.0304706,한식,3.3,5,13
양천구,서울특별시 서초구 강남대로8길 16-3 (양재동),기찬매운닭발,37.4680761,127.0420919,한식,0,0,13
종로구,"서울특별시 송파구 올림픽로 240, 롯데백화점 잠실점 지하1층 (잠실동)",백련,37.5110794,127.0981638,한식,2,2,0
구로구,"서울특별시 양천구 신정중앙로 16, 2층 (신정동)",찌개명가,37.5276387,126.8533683,한식,3,4,6
종로구,서울특별시 성북구 동소문로20가길 36 (동선동1가),서대포집,37.5930156,127.0182573,한식,3.8,31,81
서대문구,"서울특별시 마포구 잔다리로 65, 2층 (서교동)",엔터,37.5534499,126.9171008,한식,5,1,0
서대문구,"서울특별시 송파구 양재대로72길 18, 현대백조아파트 상가2동 1층 104호 (오금동)",모래내돼지갈비,37.5090801,127.1287636,한식,0,0,2
종로구,서울특별시 성동구 장터길 51 (금호동3가),동북화과왕,37.548428,127.0216681,한식,3.7,49,45
송파구,"서울특별시 서초구 서초중앙로6길 5, 지하1, 1층 (서초동)",푸주옥,37.4863683,127.016078,한식,3.1,16,10
송파구,"서울특별시 송파구 백제고분로7길 28-14, 지상1층 (잠실동)",후라이드 참 잘하는집 가락점,37.5100852,127.0820809,한식,4.5,2,2
은평구,"서울특별시 송파구 올림픽로10길 13-1, 지상1층 (잠실동)",별밤호프포차,37.5103178,127.0813439,한식,0,0,0
노원구,"서울특별시 성동구 성수일로6길 53, 유원지식산업센터 1층 103호~107호 (성수동2가)",수유다래함박스텍중계점,37.5442147,127.0557894,한식,3.3,6,9
영등포구,"서울특별시 양천구 남부순환로40가길 6-1, 1층 (신월동)",고돼지영등포점,37.5339756,126.8264233,한식,0,0,3
영등포구,서울특별시 마포구 성미산로 16 (성산동),광명대창집,37.5582652,126.909906,한식,3,9,95
중구,"서울특별시 서초구 서초대로74길 23 (서초동,삼성트라펠리스2 지하 B107)",산유화,37.4956227,127.0271068,한식,4.5,4,1
중랑구,"서울특별시 서초구 효령로 19, 1,2층 (방배동, 지상)",흑구촌생고기,37.4776595,126.9869391,한식,0,0,4
종로구,"서울특별시 서초구 잠원로 51, 뉴코아아울렛 강남점  3관 1층 (잠원동)",눈나무집,37.5092391,127.0074591,한식,3,279,67
영등포구,"서울특별시 서대문구 통일로 374, 가호 (홍제동)",복성미식,37.583719,126.9498005,한식,0,0,0
금천구,"서울특별시 송파구 중대로 56 (문정동,지상1층)",왕돈까스 왕냉면,37.4911853,127.1151282,한식,3.5,2,3
양천구,"서울특별시 서대문구 연세로5다길 9 (창천동,(지상1,2층))",이선생 왕코다리,37.5563039,126.9349397,한식,5,3,3
서대문구,"서울특별시 마포구 만리재옛길 18 (신공덕동, 1층일부)",일미 부대찌개,37.5456076,126.9551769,한식,0,0,1
중구,"서울특별시 송파구 송파대로 111, 송파대로203동 103,104호 (문정동, 파크하비오 하비오길)",탐닉,37.4805094,127.1232611,한식,0,0,0
강북구,"서울특별시 서대문구 가재울미래로 2, 1층 106-2호 (남가좌동, DMC파크뷰자이)",원할머니보쌈족발 강북미아 배달점,37.5728378,126.9176131,한식,0,0,5
성북구,"서울특별시 서초구 강남대로83길 60, 1층 (반포동)",국밥대장,37.5048939,127.0208209,한식,3,2,3
중구,"서울특별시 성북구 동소문로46길 18, 지하1층 B101호 내 10 호 (하월곡동, 삼전솔하임3차)",홍연,37.606851,127.029956,한식,3.3,3,3
종로구,"서울특별시 성동구 금호산길 71 (금호동2가,지상2층)",라이스스토리,37.5545557,127.0196178,한식,4,1,3
종로구,"서울특별시 송파구 양재대로62길 35, 다우빌딩 2층 (가락동)",남원추어탕,37.4970003,127.1200254,한식,4.3,13,11
중랑구,서울특별시 성북구 보문로38길 29-1 (동소문동5가),김가숯불생고기,37.5912493,127.0155287,한식,0,0,1
중구,"서울특별시 서초구 남부순환로 2614-8, 1층 (양재동)",중림집,37.4843205,127.0363792,한식,5,1,3
송파구,"서울특별시 성동구 마장로 292-1 (마장동, 마장동 792 지상1층)",명동찌개,37.5654946,127.0425026,한식,3.6,7,6
영등포구,"서울특별시 송파구 올림픽로32길 27, 2층 (방이동)",짬뽕의 신화,37.5137978,127.1097789,한식,3.8,13,9
서초구,"서울특별시 성동구 자동차시장1길 90, A동 지하1층 나19호 (용답동)",육대장 양재점,37.5603385,127.0678693,한식,2.8,5,8
중랑구,"서울특별시 성동구 한림말길 31, 상가동 지하1층 20호,24호 (옥수동, 옥수삼성아파트)",완도의맛집,37.5410788,127.0146042,한식,0,0,2
강남구,서울특별시 양천구 신월로15길 2 (신월동),육시리 ,37.5189203,126.842188,한식,3,16,125
종로구,"서울특별시 마포구 어울마당로 126 (서교동, 3층)",팔오삼,37.5555726,126.9240863,한식,4.1,27,159
중구,서울특별시 성북구 종암로21길 81-4 (종암동),톡톡,37.601878,127.0318159,한식,0,0,1
강서구,서울특별시 송파구 중대로9길 21 (가락동),화리불감자탕,37.4950061,127.1189727,한식,3.7,3,75
은평구,"서울특별시 서초구 남부순환로356길 15 (양재동,1층 106호일부)",다인,37.4843263,127.0379729,한식,3.4,5,0
용산구,서울특별시 서대문구 응암로 116 (북가좌동),배불뚜기,37.5827034,126.9137185,한식,0,0,0
관악구,"서울특별시 성동구 아차산로 96, 지상1층 (성수동2가, 신성빌딩)",홍두깨손칼국수,37.5445542,127.0544205,한식,4.2,5,11
용산구,"서울특별시 서초구 올림픽대로 2085-14, 가빛섬 1층 (반포동)",을지문,37.5124526,126.995981,한식,0,0,2
중구,"서울특별시 마포구 서강로11길 28, 1층 103호 (창전동)",명동부산집,37.5539798,126.9322737,한식,3.9,18,29
강북구,"서울특별시 양천구 신목로5길 13, 1층 (신정동)",청아대,37.51766,126.8725466,한식,0,0,0
영등포구,"서울특별시 서대문구 홍은중앙로3길 9, 상가동 지하2층 114호 (홍은동, 북한산 두산 위브)",회랑 꾸이랑,37.598222,126.9452041,한식,3,4,2
성동구,서울특별시 마포구 양화로18안길 20 (동교동),동이나,37.5567528,126.9256971,한식,0,0,0
영등포구,"서울특별시 송파구 송이로32길 37, 201동 10호 (문정동, 문정푸르지오상가)",카페젤코바,37.4869712,127.1276788,한식,3,1,0
송파구,"서울특별시 서초구 효령로 292, 1층 111-1호 (서초동, 남부터미널)",호남식당,37.4835466,127.0151108,한식,5,1,2
송파구,"서울특별시 서초구 성촌1길 6, 지하1층 (우면동)",둘둘치킨,37.4658335,127.0224196,한식,4.3,3,0
용산구,"서울특별시 서초구 언남길 82, 101호 (양재동)",씨제이프레시웨이,37.4751741,127.0457669,한식,0,0,0
중구,서울특별시 송파구 토성로 59 (풍납동),산첩첩물첩첩,37.5291789,127.1167852,한식,4,3,10
송파구,"서울특별시 성북구 고려대로13길 33, 1층 (안암동1가)",풍년,37.5879511,127.0228107,한식,3.3,110,74
송파구,"서울특별시 성동구 아차산로 126, 더리브 세종타워 지1층 105호 (성수동2가)",해 뜨는 집,37.5434989,127.058054,한식,0,0,0
서초구,"서울특별시 송파구 강동대로9길 16, 지상1층 (풍납동)",스노우폭스 반포센트럴시티점,37.527683,127.1167167,한식,3,12,35
강남구,"서울특별시 서대문구 독립문로14길 3, 돈의문센트레빌 상가 1층 103호 (냉천동)",두찜 강남역삼점,37.5668145,126.9639873,한식,2.8,4,10
종로구,"서울특별시 송파구 올림픽로35길 112, 장미아파트 비상가 1동 지층 16-1호,16-2호 (신천동)",식야주야,37.517819,127.1017233,한식,0,0,3
종로구,"서울특별시 송파구 법원로4길 6, 문정아이파크 1동 304호 (문정동)",옛고을,37.4823178,127.12211,한식,0,0,1
양천구,"서울특별시 서초구 신반포로 194, 지하1층 8-1,2,3,4,5호 (반포동, 서울고속버스터미널 본관동)",고기식탁,37.50568,127.0058468,한식,5,13,6
성북구,"서울특별시 성동구 금호산길 66-1, 2층 202호 (금호동2가)",춘향골남원추어탕 성북구청점,37.554059,127.0196887,한식,3.5,11,15
성동구,"서울특별시 송파구 올림픽로12길 4-25, 지상1층 (잠실동)",돈구어,37.5111151,127.0813557,한식,5,3,249
중랑구,"서울특별시 서초구 서초대로 339, 지하1층 (서초동)",마포껍데기,37.4954233,127.0185275,한식,4.5,8,6
성동구,"서울특별시 서초구 서초대로48길 34 (서초동,(지하1층))",개성상인,37.4913004,127.0117696,한식,0,0,26
서대문구,서울특별시 송파구 백제고분로39길 14 (석촌동),동신병원장례식장,37.5056193,127.1048447,한식,3.7,3,36
영등포구,"서울특별시 성동구 마장로 137, 403동 1층 129호 (상왕십리동, 텐즈힐)",고향,37.5692575,127.0248134,한식,4.1,12,9
중구,서울특별시 마포구 증산로 87 (성산동),맥주창고,37.5703467,126.8950314,한식,4.3,3,0
중랑구,"서울특별시 서초구 효령로68길 88, 1층 (서초동)",다담2900,37.4855526,127.0201589,한식,2,7,8
강동구,서울특별시 서대문구 거북골로 152 (북가좌동),아빠찜,37.5755884,126.9129773,한식,3,2,6
영등포구,"서울특별시 송파구 석촌호수로 204, 지상1,2층 (석촌동)",새벽감자탕,37.5063149,127.0999556,한식,4.2,5,9
서초구,"서울특별시 성북구 보문로 103, 1층 (보문동2가)",락락소풍,37.5843828,127.0196564,한식,3.8,4,2
종로구,서울특별시 성북구 돌곶이로 43 (석관동),오징어와 불고기,37.6079058,127.0598449,한식,3,1,1
서대문구,"서울특별시 성북구 삼양로 82, 1층 102호 (길음동)",푸주네 한도올,37.6106658,127.0226508,한식,4.8,12,3
동대문구,"서울특별시 양천구 신월로 105, 서경빌딩 1층 102호 (신월동)",경호야,37.5161393,126.8356487,한식,4.1,10,17
중구,"서울특별시 서초구 서초중앙로 58, 지하2층 201호 (서초동, 피앤디솔로빌)",전원식당,37.4871437,127.0155949,한식,0,0,0
송파구,서울특별시 성북구 동소문로43가길 6 (길음동),독도쭈꾸미,37.607039,127.0275528,한식,0,0,9
서대문구,"서울특별시 성동구 왕십리로21길 19, 1층 (행당동)",서울아구찜,37.5606951,127.0327718,한식,5,2,1
중랑구,"서울특별시 성동구 자동차시장1길 70, 제비호 별동 지하1층 1,2호 (용답동)",풍년곱창,37.5603281,127.0651626,한식,5,5,0
은평구,"서울특별시 마포구 와우산로 171 (동교동,지1층)",소문난순대집,37.5561526,126.9309573,한식,3.5,16,26
성동구,서울특별시 마포구 신촌로 84 (노고산동),호랑이식탁,37.555557,126.9349628,한식,4.5,8,15
중구,"서울특별시 서대문구 통일로 350, 1층 (홍제동)",대청마루,37.581657,126.9510119,한식,3,5,11
서초구,"서울특별시 서대문구 연세로11길 5, 2층 (창천동)",강남대가,37.5588821,126.936472,한식,3,2,1
종로구,서울특별시 성북구 장위로13길 1 (장위동),마타,37.6144317,127.0409299,한식,0,0,0
종로구,"서울특별시 마포구 서강로9길 56, 102호 (창전동, 송우빌딩)",청일식당,37.554608,126.9307403,한식,2.3,30,19
용산구,"서울특별시 마포구 방울내로 57-5, 1층일부 (망원동)",풍년숯불갈비,37.5598038,126.9016926,한식,0,0,4
송파구,"서울특별시 서초구 사평대로 205, 1층 FP114호 (반포동, 센트럴시티 파미에스테이션)",을지로 골뱅이,37.5044921,127.0078453,한식,5,1,1
은평구,"서울특별시 서대문구 통일로 475, 1층 제1호 (홍제동)",응일생고기,37.5904166,126.9419779,한식,0,0,1
성북구,"서울특별시 성북구 오패산로4길 52, 1층 (하월곡동)",미운오리,37.603973,127.0404451,한식,4.3,9,12
강동구,"서울특별시 양천구 남부순환로 397 (신월동,지하1층( 남부순환로 397 ))",숙성명가,37.532156,126.8312647,한식,3,2,3
영등포구,"서울특별시 마포구 상암산로 38, 상암JTBC빌딩 지하1층 (상암동)","꼬꼬야,숯불뜨겁니!",37.5766141,126.8896932,한식,4.8,4,0
강동구,"서울특별시 양천구 가로공원로 161, 지상1층 102호 (신월동, 에스케이이팰레스)",진미숯불닭갈비,37.5369718,126.8338652,한식,4.6,5,2
은평구,서울특별시 서대문구 명지대길 14 (홍은동),마루,37.580968,126.9251027,한식,4.7,3,0
성동구,"서울특별시 마포구 와우산로 111, 지하2층 (서교동)",로스2000,37.5534661,126.9257305,한식,0,2,1
성동구,"서울특별시 서초구 서초대로50길 75 (서초동,1층)",문화식당,37.4898612,127.0138664,한식,4.1,81,237
송파구,"서울특별시 서초구 남부순환로 2583, 지하 1층 B101호, B102호, B103호 (서초동)",설악골추어탕,37.4847485,127.0329683,한식,3.5,4,2
서대문구,서울특별시 성북구 성북로2길 56 (동소문동1가),포차 식당,37.5900299,127.0087601,한식,0,0,0
서대문구,"서울특별시 서초구 서운로 184, 105호 (서초동, 주구센타)",동해원,37.4997906,127.0231824,한식,2,1,1
서초구,"서울특별시 서초구 서초중앙로26길 6, 2층 (서초동)",봉추찜닭,37.4952788,127.0139031,한식,2.3,17,19
서대문구,"서울특별시 마포구 새창로 24 (도화동,1층)",장수촌 생오리,37.5418193,126.9526069,한식,4,1,1
종로구,"서울특별시 송파구 법원로 114, C동 117호 (문정동, 엠스테이트)",함남집,37.4857987,127.1206993,한식,4.3,8,17
용산구,"서울특별시 마포구 월드컵북로 396, R200호 (상암동,누리꿈스퀘어 2층)",산꼼장어,37.5793419,126.889819,한식,0,0,0
성동구,"서울특별시 서초구 서초대로50길 94 (서초동,우진빌딩)",대한민국 참치&초밥,37.4890425,127.0136749,한식,0,0,9
양천구,"서울특별시 서초구 방배로6길 10-21, 1층 103호 (방배동, 평산빌딩 )",자연산돌구이삼겹살,37.4783117,127.0007161,한식,1,1,3
송파구,"서울특별시 성북구 동소문로24가길 18, 1층 (동선동1가)",광천상회,37.5915787,127.0193402,한식,0,0,0
서초구,서울특별시 성북구 동소문로 21-1 (동소문동1가),만추,37.5896938,127.0082711,한식,4.7,20,11
송파구,"서울특별시 성동구 고산자로 284, 2층 203호 (행당동)",승일참치,37.5649558,127.0368122,한식,2.9,8,92
종로구,"서울특별시 마포구 와우산로29마길 22 (서교동, 2층)",하늘공원,37.5554343,126.926185,한식,0,0,0
송파구,"서울특별시 성동구 둘레1길 2, 1층 (성수동1가)",족황상제 송파점,37.5376186,127.0456896,한식,5,1,3
송파구,"서울특별시 송파구 백제고분로22길 6, 금성빌딩 1층 (삼전동)",육백집 방이점,37.5033936,127.089129,한식,0,0,26
중랑구,"서울특별시 서초구 잠원로 51, 지하1층 (잠원동, 뉴코아아울렛)","더맛있는족발,보쌈",37.5092391,127.0074591,한식,5,2,19
중랑구,"서울특별시 송파구 삼전로13길 36, 1층 (잠실동)",삼곱식당,37.5081643,127.0862989,한식,4.1,9,42
용산구,"서울특별시 서초구 방배천로2길 12, 1층 (방배동)",나주곰탕,37.4767104,126.9835796,한식,3.3,29,16
서초구,"서울특별시 성북구 돌곶이로 91 (장위동,,124,128)",0,37.6111772,127.0564284,한식,3.8,6,17
송파구,"서울특별시 성동구 자동차시장1길 33 (용답동,지하1층 3호)",신라 샤브,37.5613474,127.0613403,한식,4.5,31,19
용산구,"서울특별시 마포구 모래내로9길 6, 상가동 102호 (성산동, 월드컵아이파크)",정가네,37.5677738,126.9146229,한식,0,0,2
서초구,서울특별시 송파구 동남로6길 6 (문정동),신신닭발,37.489634,127.1241531,한식,1.5,2,2
송파구,"서울특별시 성동구 용답19길 10-2, 1층 (용답동)",명륜진사갈비,37.5630967,127.0523009,한식,2.5,18,37
광진구,"서울특별시 성동구 왕십리로 311-1, 지하1층 (행당동)",건대고기,37.5616027,127.0345285,한식,5,5,41
용산구,"서울특별시 마포구 와우산로 39-21 (상수동, 지하1층 일부)",이웃집영준이,37.5481634,126.9221649,한식,3.3,13,67
성동구,"서울특별시 서초구 신반포로47길 77, 101호 (잠원동)",나주곱창,37.5138304,127.0184961,한식,4,19,11
양천구,서울특별시 송파구 삼전로12길 9 (삼전동),미성숯불갈비,37.5063756,127.091344,한식,4,4,2
성북구,"서울특별시 송파구 백제고분로19길 18, 지하1층 (잠실동)",초원아구찜,37.5063728,127.0872504,한식,3,2,1
중구,"서울특별시 서대문구 통일로9안길 39, 1~2층 (충정로2가)",졍동국시,37.5658878,126.9658389,한식,3.5,37,8
서초구,"서울특별시 송파구 마천로61길 28, 1층 (마천동)",두껍삼 강남직영점,37.4941925,127.1551626,한식,3.5,32,155
종로구,"서울특별시 성북구 삼양로13길 45, 길음뉴타운,e편한세상단지내상가 109호 (길음동)",지리산 흑돼지,37.610739,127.0196773,한식,0,0,1
양천구,"서울특별시 송파구 송파대로 201, 송파 테라타워2 에이동 지1층 111호 (문정동)",엄지우동,37.4878287,127.1206324,한식,0,0,0
용산구,"서울특별시 마포구 월드컵북로 118 (성산동,1층)",두꺼비식당,37.5637131,126.9135187,한식,4,2,0
종로구,"서울특별시 마포구 월드컵북로 400, 지층 01호 (상암동, 서울산업진흥원)",청림,37.5803815,126.8899121,한식,0,0,0
양천구,"서울특별시 성동구 무학로2나길 1 (도선동,지상1층)",우정식당,37.5635825,127.0330376,한식,0,0,0
서초구,서울특별시 서초구 서운로1길 12 (서초동),이조감자탕,37.4849403,127.0286143,한식,0,0,6
영등포구,"서울특별시 성동구 아차산로13길 31, 1층 (성수동2가)",다화죽,37.5458975,127.0615277,한식,3.8,26,13
성동구,서울특별시 성북구 회기로3길 2 (종암동),명희네손칼국수,37.5914608,127.0375477,한식,1.5,2,3
양천구,"서울특별시 성동구 뚝섬로1길 53-1, 지하1층 (성수동1가)",장용재두부갤러리,37.5460365,127.0474662,한식,4.8,4,16
중랑구,"서울특별시 서대문구 명물1길 2, 1층 (창천동)",전준수명품청기와감자탕봉화산점,37.557847,126.9373715,한식,3.9,7,5
중구,"서울특별시 마포구 잔다리로 20, 지1층 (서교동, 서진빌딩 )",동아리,37.5509446,126.9208316,한식,3.5,4,3
은평구,"서울특별시 송파구 오금로13길 15, 지하1층 (방이동, 은정빌라)",벤조롱,37.5136167,127.1092901,한식,3.4,5,19
서대문구,"서울특별시 마포구 토정로18길 11, B2동 112호 (현석동, 래미안웰스트림)",고래수산,37.5433497,126.9354096,한식,0,0,0
서초구,"서울특별시 송파구 마천로41길 1 (마천동,(지하1층))",채미가,37.4974251,127.1477889,한식,3,17,49
종로구,"서울특별시 송파구 백제고분로 203 (삼전동,지상1층)",훈이네밥상,37.5041941,127.0894118,한식,2.8,5,2
성북구,"서울특별시 성북구 정릉로 307, 라온유 아파트 상가동 B101,B102호 (정릉동, 라온유 아파트)",목포홍탁,37.6032228,127.0182591,한식,5,1,8
강북구,"서울특별시 양천구 목동중앙서로1길 14, 1층 (목동)",이설면옥,37.5330961,126.8644849,한식,2.7,40,79
서초구,"서울특별시 성동구 동일로 135-1, 전진빌딩 1층 5호 (성수동2가)",담소 소사골순대,37.5447016,127.0650778,한식,3.7,10,12
중구,서울특별시 송파구 오금로27길 4 (방이동),평옥,37.5067531,127.1204501,한식,0,0,1
강남구,"서울특별시 서대문구 가재울로 35, 1층 (남가좌동)",원할머니보쌈족발 대치배달점,37.574694,126.9216842,한식,3.1,7,5
성북구,"서울특별시 성동구 마조로3가길 25 (행당동,(지상2층))",프리스타일,37.5596521,127.0400384,한식,5,2,0
중랑구,"서울특별시 성동구 성덕정3길 12, 1층 (성수동1가)",본죽,37.5399882,127.0477752,한식,2.5,6,0
서초구,"서울특별시 성북구 돌곶이로18길 10-3, 1층 (석관동)",자맛풍,37.6092248,127.0596325,한식,3.3,7,14
성동구,"서울특별시 마포구 와우산로21길 8, 1F동 (서교동)",정다믄 김밥천국 성수점,37.5526166,126.9234887,한식,2,3,2
종로구,"서울특별시 송파구 올림픽로35가길 16, 1층 (신천동, 홈플러스 잠실점)",소문,37.5162262,127.1030142,한식,2.8,7,3
서대문구,"서울특별시 성동구 독서당로 398, 노선상가 3층 301호 (응봉동)",영순이네,37.5508071,127.0322464,한식,2.5,3,2
송파구,"서울특별시 성동구 무학로2길 44, 2층 (도선동, 64)",진이네 한식,37.5626949,127.0343204,한식,4,2,0
서대문구,"서울특별시 송파구 백제고분로45길 12, 1층 102호 (송파동)",월드컵식당,37.5096343,127.1101663,한식,0,0,0
영등포구,"서울특별시 서초구 강남대로2길 17, 1층 (양재동)",대운설렁탕,37.466671,127.0432494,한식,2.1,11,20
강북구,서울특별시 마포구 동교로 94 (서교동),조선감저,37.5542777,126.9126099,한식,4.5,2,3
종로구,"서울특별시 성북구 서경로13길 1, 1층 (정릉동)",명작 신의주 찹쌀순대,37.6086756,127.0152884,한식,5,3,3
성북구,서울특별시 성북구 정릉로38길 8 (정릉동),남원추어탕,37.6018863,127.0186714,한식,4.5,4,3
서대문구,"서울특별시 서대문구 이화여대길 52 (대현동, 이화여대 국제교육관 2~3층)",조선의 육개장 칼국수,37.5617396,126.9472448,한식,3.7,63,97
중랑구,"서울특별시 성동구 뚝섬로 358, 1층 (성수동1가)",고려유황오리전문,37.5398654,127.05048,한식,0,0,1
송파구,"서울특별시 송파구 가락로 176, 지상1층 (송파동)",델리,37.5042203,127.1145662,한식,5,3,0
강남구,"서울특별시 양천구 신월로 167 (신월동, 1층)",이름없는식당,37.5184918,126.8420155,한식,3.1,18,117
중랑구,"서울특별시 서초구 서래로5길 96, 지하 2층 (반포동)",엉터리생고기 상봉점,37.4977587,126.9928567,한식,2.2,12,9
강동구,"서울특별시 양천구 신목로 80 (신정동,1층(천호지길 45-1))",우이동 멸치국수,37.5218662,126.8743889,한식,5,5,7
용산구,"서울특별시 송파구 법원로9길 26, D동 102호 (문정동, 에이치비지니스파크)",길목식당,37.4841717,127.1166254,한식,3.9,11,4
구로구,"서울특별시 송파구 토성로 29-1, 1층 (풍납동)",양평서울해장국&봉평메밀촌,37.5304525,127.113777,한식,3.3,6,17
서대문구,"서울특별시 서대문구 연세로7안길 18, 지층 (창천동)",원할머니보쌈신촌점,37.5581659,126.9358831,한식,3.7,10,2
강남구,"서울특별시 양천구 신목로4길 42-1, 근화빌딩 103호 (신정동)",역삼 통고집,37.5214649,126.8768967,한식,3.3,3,5
종로구,"서울특별시 마포구 와우산로23길 50 (서교동, 지하1층)",세검정,37.5550287,126.9237091,한식,3,3,4
서초구,서울특별시 송파구 가락로11길 25 (석촌동),부산오뎅,37.5026094,127.1038003,한식,1.4,13,9
강서구,"서울특별시 서대문구 성산로 384-2, 1층 (연희동)",대흥 왕족발,37.5626987,126.9308798,한식,5,5,5
중랑구,"서울특별시 성북구 창경궁로43길 10, 1층 (성북동1가)",일미식당,37.5884675,127.0045239,한식,0,0,0
종로구,"서울특별시 서초구 강남대로 567, 1층, 2층, 3층 (잠원동)",노다지식당,37.5123901,127.020088,한식,4,4,7
양천구,"서울특별시 송파구 백제고분로7길 20, 지상1층 (잠실동)",낙원식당,37.5105115,127.0810293,한식,0,0,0
종로구,"서울특별시 마포구 마포대로 49 (도화동, 지하1층4호)",압구정하루,37.5408682,126.9468958,한식,4.6,14,22
중구,서울특별시 서초구 서초중앙로2길 34 (서초동),갯마을낙지,37.4838272,127.0192946,한식,2.5,3,0
용산구,"서울특별시 마포구 와우산로 153 (서교동, 1층)",썬더치킨,37.5547381,126.9298847,한식,3.9,7,0
송파구,"서울특별시 송파구 가락로 90 (석촌동,1층7호)",바다와강,37.5005901,127.1061252,한식,0,0,0
종로구,"서울특별시 성북구 종암로 86, 1층 (종암동)",북바이북,37.5979303,127.0352199,한식,5,2,17
노원구,서울특별시 양천구 가로공원로64길 8 (신월동),500소갈비살,37.5350513,126.827771,한식,0,0,13
서대문구,"서울특별시 성북구 화랑로 109, 1층 (하월곡동)",봄날,37.6040736,127.0436051,한식,3.9,25,78
송파구,"서울특별시 서초구 강남대로95길 48-39, 1층 (잠원동)",신천 풍천 민물장어,37.5134546,127.0165042,한식,0,0,0
송파구,"서울특별시 서대문구 연세로5다길 22-4, 지하1층 (창천동)",고복,37.5567215,126.9345272,한식,1,1,8
서대문구,"서울특별시 서대문구 신촌역로 6, 1층 (대현동)",연향,37.5573623,126.9425246,한식,5,1,0
성북구,"서울특별시 서초구 강남대로10길 6, 지층 (양재동)",전통설렁탕,37.4681182,127.0414584,한식,3,7,2
강남구,서울특별시 양천구 목동중앙남로16가길 32 (목동),서울의 달,37.542966,126.8632094,한식,0,0,0
용산구,"서울특별시 서초구 동산로19길 40-10 (양재동,1층)",옛촌,37.4745613,127.0466366,한식,0,0,0
중랑구,"서울특별시 송파구 오금로 482, 지하1층 (거여동)",한강오리쌈나루,37.4937812,127.1424295,한식,5,1,2
중구,"서울특별시 송파구 올림픽로 300, 롯데월드타워앤드롯데월드몰 5층 (신천동)",사찌꼬,37.5125702,127.1025625,한식,0,0,0
중구,"서울특별시 마포구 포은로2가길 65, B동 (합정동, 1층일부)",찜 . 안동찜닭,37.549501,126.9102811,한식,5,1,4
송파구,"서울특별시 마포구 마포대로20길 25, 101호 (아현동)",의정부전통부대찌게,37.5520611,126.9590201,한식,0,0,0
종로구,"서울특별시 송파구 위례성대로18길 4, 1층 101호 (방이동)",나주집,37.5117906,127.1261266,한식,0,0,2
은평구,"서울특별시 서대문구 통일로 107-39, 1층 102호 (충정로2가)",명가보리밥,37.564201,126.9661196,한식,0,0,0
성북구,"서울특별시 성동구 무학로10길 29 (홍익동,(1층))",영석이네,37.5659159,127.0340876,한식,4.1,8,10
성북구,"서울특별시 송파구 올림픽로 240 (잠실동,롯데월드어드벤쳐내 2층)",천촌,37.5110794,127.0981638,한식,5,2,1
중구,"서울특별시 송파구 송파대로14길 19, 1층 (문정동)",한촌설렁탕 서대문역점,37.4837734,127.1259812,한식,2.4,5,3
은평구,"서울특별시 서초구 강남대로37길 26, 1층 (서초동, 산동빌딩)",두레박,37.4849881,127.032154,한식,5,3,0
영등포구,"서울특별시 송파구 중대로 135 (가락동,아이더벤처타워 지하104호)",만천,37.4951039,127.1224441,한식,5,1,1
강남구,"서울특별시 성동구 연무장15길 11, 가동 1층 B102호 (성수동2가)",0,37.54283,127.0589872,한식,4.8,8,5
영등포구,"서울특별시 성북구 삼선교로23길 23, 상가동 108,109호 (삼선동4가, 코오롱 아파트)",코젤다크하우스,37.5904366,127.0120473,한식,3.2,5,40
강남구,"서울특별시 서대문구 경기대로 59 (충정로2가,(지상1층))",우기식당 육지점,37.564396,126.963591,한식,4.8,9,16
서대문구,"서울특별시 송파구 가락로 94-8, 지상1층 (석촌동)",서촌닭갈비 충정로점,37.5005878,127.1069413,한식,4.5,2,3
은평구,"서울특별시 마포구 성암로 267 (주)문화방송 지하1층 102,103호 (상암동)",가정식백반,37.5811234,126.890989,한식,0,0,0
서초구,"서울특별시 서초구 동광로 31, 1층 (방배동)",중국성,37.4913415,126.9863467,한식,3.2,26,73
서초구,"서울특별시 서초구 방배로13길 15, 1층 (방배동)",봉주르 만두,37.4828476,126.9957154,한식,0,0,0
종로구,서울특별시 송파구 올림픽로32길 13 (방이동),인생극장,37.5149455,127.1093048,한식,0,0,0
성북구,"서울특별시 서초구 방배중앙로 181, 1층 (방배동)",낙원밥상,37.4951523,126.9857233,한식,0,0,0
서초구,"서울특별시 성동구 상원4길 9, 1층 (성수동1가)",부산아지매국밥 BC카드점,37.547293,127.0497012,한식,3.1,10,7
성동구,"서울특별시 서초구 서초대로 3-4, 1층 104,104-1호 (방배동, 방배디오슈페리움1)",성일감자탕,37.4860933,126.9829747,한식,3.5,6,12
성북구,"서울특별시 마포구 서강로 132, BS타워 지1층 (노고산동)",채화정,37.5538428,126.9354741,한식,4.1,17,88
송파구,"서울특별시 송파구 송이로17길 50-28, 1층 (가락동)",가마솥,37.5005288,127.1260966,한식,0,0,4
중랑구,"서울특별시 성동구 성수이로14길 1, 1층 (성수동2가)",미래식당,37.541143,127.0561548,한식,5,1,0
중구,"서울특별시 송파구 석촌호수로 216 (석촌동,(10층))",삼곱식당 약수점,37.5068801,127.1010222,한식,4.6,8,149
성북구,서울특별시 성북구 정릉로 240 (정릉동),둥구리,37.604759,127.0102911,한식,4.3,3,3
양천구,"서울특별시 성북구 아리랑로 25-2 (동소문동6가,지상1층)",우성,37.5952276,127.0157497,한식,4.5,2,3
성동구,"서울특별시 서대문구 충정로 7, 구세군빌딩 지하2층 1호 (충정로3가)",사이야,37.5601211,126.9622691,한식,3,1,1
영등포구,"서울특별시 송파구 송파대로 570, 지하1층 (신천동, 타워730)",통영굴밥,37.5157873,127.0991124,한식,3.4,16,6
송파구,"서울특별시 성북구 동소문로 248 (길음동, 삼부아파트 제105동 제1층 제5호)",신흥토종한우,37.6026982,127.0236736,한식,1.5,2,1
강남구,"서울특별시 서대문구 거북골로18길 33, 1층 (북가좌동)",인생설렁탕 논현지점,37.5788667,126.9112046,한식,4.3,12,52
송파구,"서울특별시 서초구 법원로2길 14, 1층 (서초동)",돈가네,37.4938895,127.0125619,한식,0,0,0
종로구,"서울특별시 송파구 올림픽로37길 130, 파크리오 상가A동 지하1층 111호 (신천동)",수정식당,37.520898,127.1044351,한식,4.2,44,86
중구,"서울특별시 마포구 모래내로9길 22 (성산동, 1층)",황토골,37.5681239,126.9121435,한식,3.4,15,10
성북구,"서울특별시 서초구 방배천로 12 (방배동,(1층))",은하수식당,37.4777207,126.9829715,한식,0,0,31
중랑구,서울특별시 성북구 보문로34길 9 (삼선동4가),참숯골,37.5902737,127.0159745,한식,5,1,9
중구,"서울특별시 마포구 월드컵북로 324-10, 가화헌 1층 (상암동)",북창동청국장집,37.5757196,126.8959457,한식,3,4,7
성북구,"서울특별시 송파구 송파대로 145, 문정 오벨리스크 1층 126호 (문정동)",양가네손칼국수,37.483362,127.1230445,한식,4.8,6,1
영등포구,"서울특별시 성동구 금호산2길 20, 1층 (금호동3가, 447)",수지네,37.5487832,127.0216806,한식,0,0,0
송파구,"서울특별시 서초구 효령로 292, 1층 109호 (서초동, 서울남부터미널)",생고기야,37.4835466,127.0151108,한식,3,1,0
송파구,서울특별시 송파구 마천로61길 9 (마천동),싸다김밥 거여역점,37.4935494,127.1534506,한식,3,4,1
영등포구,"서울특별시 서대문구 연세로2다길 27, 1층 (창천동)",노대포,37.5571265,126.939651,한식,5,3,2
서대문구,서울특별시 서대문구 증가로25길 20 (북가좌동),형제숯불갈비,37.5813475,126.9131073,한식,3.7,3,0
서대문구,서울특별시 서대문구 연희로 81-30 (연희동),주식회사 놀부부대찌개&철판구이 신촌점,37.5660255,126.9292518,한식,5,2,5
용산구,"서울특별시 서초구 언남길 15-6 (양재동,1층)",이드,37.4713493,127.0410758,한식,4,2,0
동대문구,"서울특별시 양천구 신월로 321 (신정동,1층(신월로 78))",한촌설렁탕,37.5217698,126.8565245,한식,3,14,5
송파구,"서울특별시 송파구 마천로 250, 1층 3호 (거여동)",기꾸참치,37.4989688,127.1447148,한식,3.6,14,10
서초구,"서울특별시 성동구 고산자로6길 31-2, 1층 (행당동)",강남소호정,37.5581652,127.0348559,한식,3.5,81,31
서대문구,서울특별시 성북구 화랑로11길 31 (하월곡동),커피 호,37.6037559,127.0420138,한식,5,1,0
송파구,"서울특별시 서초구 논현로 79 (양재동,윈드스톤빌딩 지하1층 B106호)",향기네 식당,37.4769242,127.0448131,한식,2,3,12
서초구,"서울특별시 송파구 백제고분로 114, 2층 (잠실동, 우남빌딩)",미스터포차,37.5064474,127.0795876,한식,0,0,8
성북구,"서울특별시 성동구 고산자로24길 15, 2층 (마장동)",혜화면옥,37.5699716,127.039394,한식,3.4,20,23
중구,서울특별시 송파구 백제고분로34길 9 (석촌동),중앙식당,37.501595,127.0989122,한식,3.9,46,177
영등포구,"서울특별시 서초구 논현로19길 9, 1층 (양재동, 선창빌딩 )",조선매운탕,37.4764982,127.0449797,한식,0,0,2
광진구,"서울특별시 마포구 동교로38길 13, 1층 (연남동)",풍년상회,37.5620589,126.9250032,한식,5,9,25
노원구,서울특별시 양천구 목동동로 226-1 (목동),서울농장정육식당,37.5256976,126.8721123,한식,5,1,3
중구,"서울특별시 마포구 서강로9길 32, 2층 (창전동)",토종삼계탕,37.5538137,126.9317758,한식,5,5,1
은평구,"서울특별시 마포구 마포대로 49 (도화동, 성우빌딩 상가지하1층5호일부)",코코이찌방야 구파발점,37.5408682,126.9468958,한식,1,1,1
중구,"서울특별시 송파구 새말로 62 (문정동, 송파푸르지오시티 지상1층 150호)",불꽃닭발,37.4807947,127.1208608,한식,5,1,13
종로구,"서울특별시 양천구 목동남로4길 6-12, 지하1층 (신정동)",북촌해물 구루메,37.508152,126.8648531,한식,5,2,9
종로구,"서울특별시 서초구 반포대로14길 71, 2층 216호 (서초동, 엘지서초에클라트)",서정,37.486913,127.0145094,한식,0,0,12
강동구,"서울특별시 양천구 목동중앙북로 7, 1층 123호 (목동, 신한이모르젠)",뚝배기솥뚜껑삼겹살,37.5490221,126.8644815,한식,5,2,1
은평구,서울특별시 송파구 마천로 339 (마천동),홍샌집,37.4934764,127.1523595,한식,4,7,32
중구,"서울특별시 서대문구 연희로36길 10, 1층 104, 105호 (연희동)",처가집,37.5786195,126.9367209,한식,2,31,59
동대문구,서울특별시 양천구 신목로 45 (신정동),산천부페,37.5193312,126.8727303,한식,5,1,2
성북구,"서울특별시 성동구 장터길 14-1, 2층 (금호동4가)",수양숯불갈비,37.5482622,127.0173558,한식,3.7,3,14
성북구,"서울특별시 송파구 백제고분로32길 3, 102호 (삼전동)",한진불가마사우나,37.5020381,127.095308,한식,4.2,5,3
중구,"서울특별시 서초구 마방로10길 25, 지하1층 6호 (양재동, 트윈타워 에이동)",용계정닭한마리,37.476644,127.044368,한식,0,0,0
영등포구,서울특별시 마포구 삼개로1길 7 (도화동),영양센타여의도점,37.5392891,126.9479969,한식,3,25,7
성북구,"서울특별시 성동구 왕십리로 391 (하왕십리동,(지상1층))",직화92닭발,37.5648194,127.0268997,한식,0,0,0
종로구,서울특별시 성북구 정릉로10길 51 (정릉동),공룡슈퍼 혜화점,37.6075875,126.9995055,한식,0,0,0
강북구,"서울특별시 마포구 동교로46길 7, 1층 (연남동)",신불닭발,37.562704,126.9253656,한식,4.6,5,5
노원구,"서울특별시 마포구 만리재로 19 (공덕동,1층)",수돈재,37.5447948,126.9532518,한식,4.1,11,9
중구,서울특별시 성동구 무학봉15길 23 (하왕십리동),초롱이네,37.563185,127.0303576,한식,0,0,0
송파구,"서울특별시 서대문구 응암로 133, 대경아르체 101동 1층 105호 (북가좌동)",이모네밥상,37.5846667,126.914192,한식,0,0,3
강남구,"서울특별시 송파구 풍성로 77, C동 지상1층 (풍납동)",엔틱정 강남논현점,37.5333437,127.1209831,한식,5,1,34
용산구,서울특별시 서대문구 통일로39가길 10-2 (홍제동),숯불애닭,37.588611,126.9436567,한식,4.1,14,71
성동구,"서울특별시 서초구 고무래로 32, 지하1층 B01-3,4호 (반포동, 반포트라이엄프메딕스빌딩)",왕십리연탄집,37.502428,127.0121591,한식,5,1,64
송파구,"서울특별시 성동구 성덕정9길 1, 1층 (성수동1가)",족발야시장 위례중앙점,37.5385679,127.0493908,한식,5,1,18
중구,"서울특별시 송파구 양재대로 932 (가락동,(농수산물직판장내))",임실 정육식당,37.4961026,127.1110027,한식,2.8,4,0
은평구,서울특별시 서초구 방배천로4길 20 (방배동),채선당 은평뉴타운점,37.4778478,126.9836288,한식,2,8,6
중구,"서울특별시 송파구 삼학사로19길 5, 지하1층 (삼전동)",조개조,37.5057288,127.0964701,한식,0,0,8
송파구,"서울특별시 송파구 올림픽로 145, 지하1층 (잠실동, 리센츠상가)",왕짜장,37.5119636,127.0870103,한식,3.7,7,1
강남구,"서울특별시 성동구 왕십리광장로 17, 4층 (행당동, 왕십리민자역사)",쭈블링쭈꾸미볶음,37.5614086,127.0384812,한식,0,0,0
중구,"서울특별시 송파구 올림픽로34길 16, 1층 (방이동)",우리가든,37.5150907,127.1109506,한식,0,0,0
송파구,"서울특별시 성동구 무학봉길 43, 1층 (하왕십리동)",아지트,37.5605219,127.0275682,한식,5,2,0
성북구,"서울특별시 성동구 왕십리로4길 28-8, 1층 (성수동1가)",정릉회관,37.54712,127.0467496,한식,4.6,11,10
서대문구,"서울특별시 서대문구 충정로 18, 1층 (충정로3가)",한옥집,37.5606114,126.9635135,한식,3,371,194
중구,"서울특별시 서초구 고무래로 90-7, 서초쇼핑 지하1층 B12호 (서초동)",불타는다동화로,37.4999342,127.0174825,한식,3.9,7,8
중구,"서울특별시 송파구 가락로18길 6-1, 1층 (송파동)",이화수 전통육개장,37.5017184,127.1112748,한식,2.4,9,13
서초구,"서울특별시 성북구 월곡로 62, 1층 (종암동)",가조고향마을,37.5977794,127.0395629,한식,3.7,3,2
구로구,"서울특별시 서대문구 거북골로 100, 1층 11호 (남가좌동, 래미안루센티아)",대박집,37.575726,126.9183539,한식,0,0,14
은평구,"서울특별시 서대문구 연세로7안길 20, 1층 (창천동)",머슴과 마님,37.5582232,126.935721,한식,3.1,10,36
영등포구,"서울특별시 송파구 올림픽로35길 124, 장미아파트 에이상가 2동 1층 105호 (신천동)",본진,37.5174925,127.1009378,한식,5,1,1
은평구,"서울특별시 양천구 공항대로 644, 2층 (목동)",마들,37.5467156,126.8764502,한식,5,1,3
양천구,"서울특별시 송파구 삼전로 78, 1층 (삼전동)",김밥천국,37.5054056,127.0893322,한식,1,1,0
구로구,"서울특별시 성동구 왕십리로10길 15, 2층 (성수동1가)",육장갈비,37.546738,127.0462612,한식,0,0,11
영등포구,"서울특별시 서초구 서초대로74길 14, 지하2층 (서초동, 삼성물산 서초사옥 )",대왕곱창,37.4959326,127.0261761,한식,2.9,15,55
성북구,"서울특별시 성북구 아리랑로 23, 1층 (동소문동6가)",무교동낙지집,37.5948862,127.0158836,한식,2.8,4,3
종로구,"서울특별시 성동구 왕십리로 114, 1층 102호 (성수동1가)",따띠삼겹 성균관대점,37.5476785,127.0447512,한식,3.6,5,4
송파구,"서울특별시 송파구 올림픽로 240, 롯데백화점 잠실점 지하1층 (잠실동)",맘스터치,37.5110794,127.0981638,한식,3.8,15,11
중랑구,"서울특별시 성동구 용답19길 7, 1층 (용답동)",굿맘할매순대국,37.5630043,127.0517967,한식,4,1,3
송파구,서울특별시 서대문구 통일로 107-4 (미근동),만나순대곱창,37.5646976,126.9672932,한식,5,2,2
은평구,"서울특별시 성동구 성수이로20길 58 (성수동2가,(지하1층))",오후식탁,37.5417628,127.0625735,한식,0,0,5
송파구,"서울특별시 성동구 무학봉15길 26-1, 1층 8호 (하왕십리동)",발리,37.5635684,127.0304706,한식,4,5,43
용산구,"서울특별시 마포구 매봉산로2안길 19, 1층 (상암동)",진주집,37.5774971,126.8945306,한식,0,0,0
중랑구,"서울특별시 성북구 보국문로 75 (정릉동,1층1호)",포 데이,37.6109864,127.0086693,한식,4.9,16,6
송파구,서울특별시 서대문구 수색로 28-5 (남가좌동),수다 감자탕,37.5696193,126.9156383,한식,4.2,10,24
은평구,"서울특별시 서초구 신흥안길 88, 해성농장 1층 (내곡동)",형제식당,37.454881,127.0801805,한식,3.9,22,29
종로구,서울특별시 서초구 방배중앙로 167 (방배동),원조마산아구찜,37.493928,126.9860986,한식,1.9,7,25
송파구,서울특별시 성북구 안암로 77 (안암동5가),옹고집 꽃게장,37.5831975,127.0297051,한식,3,34,54
성동구,서울특별시 마포구 마포대로12길 26 (공덕동),서박사 부대찌개,37.5478159,126.9547169,한식,5,2,4
서초구,"서울특별시 송파구 법원로 128, 문정에스케이브이원지엘메트로시티 A동 201, 202, 203, 204, 205호 (문정동)",장수족발,37.4868777,127.1204564,한식,4.4,16,7
광진구,"서울특별시 마포구 동교로 266-5, 지1층 (연남동)",꽃차,37.5631412,126.9257475,한식,5,2,3
서초구,"서울특별시 마포구 포은로 93-1 (망원동, 1층)",삼오갈비,37.5554138,126.9048945,한식,0,0,0
동대문구,"서울특별시 양천구 목동서로 291, 1층 108호,109호 (신정동)",버킷리스트,37.5216299,126.8695483,한식,3.8,11,43
종로구,"서울특별시 마포구 월드컵로 235 (성산동,다농마트 D-7)",김명자굴국밥,37.5651985,126.8985079,한식,1.2,5,6
영등포구,"서울특별시 성동구 천호대로 272-1, 1층 (용답동)",복돼지짬뽕,37.5674662,127.0513134,한식,5,3,2
서초구,"서울특별시 송파구 백제고분로39길 24, 1층 (석촌동)",반딧불 가정식 백반,37.5064,127.1042256,한식,0,0,0
영등포구,서울특별시 성북구 동소문로44길 6 (하월곡동),바다회마을2,37.6062081,127.028256,한식,3.5,2,6
성북구,서울특별시 성북구 정릉로38나길 2 (정릉동),돈암홍꼬꼬치킨,37.60189,127.018902,한식,0,0,0
용산구,"서울특별시 서대문구 북아현로11가길 7, 추계예술대학교 추정기념별관 8동 1층 (북아현동)",더철판삼겹,37.5630397,126.9536152,한식,0,0,1
성북구,"서울특별시 성동구 상원4길 6, 지상1층 (성수동1가)",신의한수매운갈비찜,37.5472797,127.0489997,한식,4.3,6,12
중랑구,"서울특별시 송파구 백제고분로9길 23, 지하1층 (잠실동)",로또식당,37.5097195,127.0816705,한식,0,0,0
종로구,"서울특별시 마포구 와우산로32길 5-2, 1층 (서교동)",용마,37.5549069,126.9306633,한식,0,0,0
송파구,"서울특별시 서초구 청계산로 195, 1층 108호 (신원동, 프라임시티)",맥쑈,37.4479278,127.0557856,한식,0,0,0
강남구,"서울특별시 양천구 목동중앙북로 88, 1층 (목동)",다담 순대국,37.5462705,126.8728697,한식,5,1,0
은평구,"서울특별시 서대문구 연세로 50, 지1층 (신촌동)",어사출또,37.5671131,126.9390292,한식,1.1,11,0
영등포구,"서울특별시 마포구 월드컵북로 396, 누리꿈스퀘어 B1층 1046호 (상암동)",교보증권,37.5793419,126.889819,한식,0,1,0
성북구,"서울특별시 서초구 효령로67길 7, 102호 (서초동)",김밥천국,37.4875238,127.023437,한식,1.6,5,2
송파구,"서울특별시 성동구 무학로6길 50 (도선동,삼성쉐르빌101동지상2층236-5)",토방,37.5644041,127.034979,한식,2.5,18,6
중구,"서울특별시 마포구 양화로 100-13, 지하1층 (서교동)",영일원,37.5525169,126.9193173,한식,0,0,0
영등포구,"서울특별시 마포구 매봉산로2길 27, 1층 (상암동)",유식당,37.578006,126.8954024,한식,0,0,14
종로구,"서울특별시 송파구 올림픽로 119, 잠실파인애플상가 지하1층 49, 50호 (잠실동)",진국정동곰탕 재동점,37.5120894,127.0842018,한식,3,2,1
양천구,"서울특별시 성동구 광나루로9길 3 (송정동,(지상1층))",목동밀밭,37.548538,127.0637107,한식,5,2,0
서대문구,"서울특별시 마포구 포은로 68 (망원동, 1층 일부)",맛있는 순두부,37.5532525,126.9063202,한식,3.4,43,32
종로구,서울특별시 송파구 위례성대로18길 28-20 (방이동),봉래식당,37.5102589,127.1240262,한식,2.5,2,1
금천구,"서울특별시 마포구 마포대로11길 75 (공덕동, 공덕현대아파트 상가102호)",완도민기네,37.5488039,126.9500743,한식,0,0,28
송파구,"서울특별시 양천구 목동동로 309, 지하1층 (목동, 행복한세상백화점 킴스클럽내)",명화손만두,37.5291902,126.8759727,한식,4.1,8,23
강남구,"서울특별시 양천구 목동중앙남로 100, 102동 105호 (목동, 성원아파트)",미스터순두부,37.5420345,126.8643955,한식,2.3,11,9
중랑구,"서울특별시 서초구 효령로55길 28, 1층 109호 (서초동, 브이샤르망 )",백선부대솥삼겹,37.4861394,127.014497,한식,3.8,4,18
영등포구,"서울특별시 성북구 돌곶이로8가길 2, 1층 (석관동)",워너비박스서여의도점,37.6070297,127.0617691,한식,0,0,8
성북구,"서울특별시 성동구 아차산로13길 33, 1층 105호 (성수동2가, 협진타워)",나그네파전,37.5462426,127.0616216,한식,4.9,8,9
양천구,"서울특별시 마포구 백범로20길 12 (대흥동,지하1층 일부)",은행나무집,37.5464144,126.9439295,한식,3.5,6,8
송파구,서울특별시 성북구 돌곶이로 156-1 (장위동),울랄라  횟집,37.6156808,127.0514245,한식,5,5,16
강남구,"서울특별시 성동구 왕십리로5길 14-2, 1층 (성수동1가)",철수포차,37.5472626,127.0442138,한식,2.3,3,2
종로구,"서울특별시 서초구 반포대로30길 9, 블루힐65 201호 (서초동)",중계식당,37.4917395,127.0090613,한식,3.5,50,11
송파구,"서울특별시 성동구 성수이로7길 24, 신원지기공업사 2층 (성수동2가)",소담 멸치국수,37.5414607,127.054394,한식,0,0,5
은평구,"서울특별시 서초구 서초대로73길 30, 103호 (서초동, 서초성우빌리지)",본죽,37.5001124,127.0248832,한식,3.5,19,3
성동구,"서울특별시 서대문구 증가로10길 12 (남가좌동,(지상1층))",한촌설렁탕 뚝섬역점,37.5779946,126.9233253,한식,3.4,5,18
중랑구,서울특별시 성북구 고려대로24길 35 (안암동5가),전설의솥뚜껑삼겹살,37.5846728,127.0295657,한식,0,0,4
양천구,"서울특별시 성동구 광나루로11길 39 (송정동,(지상1층))",남원추어탕,37.5513037,127.0677182,한식,4.5,6,9
강남구,"서울특별시 서대문구 가좌로 101 (홍은동,(지상1층))",사랑채,37.5817284,126.9264163,한식,3,2,0
성북구,"서울특별시 송파구 가락로 274, 지상1층 (방이동)",삽교곱창,37.5125132,127.1194382,한식,3.7,10,19
송파구,서울특별시 성동구 금호로 47-1 (금호동4가),보스턴,37.5477929,127.0254695,한식,5,2,0
구로구,"서울특별시 양천구 목동서로 213, 세신비젼프라자 4층 403호 (목동)",쑥고개,37.5280187,126.8706302,한식,0,0,0
서대문구,"서울특별시 성동구 천호대로 400 (용답동,신창비바패밀리 지하1층 112호)",캠핑플래닛,37.5612961,127.0633279,한식,5,2,0
송파구,"서울특별시 성동구 마장로 284, 지상1층 (마장동)",원가네칼국수,37.5653566,127.0412778,한식,3.6,15,20
중랑구,"서울특별시 성북구 장위로 78, 1층 (장위동)",먹거리 맛집,37.6137813,127.0452449,한식,0,0,0
노원구,"서울특별시 성동구 성수일로4길 25, 1층 108호 (성수동2가, 서울숲코오롱디지털타워)",닭한마리,37.542505,127.0518658,한식,5,1,7
종로구,"서울특별시 성동구 금호로3가길 3, 1층 (금호동4가)",광대,37.5478178,127.0242511,한식,0,0,1
서초구,서울특별시 성북구 정릉로10길 127 (정릉동),서초동 고기집,37.604132,126.9985232,한식,5,1,3
은평구,"서울특별시 마포구 와우산로3길 19 (상수동, 1층)",농가왕갈비,37.5459174,126.9218657,한식,4,1,0
광진구,"서울특별시 성동구 왕십리로 287 (행당동, 245 지상2층)",소녀방앗간중곡시장점,37.5597893,127.0361905,한식,4,2,0
서초구,"서울특별시 성동구 사근동길 65, 103동 1층 102호 (사근동, 하이츠아파트)",반올림피자샵 양재점,37.5619656,127.0485758,한식,5,1,1
구로구,"서울특별시 서대문구 성산로 273, 지층 101호 (연희동)",신의주찹쌀순대,37.5670782,126.9205927,한식,2.8,6,5
강동구,"서울특별시 양천구 목동동로8길 9, 명신빌딩 1층 (신정동)",투가리 식당,37.5179037,126.8707749,한식,0,0,1
용산구,"서울특별시 서대문구 신촌역로 22-5, 1층 25호 (대현동)",김불시대,37.5589134,126.9430611,한식,4.6,7,8
송파구,"서울특별시 송파구 양재대로 932 (가락동,농수산물소매시장 동측중식당)",가든칼국수,37.4961026,127.1110027,한식,3.3,6,10
종로구,"서울특별시 서초구 논현로 83, 삼호물산빌딩 에이동 지하1층 110호 (양재동)",홍어마을,37.4771882,127.0443967,한식,5,2,3
동대문구,"서울특별시 양천구 목동남로4길 19, 2층 (신정동)",박가부대 신설동역점,37.5089807,126.8654304,한식,3,2,11
중구,"서울특별시 마포구 성미산로 195, 106호 (연남동)",통영굴밥,37.5627252,126.926857,한식,4.5,2,1
양천구,"서울특별시 서초구 매헌로 16, 하이브랜드 리빙관 지하1층 B106호 (양재동)",평산족발,37.4631951,127.0366233,한식,5,4,3
구로구,"서울특별시 마포구 마포대로 109 (공덕동, 롯데캐슬 B113호)",춘천 닭갈비,37.5450054,126.9512549,한식,4.5,2,0
송파구,"서울특별시 송파구 가락로 103, 4층 (석촌동, 엄마손 쇼핑)",죽이야기,37.5014292,127.107603,한식,4.8,4,3
관악구,"서울특별시 양천구 목동동로 339 (목동, 목동트윈빌 지하126-2호)",이모네,37.5321777,126.8767457,한식,4,1,22
중랑구,서울특별시 성북구 보문로30라길 3 (동선동2가),돈통마늘보쌈,37.5899876,127.0195913,한식,4,2,4
서대문구,"서울특별시 서초구 고무래로 6-5, 1층 (반포동)",진미정,37.5036398,127.009568,한식,5,1,0
종로구,"서울특별시 성북구 화랑로 105, 1층 (하월곡동)",라무진,37.6038651,127.0432908,한식,2.5,2,12
동대문구,"서울특별시 양천구 목동중앙남로9길 41, 1층 103,104호 (목동)",종합조명,37.537871,126.8641587,한식,0,0,0
성북구,"서울특별시 송파구 법원로 114, 엠스테이트 에이동 제1층 에이-107호 (문정동)",오복기사식당,37.4857987,127.1206993,한식,0,2,0
종로구,"서울특별시 마포구 백범로 170, 101동 1층 (공덕동, 공덕더샵아파트)",동묘맛집,37.5444687,126.9490757,한식,4.3,4,8
종로구,서울특별시 송파구 오금로31길 42 (방이동),대경식당,37.5092944,127.1233678,한식,4.5,2,0
영등포구,"서울특별시 성북구 장위로 43, 1층 (장위동)",별미콩나물국밥,37.6143289,127.0416795,한식,4.1,8,6
양천구,"서울특별시 송파구 백제고분로 409, 1층 (송파동)",왕대봉맛집,37.5077742,127.1100279,한식,0,0,0
송파구,서울특별시 성북구 장위로 111 (장위동),신흥 정육식당,37.613629,127.049328,한식,3.2,5,33
중랑구,서울특별시 성동구 용답29길 23 (용답동),장터멸치국수,37.564628,127.0536584,한식,0,0,0
서초구,"서울특별시 성동구 왕십리로20길 11, 1층 (도선동)",착한코다리,37.5629207,127.0350925,한식,0,0,5
양천구,"서울특별시 성북구 동소문로26다길 23, 1층 (동선동3가)",춘천숯불닭갈비,37.5949472,127.0201942,한식,0,0,1
중구,"서울특별시 서초구 나루터로 75, 1층 (잠원동)",까페 팩토리얼,37.51585,127.018015,한식,3,1,0
서대문구,"서울특별시 서대문구 명지대길 29, 1층 (남가좌동)",오늘의 식탁,37.58163,126.924465,한식,0,0,0
영등포구,서울특별시 송파구 올림픽로32길 22 (방이동),충남식당,37.5140651,127.1093412,한식,0,0,0
영등포구,"서울특별시 성동구 고산자로26길 5, 지상3층 (마장동)",만리장성,37.5708121,127.038425,한식,0,0,0
영등포구,"서울특별시 마포구 월드컵북로 396, 누리꿈스퀘어 지하1층 (왼쪽)1016호 (상암동)",약산순대국,37.5793419,126.889819,한식,5,2,1
강남구,"서울특별시 양천구 목동동로 257 (목동, 현대백화점 지하2층)",방배김밥이 만든 라이스쉐프 강남구청역점,37.5265922,126.8744517,한식,2,1,2
은평구,"서울특별시 마포구 마포대로4길 46 (도화동,1층 일부)",바삭마차 응암점,37.5376818,126.9466028,한식,2.6,8,7
중구,"서울특별시 마포구 토정로37길 46 (도화동, 정우맨션 지하1층7,19호)",본가,37.5426083,126.9473125,한식,3.7,26,121
중구,"서울특별시 서초구 나루터로12길 27, 1층 101호 (잠원동)",나루,37.5141406,127.0180127,한식,3.7,6,41
용산구,"서울특별시 마포구 와우산로11길 9-4 (상수동, 지1층일부)",굴렁쇠,37.5488418,126.9222737,한식,3,3,0
종로구,"서울특별시 마포구 월드컵북로 402, B116호 (상암동,KGIT센터)",육회자매집,37.5801078,126.8889824,한식,3.5,274,212
성북구,"서울특별시 서대문구 연세로5길 26 (창천동,(1층))",키웨스트 커피,37.5565858,126.9354461,한식,4.8,6,2
동대문구,서울특별시 양천구 신월로 192 (신월동),호랭이양식당,37.5195582,126.844298,한식,2.8,23,74
강북구,"서울특별시 양천구 목동중앙로 73, 지상1층 (목동)",송원수제숯불갈비,37.5361415,126.8705408,한식,0,0,12
강남구,"서울특별시 마포구 동교로27길 82 (연남동, 1층일부)",메콩타이 삼성역점,37.5612482,126.920282,한식,5,3,8
종로구,"서울특별시 마포구 토정로37길 51, 1층 (염리동)",남매집,37.5432672,126.9473293,한식,3.9,35,21
용산구,"서울특별시 송파구 가락로28길 3-5, 석천빌딩 1층 (송파동)",순식당,37.5066123,127.1163838,한식,3.7,27,53
성동구,"서울특별시 송파구 양재대로 932, 가락동 농수산물도매시장 내 가락몰4관 편의시설 지하1층 064-1호 (가락동)",수제양정순대국,37.4961026,127.1110027,한식,4.2,9,10
중구,"서울특별시 마포구 동교로 42-1, 2층 (합정동)",장원식당,37.5525923,126.9070355,한식,0,0,0
강동구,"서울특별시 양천구 목동동로14길 1, 1층 (목동)",유정이네 해물탕,37.5244283,126.8719056,한식,0,0,0
송파구,"서울특별시 성동구 상원길 40, 지상1층 110,111호 (성수동1가, 뚝섬현대아파트상가동)",연화선,37.5475298,127.0488545,한식,4.8,7,2
송파구,"서울특별시 성동구 독서당로48길 9, 1층 (금호동4가)",장다리남원추어탕,37.547798,127.0221437,한식,4.7,6,4
중구,"서울특별시 서초구 강남대로16길 8, 1층 (양재동, 지상)",청진만남,37.4707101,127.0395644,한식,3.7,3,6
중랑구,"서울특별시 송파구 거마로 45-3, 지상1층 (거여동)",낙지마당,37.4971668,127.1458839,한식,5,1,0
영등포구,"서울특별시 성동구 왕십리로 410, L동 134호 (하왕십리동, 센트라스)",손김밥,37.5665508,127.0247865,한식,5,2,2
은평구,"서울특별시 마포구 월드컵로25길 31, 1층 (망원동)",봉화골,37.5580507,126.9060095,한식,5,2,1
중구,"서울특별시 송파구 백제고분로28길 12, 1층 102호 (삼전동)",차차 명동점,37.5020467,127.0918702,한식,3.1,7,26
중랑구,서울특별시 서초구 서초중앙로 40-6 (서초동),착한생오리,37.4856699,127.0164726,한식,0,0,0
서초구,"서울특별시 서대문구 응암로 80, 1층 (북가좌동)",두꺼비,37.5800154,126.9117151,한식,0,0,0
송파구,"서울특별시 성동구 금호로 56, 지상1층 (금호동1가)",조아해장국,37.5484293,127.0260355,한식,5,1,0
성북구,"서울특별시 송파구 송파대로30길 7, 지상2층 (가락동)",진주상회,37.4945499,127.1183158,한식,0,0,3
송파구,"서울특별시 성북구 고려대로24길 32, 칠보빌딩 2층 (안암동5가)",뿅의전설 가락점,37.5847868,127.0292674,한식,2.2,5,25
종로구,서울특별시 서대문구 증가로10길 41 (남가좌동),오죽이네,37.5790294,126.9242862,한식,4.1,66,243
용산구,"서울특별시 송파구 가락로 71, 빌라 드 그리움 1층 101,102호 (석촌동)",이태리로간고등어,37.5002639,127.1041325,한식,3,3,13
성북구,"서울특별시 서초구 사평대로 362 (서초동,1층 (103호))",풍문,37.503635,127.0226855,한식,5,5,4
성동구,"서울특별시 서초구 신반포로 194, 1층 25-1호 (반포동, 하차장)",초가랑,37.50568,127.0058468,한식,0,0,1
강동구,"서울특별시 양천구 신월로 220 (신월동, 지하1층)",수줍은 삼계탕,37.5214806,126.846473,한식,4.1,14,11
종로구,"서울특별시 성북구 돌곶이로14길 41 (석관동,지상 1층)",동문별관,37.6088397,127.0620945,한식,4.7,6,7
송파구,서울특별시 성북구 안암로 61-6 (안암동5가),화로야화로야,37.5824045,127.0284741,한식,5,1,6
관악구,서울특별시 송파구 풍성로26길 24 (풍납동),해바라기,37.5316518,127.118496,한식,2,2,0
중구,"서울특별시 마포구 홍익로5안길 20 (서교동,1층)",훈이네,37.5537975,126.9215617,한식,3.7,3,3
중구,"서울특별시 송파구 올림픽로 300, 롯데월드타워앤드롯데월드몰 지하1층 (신천동)",충무곱창,37.5125702,127.1025625,한식,3.2,5,6
종로구,서울특별시 송파구 송이로 93 (가락동),체부동 빈대떡,37.4979552,127.1210598,한식,5,1,0
서대문구,"서울특별시 송파구 백제고분로22길 3, 1층 (삼전동)",삼겹살 데이,37.5034999,127.0894984,한식,5,2,2
중구,"서울특별시 송파구 새말로5길 22, 1층 (문정동)",본죽&비빔밥,37.4844519,127.12415,한식,2.8,6,2
용산구,"서울특별시 송파구 백제고분로40길 5, 1층 101호 (석촌동)",닭의 삼각지,37.5040133,127.1062241,한식,0,0,2
노원구,"서울특별시 서대문구 가재울로6길 53-87, 1호 (남가좌동)",춘천최부자숯불닭갈비,37.5770219,126.9231168,한식,0,0,13
중구,"서울특별시 서대문구 통일로 377 (홍제동, 지하1층,지상1층)",동해,37.5837248,126.9491108,한식,3.6,5,0
종로구,서울특별시 성북구 솔샘로18길 84 (정릉동),서울식당,37.6093475,127.0085499,한식,4,11,18
서초구,"서울특별시 서초구 서운로 16, 세방빌딩 1층 (서초동)",코로돈,37.4855344,127.0298527,한식,3.3,6,3
성동구,"서울특별시 서초구 서초중앙로22길 67, 1층 (서초동, 지상)",배들곱창,37.4939352,127.0175407,한식,4.5,2,9
서초구,"서울특별시 마포구 잔다리로 10, 5층 (서교동)",양재해장국,37.5508953,126.9220198,한식,3,46,29
종로구,"서울특별시 마포구 어울마당로 115-1, 1,2,3층 (동교동)",종로곱창,37.5551665,126.9230955,한식,5,6,3
중구,"서울특별시 성동구 무학봉16길 26, 1층 (행당동)",동경,37.5597572,127.0331781,한식,3.8,115,111
종로구,"서울특별시 송파구 가락로 106, 대흥빌딩 2층 (석촌동)",행복한 밥상,37.501107,127.1079081,한식,5,3,4
종로구,"서울특별시 마포구 성산로 126 (성산동,1층)",명륜손칼국수,37.5639259,126.9076006,한식,4.4,38,24
중랑구,"서울특별시 성동구 성수일로8길 59 (성수동2가,(지상1층))",전주한식부페,37.5452384,127.056824,한식,0,0,2
중구,서울특별시 서초구 나루터로15길 30-9 (잠원동),돈돼지,37.5173415,127.0176068,한식,0,0,0
중구,"서울특별시 송파구 송파대로38길 4, 1층 101호 (송파동)",흥인돼지국밥,37.5006051,127.1122055,한식,2.7,3,0
송파구,"서울특별시 서대문구 충정로5길 16 (충정로3가, 1,2,3층)",원희네 닭한마리,37.562804,126.9633165,한식,0,0,1
영등포구,"서울특별시 성북구 돌곶이로 62, 1층  좌측 (석관동)",선참치,37.6093678,127.0587937,한식,3,2,4
송파구,"서울특별시 서대문구 통일로 473 (홍제동,(나동 1층))",장원식당,37.5902824,126.9421076,한식,4,1,0
은평구,"서울특별시 서초구 사임당로12길 17, 101호 (서초동)",짝태노가리야,37.4882628,127.017191,한식,1,1,3
양천구,"서울특별시 서대문구 신촌로 127 (창천동,(1층 104))",왔다포차식당,37.5564875,126.9399802,한식,0,0,0
영등포구,"서울특별시 성동구 고산자로 335-16, 1층 (마장동)",백암왕순대,37.5697394,127.0369019,한식,4.3,7,2
성동구,"서울특별시 서초구 사임당로 46, 1층 (서초동)",은성보쌈,37.4882935,127.0150856,한식,2.7,71,61
강남구,"서울특별시 양천구 목동로1길 22, 한양빌딩2 지상2층 (신정동)",신토리토속순대국,37.5087265,126.8714032,한식,0,0,0
서초구,"서울특별시 성동구 동일로43길 1, 지층 (송정동)",원당감자탕,37.5534709,127.0699686,한식,3,16,62
영등포구,서울특별시 성북구 개운사길 38 (안암동5가),양평숯불갈비,37.5881026,127.0294455,한식,5,3,2
동대문구,"서울특별시 송파구 중대로 60, 2층 (문정동)",고향왕파전,37.491374,127.1155747,한식,1.6,5,7
중구,"서울특별시 서대문구 연세로9길 10-7, 지층 (창천동)",국민회관,37.5588724,126.9361907,한식,2.8,4,129
종로구,"서울특별시 송파구 송파대로28길 11, 지상1층 (가락동)",종로설렁탕,37.4941106,127.1191426,한식,2.9,59,64
종로구,"서울특별시 서초구 논현로 79, 지하1층 149호 (양재동)",am 3,37.4769242,127.0448131,한식,0,0,0
종로구,"서울특별시 서초구 방배천로8길 34, 1층 (방배동)",자매집,37.4804334,126.9844258,한식,3.5,274,213
서초구,서울특별시 성북구 안암로 73-5 (안암동5가),루디아,37.5831654,127.0290353,한식,2.5,2,2
중구,서울특별시 서대문구 세검정로1길 15 (홍은동),필동닭칼국수,37.5923611,126.9426907,한식,3.7,9,12
강남구,"서울특별시 성동구 왕십리로20길 13, 1층 (도선동)",잠수교집,37.5630982,127.0352206,한식,2.6,8,95
종로구,"서울특별시 서대문구 신촌로35길 10, 404호 (북아현동, e편한세상상가 지하)",대성한정식,37.5586219,126.9558605,한식,4.5,2,2
송파구,"서울특별시 송파구 백제고분로41길 19, 지상1층 (송파동)",함경냉면,37.5076121,127.1074015,한식,0,0,0
성북구,"서울특별시 노원구 동일로191가길 6, 104호 (공릉동, 건양오피스텔)",금화왕돈까스 성신여대점,37.6252815,127.0716796,한식,4.7,3,2
노원구,"서울특별시 마포구 홍익로5길 19 (서교동, 쏠라즈빌딩1층)",동아맨숀,37.5539673,126.9213584,한식,4,4,27
중구,"서울특별시 송파구 올림픽로34길 21, 1층 (방이동)",새마을식당 동대문점,37.5148153,127.1114544,한식,1.9,8,9
강남구,"서울특별시 서대문구 명물길 62, 오시리스타워 1층 (창천동)",청춘닭꼬치 역삼직영점,37.5588588,126.9396851,한식,5,1,1
성동구,"서울특별시 성동구 왕십리로 410, I동 1층 123호 (하왕십리동, 센트라스)",고기는 숯불이다,37.5665508,127.0247865,한식,0,0,0
종로구,"서울특별시 성동구 장터5길 9-1, 지하1층 (금호동3가)",골목흙돼지,37.5491721,127.0213603,한식,4.3,4,97
영등포구,서울특별시 성북구 삼선교로14길 83 (삼선동2가),누룽지삼계탕,37.5844002,127.0106239,한식,3.8,6,2
영등포구,"서울특별시 마포구 서강로9길 45 (창전동, 태영아파트상가 103호)",또순이네,37.553545,126.9307904,한식,3.1,301,253
서초구,서울특별시 송파구 성내천로 79 (오금동),경복궁 서초점,37.5015229,127.138446,한식,3.2,13,25
종로구,서울특별시 서초구 방배천로8길 8 (방배동),명동찌개마을,37.4804566,126.983062,한식,4.2,10,10
용산구,"서울특별시 성동구 장터길 27-1, 1층 (금호동3가)",해바라기 정육식당,37.5484307,127.0189949,한식,4,7,15
송파구,서울특별시 성동구 왕십리로22길 6 (도선동),산들바다,37.5625644,127.0344758,한식,0,0,4
중구,"서울특별시 서초구 동광로 67, 지층,1층 (방배동)",청운식당,37.4928416,126.989952,한식,4,3,2
성북구,서울특별시 성북구 화랑로32길 135-1 (석관동),모아모아,37.6050153,127.0600323,한식,0,0,0
송파구,"서울특별시 송파구 오금로13길 7, 지상1층 (방이동)",에스,37.5133304,127.1084085,한식,0,0,0
서초구,서울특별시 서대문구 연세로11길 35 (창천동),한우등심한판,37.5588429,126.9348529,한식,5,3,1
구로구,"서울특별시 마포구 마포대로 115-12 (공덕동, 삼성아파트상가 1층 110~113호,115,116호, 117호의 일부)",엄마한입 아가한입,37.5456571,126.9511614,한식,0,0,2
종로구,"서울특별시 성동구 무학로12길 6-2, 지상1층 (홍익동, 426)",청진옥,37.5671615,127.03062,한식,2.9,116,211
송파구,"서울특별시 성동구 고산자로 281 (홍익동,(2층))",투비,37.5648198,127.0359945,한식,0,0,0
송파구,"서울특별시 송파구 가락로11길 32, 1층 (석촌동)",민수네,37.5030577,127.1038895,한식,0,0,0
영등포구,서울특별시 서대문구 포방터2가길 3 (홍은동),단지네,37.5989848,126.9495365,한식,1,1,0
서대문구,"서울특별시 성동구 연무장19길 12, 2층 (성수동2가)",수라면옥,37.5413046,127.0628561,한식,3.5,4,6
송파구,"서울특별시 송파구 새말로10길 6, 1층 (문정동)",송추가마골 잠실지점,37.4823663,127.1273227,한식,1.8,16,20
서대문구,"서울특별시 서대문구 거북골로 53-6 (남가좌동,(지상1층))",대청마루 감자탕,37.5782039,126.9225728,한식,3.4,12,20
종로구,"서울특별시 서초구 동산로 7, 1층 (양재동)",미락,37.4692458,127.040541,한식,3.4,77,130
서초구,"서울특별시 성동구 서울숲4길 21, 1층 (성수동1가)",우탭 강남점,37.5472719,127.0433427,한식,3.2,5,56
노원구,"서울특별시 서대문구 북아현로 71, 1층 (북아현동)",따띠삼겹,37.5633222,126.9546162,한식,4,4,4
서대문구,"서울특별시 송파구 동남로 155, 지하1층 (가락동)",준스그릴,37.4925346,127.127639,한식,3.9,11,3
강북구,"서울특별시 양천구 신월로15길 24, 지상1층 (신월동)",맘스터치 미아사거리역점,37.5205143,126.8414662,한식,3.3,7,10
중랑구,"서울특별시 송파구 위례광장로 120, 지하1층 B11-2호 (장지동, 중앙푸르지오 1단지상가)",태영식당,37.4748656,127.1415892,한식,0,0,0
송파구,"서울특별시 성북구 북악산로 851, 상가동 107호 (정릉동, 정릉2차 e-편한세상)",청송칼국수,37.6005873,127.0204231,한식,5,1,4
성동구,"서울특별시 마포구 토정로37길 46 (도화동,정우빌딩1층117호)",꽃보다족발,37.5426083,126.9473125,한식,4.2,6,20
송파구,"서울특별시 송파구 충민로 5, 1층 104호 (문정동, 송파한화오벨리스크)",한우상회,37.4801299,127.1196368,한식,4.3,7,52
성동구,"서울특별시 서초구 도구로 128-2, 1층 (방배동)",더블유,37.4878788,126.9861794,한식,3.6,28,2
영등포구,"서울특별시 성동구 자동차시장1길 85, 지하1층 (용답동, 235-8 B-01호)",그릴 종고산,37.5605143,127.0671622,한식,3.9,13,2
동대문구,"서울특별시 양천구 목동중앙북로 102, 지상1층 (목동)",강박사 돌솥 쌈밥,37.5461334,126.874363,한식,4.4,7,19
은평구,"서울특별시 마포구 잔다리로 118, 지하1층 6호 (서교동)",송목,37.5574751,126.9139779,한식,0,0,0
서초구,"서울특별시 성동구 뚝섬로5길 15, 1층 (성수동1가)",고향산천,37.5413302,127.050711,한식,0,0,0
성동구,"서울특별시 서대문구 거북골로 7, 1층 (홍은동)",대박낙소 성수점,37.5810448,126.9263241,한식,4.3,4,82
송파구,"서울특별시 서초구 사평대로 205, BPC201-1호 (반포동, 센트럴시티)",미식가,37.5044921,127.0078453,한식,4,5,21
중구,"서울특별시 서초구 사평대로55길 133, 1층 (반포동)",청솔식당,37.5096271,127.0201226,한식,0,0,0
은평구,"서울특별시 성북구 고려대로 47, 1층 (안암동2가)",오늘 와인한잔 연신내역점,37.5865154,127.0247954,한식,2,2,22
영등포구,"서울특별시 서초구 서초대로 396 (서초동,(지하1층))",복많다,37.4965695,127.0247765,한식,0,0,0
양천구,"서울특별시 서초구 서초중앙로 110, 1층 106호 (서초동, 서초롯데캐슬메디치)",경복궁목동점,37.4915934,127.0144867,한식,1.5,4,41
성북구,"서울특별시 마포구 와우산로29길 8 (서교동,지하1층)",조선순대국,37.55478,126.9294574,한식,5,1,0
영등포구,"서울특별시 서대문구 간호대로 15 (홍제동,지상1층)",최가냉면,37.5966034,126.9483712,한식,5,1,1
중구,서울특별시 서대문구 이화여대길 68 (대현동),굿맘할매순대국,37.5593124,126.9446625,한식,3,2,0
서대문구,"서울특별시 마포구 동교로 106 (서교동, 1층 일부)",한솥,37.5544756,126.9138525,한식,3.6,18,1
서대문구,"서울특별시 마포구 큰우물로 53, 109호 (염리동,네이버타운)",아저씨네낙지찜,37.5422665,126.9446458,한식,3.8,27,25
성동구,"서울특별시 송파구 올림픽로 240, 지하1층 (잠실동, 롯데백화점 잠실점 )",생고기집,37.5110794,127.0981638,한식,3.7,16,108
종로구,"서울특별시 서초구 강남대로18길 25, 1층 101호 (양재동)",돈가네,37.4720762,127.0403394,한식,3,1,1
용산구,"서울특별시 송파구 올림픽로10길 14, 지하1층 (잠실동)",김밥천국,37.5103599,127.0810398,한식,0,0,1
성북구,"서울특별시 서초구 효령로68길 110, 1층 (서초동)",가장맛있는족발,37.4852801,127.0189349,한식,0,0,7
성북구,"서울특별시 송파구 오금로17길 20, 지상1층 (방이동)",마카나이,37.5123987,127.1123487,한식,3.5,2,3
영등포구,"서울특별시 송파구 마천로45길 34, 지상1층 (마천동)",김가네김밥,37.4986885,127.1514906,한식,2.8,9,1
서초구,"서울특별시 성북구 고려대로27길 20, 1층 (안암동5가)",골목식당,37.5872322,127.0299136,한식,1,1,2
중구,"서울특별시 송파구 송파대로28길 32, 올림피아오피스텔 1층 4-1호,5호 (가락동)",남해굴국밥,37.4947436,127.1213235,한식,4.5,4,3
금천구,"서울특별시 송파구 천호대로152길 11, 지상1층 101호 (풍납동)",한국수 가산디지털점,37.5379066,127.1219342,한식,0,0,26
종로구,"서울특별시 송파구 올림픽로 240, 롯데마트 잠실점 6층 (잠실동)",담,37.5110794,127.0981638,한식,3.9,18,24
성동구,"서울특별시 송파구 백제고분로 384, 평화빌딩 1층 (송파동)",담미온,37.5057068,127.1087434,한식,3.9,17,9
도봉구,"서울특별시 마포구 만리재로 15 (공덕동, 제일빌딩 1층 1호,2호)",쌍문역2번출구우동짜장포차,37.5445786,126.9527595,한식,0,0,2
동대문구,"서울특별시 마포구 동교로 272-7, 1층 (연남동)",그레이스,37.5634647,126.9262467,한식,1,2,0
강남구,"서울특별시 서대문구 독립문로 16 (영천동, 1층)",매일쏜다 딜리버리,37.5702574,126.9600585,한식,0,0,0
송파구,"서울특별시 서초구 태봉로 70, 108호 (우면동,우면프라자)",맛있는 쭈꾸미,37.4645488,127.0255942,한식,4.8,4,10
은평구,"서울특별시 서대문구 연세로9길 34-4, 지하1층 (창천동)",육선당,37.558716,126.9351163,한식,2.7,5,6
중구,"서울특별시 성북구 성북로4길 52, 스포츠센타동 지하4층 5109호 (돈암동, 한신한진아파트)",비빔락,37.5958787,127.0104756,한식,0,0,0
종로구,"서울특별시 마포구 월드컵북로44길 35-6, 1층 (상암동)",앨리스,37.5761588,126.8951604,한식,0,0,0
중구,"서울특별시 서초구 서초대로51길 26, 람코교대빌딩 1층 (서초동)",대청마루 2,37.4962747,127.0140501,한식,3,5,11
중구,"서울특별시 양천구 공항대로 652, 1층 (목동)",은화계,37.5467889,126.8773309,한식,3.7,39,143
양천구,서울특별시 서초구 서초대로48길 20 (서초동),남원추어탕,37.4919306,127.0114012,한식,4.5,6,9
용산구,"서울특별시 마포구 월드컵로14길 50-13, 101호 (서교동)",미성,37.5564608,126.9135983,한식,2.9,13,13
용산구,"서울특별시 서초구 서초대로3길 9 (방배동,(지상1층))",구루망,37.4863093,126.9852341,한식,2.1,7,7
종로구,서울특별시 성북구 돌곶이로 31 (석관동),기린,37.60703,127.0607049,한식,0,0,1
중구,서울특별시 서대문구 홍제천로 206 (연희동),들국화떡뽁기,37.5793854,126.9357032,한식,4.1,9,10
성북구,서울특별시 성북구 화랑로11길 27 (하월곡동),전주연탄불고기,37.6036304,127.041876,한식,0,0,0
성북구,"서울특별시 서초구 서초중앙로 14, 3,5층 (서초동)",장위동맹가네,37.4836095,127.0178819,한식,5,2,0
은평구,"서울특별시 마포구 동교로 182-6 (동교동, 1층)",치킨시대,37.5565921,126.921991,한식,5,2,2
종로구,"서울특별시 성북구 고려대로26길 25, 1층 (안암동5가)",정이가네,37.5850655,127.030087,한식,3,9,57
송파구,"서울특별시 송파구 위례성대로12길 31 (방이동,지상1층)",육대장 문정역엠스테이트점,37.5109811,127.1215583,한식,0,0,4
용산구,"서울특별시 서초구 논현로27길 29, 1층 102호 (양재동)",키친아이,37.4801883,127.0422196,한식,4.5,11,6
종로구,"서울특별시 서초구 반포대로30길 18, 지하1층 (서초동)",아사원,37.4916363,127.0096451,한식,0,0,0
성동구,서울특별시 서초구 강남대로109길 45-16 (잠원동),명원춘천닭갈비,37.5171756,127.0175474,한식,0,0,0
서대문구,"서울특별시 마포구 성암로 46, 1층 (중동)",정호갈비청정골2호점,37.5697116,126.9116111,한식,1.5,5,4
용산구,"서울특별시 마포구 와우산로35길 53 (서교동, 2층)",서가네왕솥뚜껑삼겹살,37.5564444,126.9279316,한식,5,2,3
중랑구,"서울특별시 서초구 서래로 13, 2층 (반포동)",꼬꼬닭컴,37.4962509,126.998006,한식,2.2,11,12
영등포구,"서울특별시 성북구 도봉로 31 (길음동,(2층))",오만닭갈비,37.6119613,127.0298729,한식,3.3,6,14
영등포구,"서울특별시 서초구 방배중앙로 119, 1층 (방배동)",창고43여의강변점,37.489726,126.987317,한식,3.1,12,11
영등포구,"서울특별시 서초구 서초중앙로 195, 6층 (반포동)",정원고기마을,37.499188,127.0120621,한식,0,0,0
동대문구,"서울특별시 양천구 목동중앙남로9길 41, 2층 (목동)",명가네콩나물국밥,37.537871,126.8641587,한식,0,0,0
종로구,"서울특별시 서대문구 세무서7길 8, 1층 (홍제동)",목포집,37.5914276,126.9465038,한식,3.6,15,1
종로구,"서울특별시 서초구 남부순환로350길 40, 지하1층 (양재동)",세운수산,37.4830856,127.0365981,한식,0,0,0
서초구,"서울특별시 송파구 문정로4길 10, 1층 102호의 일부호 (문정동, 동부주택브리앙뜨)",놀부옛날통닭 양재포이점,37.4853949,127.126024,한식,4,1,2
종로구,서울특별시 송파구 양산로10길 6-1 (거여동),마포숯불갈비,37.4924383,127.1449879,한식,3.8,8,9
종로구,"서울특별시 성북구 북악산로 913, 상가동 1층 101호 내 1호 (돈암동, 풍림아파트)",더 미,37.5954769,127.0236579,한식,0,0,0
동대문구,"서울특별시 양천구 목동중앙북로7가길 4, 지상1층 7호 (목동)",촌식당,37.5485573,126.867119,한식,5,1,2
중구,"서울특별시 성북구 종암로 129 (종암동,청한상가 4층)",기와집 삼계탕,37.601436,127.0327335,한식,0,0,1
송파구,서울특별시 서대문구 수색로4나길 17 (남가좌동),황가네 유황오리,37.5712276,126.9144546,한식,4,1,3
양천구,서울특별시 서초구 강남대로 27 (양재동),진미떡볶이,37.4682596,127.0389985,한식,2.4,39,33
송파구,"서울특별시 성북구 보국문로11길 21-16 (정릉동,(1층))",옛날순대국송파점,37.607943,127.0089623,한식,4.8,5,0
영등포구,"서울특별시 송파구 오금로46길 42-1, 1층 (가락동)",진짜무릎도가니탕푸주옥,37.4943536,127.1333258,한식,2.7,10,15
강남구,서울특별시 양천구 목동중앙서로1길 12 (목동),먹자빈대떡,37.5330063,126.864453,한식,4.6,5,0
종로구,"서울특별시 서초구 서초대로74길 51, 104호 (서초동)",종로진낙지,37.4930679,127.0284172,한식,2.9,33,112
성북구,"서울특별시 서초구 남부순환로356길 15 (양재동,1층 104호,105호)",마포갈비,37.4843263,127.0379729,한식,0,0,0
성동구,"서울특별시 서대문구 충정로 53 (충정로2가,유원골든타워오피스텔 지하1층 120,121,122호)",산수골추어탕감자탕,37.5637531,126.9646501,한식,4,17,15
양천구,"서울특별시 송파구 성내천로12길 8, 지상1층 (오금동)",마포갈매기,37.5005266,127.1373978,한식,1,2,1
영등포구,"서울특별시 마포구 백범로 152, 202동 1층 1호 (공덕동, 공덕파크자이)",순창식당,37.5451678,126.9472415,한식,4,6,7
중랑구,"서울특별시 성북구 안암로 81-4, 1층 (안암동5가)",다마시테,37.5837041,127.0300684,한식,4,1,9
영등포구,"서울특별시 성동구 왕십리로 241, 상가동 지2층 (행당동, 서울숲더샵주상복합건물)",곱분이곱창,37.5562273,127.0401196,한식,2,2,3
강동구,"서울특별시 서대문구 가좌로 50, 1층 (홍은동)",수라면가,37.5783368,126.9303968,한식,0,0,3
용산구,"서울특별시 서초구 반포대로22길 14-4, 1층 102호 (서초동, YNK빌딩)",임도령,37.488759,127.0102102,한식,4.5,2,5
서초구,"서울특별시 마포구 토정로 144 (상수동, 건양사빌딩 1층일부)",푸주옥,37.5453816,126.9268553,한식,3.8,43,18
성동구,"서울특별시 마포구 월드컵북로 361 (상암동,DMC이안상암2단지 2층 223호)",먹거리식당,37.5771051,126.8913998,한식,0,0,0
중랑구,"서울특별시 성동구 독서당로39길 43-1, 2층 (옥수동)",동네갈비,37.540895,127.0109506,한식,5,7,3
종로구,서울특별시 송파구 위례성대로 206 (오금동),정이가네,37.5090372,127.1334287,한식,3,9,57
영등포구,"서울특별시 마포구 독막로7길 49 (서교동, 지하1층)",명태어장대림점,37.5499806,126.9197102,한식,3.7,3,2
종로구,"서울특별시 성동구 마조로 17, B동 40호 (행당동,지상1층)",싸움의 고수,37.5595596,127.0404711,한식,2.7,7,4
송파구,서울특별시 성북구 보문로32길 34 (동선동2가),막갈나게 한잔해,37.5899743,127.0182494,한식,5,1,1
용산구,"서울특별시 서초구 강남대로 160-1, 1층 (양재동)",유향재,37.4791254,127.0389414,한식,0,0,0
강동구,"서울특별시 서대문구 거북골로 73-1, 2층 (남가좌동)",바우네 나주곰탕,37.5771805,126.9208127,한식,3.5,2,1
강서구,"서울특별시 양천구 목동동로 189, 123호 (신정동, 삼성쉐르빌1)",두찜,37.522822,126.87042,한식,0,0,1
서대문구,"서울특별시 서초구 남부순환로337가길 33 (서초동,1층)",옛고을,37.4839307,127.0235382,한식,0,0,3
성북구,"서울특별시 서초구 사평대로18길 29 (반포동,신우빌딩 지하1층)",성북면가,37.4981101,126.9968184,한식,3.5,35,45
서대문구,"서울특별시 마포구 모래내로1길 17, 상암 퍼스티지 더올림 오피스텔 1층 101호 (성산동)",마포갈비,37.5652811,126.9028797,한식,0,0,1
종로구,"서울특별시 성동구 마조로3길 9, 1층 (행당동)",진원조 닭한마리,37.5585685,127.0394632,한식,3.3,15,31
송파구,"서울특별시 서대문구 통일로39길 22-21 (홍제동, 1층)",농부밥상 어부밥상,37.5882615,126.9430427,한식,5,2,2
중랑구,"서울특별시 성동구 마조로3길 8, 1층 (행당동)",박가네추어탕,37.5586486,127.0399846,한식,4.3,3,3
중구,서울특별시 마포구 마포대로11길 15-7 (공덕동),원할머니보쌈 족발 을지로배달점,37.5485769,126.9531878,한식,1,1,5
용산구,"서울특별시 서초구 강남대로79길 48, 1층 (반포동)",전주콩나물국밥,37.5043743,127.0215354,한식,5,1,0
도봉구,"서울특별시 마포구 만리재로 15 (공덕동, 제일빌딩 1층 104,105호)",애경이네,37.5445786,126.9527595,한식,5,1,7
중구,"서울특별시 송파구 법원로 114, 엠스테이트 E동 지1층 비174호 (문정동)",유턴플러스,37.4857987,127.1206993,한식,0,0,0
중구,"서울특별시 마포구 매봉산로 75 (상암동, 디디엠씨 지1층 102호일부(푸드코트내10호))",고갈비집 술도가,37.578519,126.8929514,한식,0,0,3
양천구,"서울특별시 마포구 성암로3길 7, 지상1층 (중동)",국수산책,37.5691474,126.9114619,한식,4,8,0
서초구,"서울특별시 송파구 도곡로64길 25 (잠실동,지상1층)",소공동뚝배기집 교대점,37.5048052,127.0807927,한식,3.5,4,14
종로구,"서울특별시 성동구 무수막길 91-1, 2층 (금호동2가)",봉미네,37.5539662,127.0199561,한식,5,4,0
종로구,"서울특별시 서초구 반포대로23길 13, 1층 (서초동)",전주식당,37.4889161,127.0080706,한식,3.7,11,67
영등포구,"서울특별시 송파구 삼전로 78, 지상1층 (삼전동)",집밥생각,37.5054056,127.0893322,한식,0,0,0
성동구,"서울특별시 서초구 강남대로6길 4, 1,2층 (양재동)",사계,37.4675343,127.0416496,한식,3.7,3,21
서초구,"서울특별시 성동구 성덕정길 131-1, 1층 (성수동2가)",이땅원,37.536676,127.0580338,한식,0,0,0
송파구,"서울특별시 성북구 월계로40길 7 (장위동, 센트럴타운 상가 105호)",장우 대구막창,37.6229606,127.048374,한식,5,1,8
강서구,"서울특별시 양천구 목동중앙서로1길 16, 케이빌딩 지상1층 (목동)",서울족발,37.5332463,126.8645135,한식,0,1,1
종로구,"서울특별시 송파구 양재대로 1222, 2층 49호 (방이동, 올림픽프라자상가)",황기순칼국수,37.515729,127.1310643,한식,3,4,5
영등포구,"서울특별시 성북구 돌곶이로 65-6 (석관동,(1층))",웅이네,37.6095617,127.0580293,한식,1,1,0
서초구,"서울특별시 서초구 언남11길 34-2, 1층 (양재동)",미친노가리,37.4754737,127.0432512,한식,3.3,4,1
강남구,"서울특별시 양천구 목동중앙본로1길 5, 제201동 제지층 제지104호 (목동, 목동2차 월드메르디앙)",뽕족본점,37.538415,126.8708044,한식,3.9,23,100
중구,"서울특별시 서초구 반포대로30길 9, 블루힐65 101호 (서초동)",곰국시집,37.4917395,127.0090613,한식,2.6,21,22
양천구,"서울특별시 서초구 강남대로34길 46, 지하1층 (양재동)",장수생고기,37.4836793,127.0383961,한식,5,1,2
중구,"서울특별시 서대문구 이화여대길 34, 3층 (대현동)",남산,37.5584288,126.9459565,한식,4.4,60,107
성동구,"서울특별시 서초구 신반포로43길 11-8, 남강빌딩 1층 (잠원동)",짱구네순대타운,37.5106427,127.0174729,한식,2.2,5,3
서초구,"서울특별시 서초구 서초대로26길 24, 지하1층 (방배동)",김가네칼국수,37.4868284,126.9945341,한식,3.2,11,7
서초구,서울특별시 마포구 동교로 150 (서교동),제주특수한판,37.5553114,126.9187424,한식,4,1,17
성북구,서울특별시 성북구 한천로78길 15 (석관동),원이자카야,37.6116166,127.0634136,한식,4.5,2,4
은평구,"서울특별시 마포구 마포대로 137, KPX빌딩 지하1층 (공덕동)",카페쿠모,37.5467933,126.9526142,한식,0,0,1
광진구,"서울특별시 마포구 마포대로6길 20-1 (공덕동, 1층)",카레시대,37.5450847,126.9533302,한식,4.5,8,4
서초구,"서울특별시 성동구 사근동길 47, B101호 (사근동)",예원이네 이태리 화덕포차,37.5611971,127.0460943,한식,4,506,8
성북구,"서울특별시 서초구 강남대로37길 51, 요한빌딩 지하층 (서초동)",만나순대국,37.4846014,127.0307479,한식,0,0,0
송파구,서울특별시 송파구 가락로16길 2-13 (석촌동),청진동해장국,37.5007484,127.1078926,한식,2.6,7,4
서초구,"서울특별시 성동구 상원2길 6, 1층 2호 (성수동1가)",유벤타,37.5458162,127.049539,한식,0,0,0
송파구,"서울특별시 서대문구 신촌로 83, 현대백화점신촌점 10층 (창천동)",봉평형제메밀,37.5560846,126.9358309,한식,3.3,11,6
양천구,"서울특별시 송파구 송파대로 345, 1B동 B1층 184호 (가락동, 헬리오시티)",산아래맛있는이야기,37.4976183,127.1072604,한식,4,4,7
영등포구,"서울특별시 송파구 송파대로30길 41-19, 1층 (가락동)",삼거리자매,37.4969076,127.1207867,한식,4.6,5,4
은평구,"서울특별시 서대문구 연세로7안길 42 (창천동,(지하1층))",히야,37.5584171,126.9345819,한식,5,4,4
영등포구,"서울특별시 서초구 효령로 318 (서초동,1층)",정거장,37.4854806,127.0191652,한식,4,1,4
영등포구,"서울특별시 송파구 올림픽로8길 12 (잠실동,(1층))",도도포차,37.5105646,127.0800281,한식,5,1,4
강동구,"서울특별시 서대문구 불광천길 278, 1층 (북가좌동)",카츠젠,37.5864063,126.9133912,한식,5,1,0
영등포구,서울특별시 송파구 오금로36길 51 (가락동),등촌샤브칼국수,37.4994394,127.1229466,한식,4.4,18,23
서초구,"서울특별시 송파구 가락로 142, 1층 102호 (송파동)",사랑채,37.5022896,127.111716,한식,0,0,0
송파구,"서울특별시 마포구 동교로 238-1 (연남동, 1층일부)",월계수 식당,37.561157,126.9244956,한식,2.1,10,14
서대문구,"서울특별시 송파구 올림픽로34길 27-22, 1층 (방이동)",문화촌갈매기,37.5152841,127.1124446,한식,4.8,4,2
영등포구,"서울특별시 마포구 마포대로 92 (도화동, 2층일부)",혼밥대장,37.5425431,126.9521969,한식,2.1,7,4
성동구,"서울특별시 서대문구 충정로 63, 1층 (충정로2가)",고흥만,37.5645432,126.9653952,한식,5,2,1
성동구,"서울특별시 송파구 송파대로28길 27, 102동 204호 (가락동, 송파성원쌍떼빌)",이모네 생고기,37.4950169,127.1203666,한식,1.9,8,5
종로구,"서울특별시 서초구 반포대로 316 (잠원동,한신시티 지하)",서울옥,37.507224,127.0005608,한식,0,0,0
서초구,"서울특별시 서초구 사평대로56길 7, 1층 112호 (서초동, 서초한일유앤아이주상복합)",삼육가 사당역1호점,37.5032162,127.0235331,한식,4,68,277
중구,"서울특별시 서초구 서초대로77길 41, 1층 (서초동)",샤브로.com,37.5012446,127.0250115,한식,2.6,10,2
강남구,서울특별시 서대문구 명물길 27-7 (창천동),전봇대,37.5584438,126.9376543,한식,3.6,5,19
성북구,서울특별시 성북구 화랑로 119-13 (하월곡동),빨간모자피자고대점,37.6049944,127.0442572,한식,4.8,5,4
용산구,"서울특별시 서대문구 통일로 476, 1층 5호 (홍제동, 원일아파트 상가)",1인1닭,37.5907562,126.9424348,한식,4.2,10,4
영등포구,서울특별시 서대문구 신촌로 67 (창천동),데미그라스,37.5565058,126.9340601,한식,3.9,8,3
서초구,"서울특별시 서초구 서초대로 347, 서초크로바타워 B101호 (서초동)",정든집,37.4956714,127.0192532,한식,1.4,5,22
성북구,서울특별시 성북구 한천로76다길 46 (석관동),국수랑,37.6131029,127.0652557,한식,4.7,6,5
종로구,"서울특별시 서초구 주흥길 72-9, 1층 (반포동)",향토,37.509243,127.0195871,한식,1,1,4
성북구,"서울특별시 마포구 신촌로 108, 지상1층 (노고산동)",진미식당,37.5551513,126.9378766,한식,0,0,0
용산구,서울특별시 서대문구 통일로9안길 36-4 (충정로2가),이북집찹쌀순대,37.5657986,126.9652619,한식,3.3,36,36
양천구,"서울특별시 마포구 상암산로 76 (상암동, 지하1층)",송추가마골 목동지점,37.5791261,126.8923741,한식,2.6,25,35
성북구,"서울특별시 서초구 효령로 394, 1층 101호 (서초동)",한사우순두부,37.4878655,127.0269083,한식,2.5,4,13
중랑구,"서울특별시 성동구 마조로15길 2, 1층 (마장동)",토종순대국,37.5637611,127.041446,한식,3.2,6,7
은평구,"서울특별시 서초구 반포대로23길 34, 1층 (서초동)",성원식당,37.4888946,127.0069204,한식,4,2,1
양천구,"서울특별시 마포구 성지길 27 (합정동,1층)",홍장어,37.5473364,126.913412,한식,5,2,12
영등포구,"서울특별시 송파구 올림픽로32길 29, 유성빌딩 (방이동)",진도식당,37.5134183,127.1099411,한식,5,3,2
용산구,"서울특별시 서대문구 통일로 107-15, 효곡빌딩 1층 102호 (미근동)",대관령목장,37.5644519,126.9671715,한식,3.3,8,9
은평구,"서울특별시 마포구 독막로8길 9 (합정동,1층)",봉숙이네 집,37.5474316,126.9183115,한식,0,0,1
송파구,"서울특별시 서초구 사임당로12길 17, 교대빌딩 B동 1층 105호 (서초동)",한솥도시락 방이시장점,37.4882628,127.017191,한식,2.6,10,0
성동구,"서울특별시 마포구 방울내로 67 (망원동, 1층 일부)",슈퍼집 금호점,37.5601331,126.9027725,한식,3,5,26
송파구,"서울특별시 성동구 무학로6길 50 (도선동,쉐르빌 101동165호(이슬길 14))",우 & 돈,37.5644041,127.034979,한식,3,2,0
중랑구,"서울특별시 송파구 오금로15길 5-8, 지상1층 (방이동)",바다양푼이동태탕,37.5123645,127.1088494,한식,2,1,0
동작구,"서울특별시 양천구 목동중앙북로 7, 1층 120호 (목동, 신한이모르젠)",배부장찌개,37.5490221,126.8644815,한식,2.1,10,18
영등포구,"서울특별시 마포구 월드컵로1길 7 (합정동,1F)",정가네,37.5494613,126.9124989,한식,3,1,2
서대문구,"서울특별시 서초구 신반포로 100, 114호 (반포동, 래미안퍼스티지 신반포역상가동 )",아웃닭신촌역점,37.503085,126.9956936,한식,3,24,44
중랑구,"서울특별시 송파구 위례광장로 270, G동 106,107호 (장지동, 송파와이즈더샵)",지리산청정흑돼지,37.4765219,127.1434373,한식,0,0,1
성동구,"서울특별시 서초구 반포대로 30, 101호 (서초동)",성수손칼국수,37.48323,127.0122467,한식,0,0,2
중구,"서울특별시 서대문구 연세로4길 48 (창천동,(지하1층))",제주본가,37.5580443,126.9391194,한식,3.7,10,3
성동구,"서울특별시 서대문구 모래내로 213, 유광빌딩 1층 (남가좌동)",곱분이곱창 금호역점,37.5736962,126.9230742,한식,5,2,3
송파구,"서울특별시 송파구 올림픽로8길 7, 잠실엠타워 2층 201,202,203호 (잠실동)",남원추어탕,37.5110564,127.0803525,한식,4.5,19,12
서초구,"서울특별시 서초구 반포대로24길 95, 지하1층 (서초동)",도토리,37.4891227,127.0140826,한식,3.9,20,26
성동구,"서울특별시 서초구 남부순환로356길 32, 1층 (양재동)",가평식당,37.4834815,127.0379982,한식,4.7,3,0
강북구,"서울특별시 양천구 목동남로4길 22, 지상1층 (신정동)",달리는 려석들,37.508794,126.8655075,한식,5,1,0
양천구,"서울특별시 서대문구 홍제원3길 18, 1층 (홍제동)",우장창창,37.5874862,126.9470171,한식,3.6,20,22
용산구,"서울특별시 서초구 방배천로 21, 1층 (방배동)",대교맛집,37.4784871,126.9822904,한식,3.5,22,13
송파구,서울특별시 성북구 종암로27길 18 (종암동),백가 수제 갈비,37.6028964,127.0316236,한식,0,0,6
영등포구,"서울특별시 성북구 보국문로11길 23, 청수한의원 2층 (정릉동)",미미,37.608571,127.0087363,한식,0,0,0
서대문구,"서울특별시 서초구 서초중앙로26길 5, 지하1층 (서초동)",닭내장집,37.4956664,127.0140137,한식,3.7,13,38
용산구,서울특별시 서대문구 증가로 31 (연희동),바어바,37.5708053,126.9301502,한식,4.2,5,3
양천구,"서울특별시 서초구 논현로31길 64, 지하1호 (양재동)",용두본쭈꾸미,37.4801329,127.0402983,한식,1,3,8
송파구,"서울특별시 송파구 송파대로45길 3-24, 지상1층 1,2호 (석촌동, 동해빌딩)",석촌주막,37.5054952,127.1060245,한식,5,1,9
송파구,"서울특별시 성동구 행당로 129, 1층 (행당동)",명품초밥,37.5584949,127.0333155,한식,3,1,0
중구,"서울특별시 서초구 마방로 10, 금계빌딩 1층 (양재동)",양미옥,37.4737494,127.0401216,한식,3.6,227,142
송파구,"서울특별시 마포구 희우정로10길 5 (망원동, 1층일부)",강명수아저씨네,37.552737,126.9044441,한식,0,0,0
송파구,"서울특별시 성북구 길음로7길 6, 상가동 1층 1-13호 (길음동, 길음뉴타운)",방이비빔밥샤브칼국수,37.6043358,127.0223968,한식,4.3,92,105
은평구,"서울특별시 서초구 서초대로78길 56 (서초동,금성상가 2층 206호)",본집 참숯생고기,37.4929677,127.0289687,한식,0,0,2
서초구,"서울특별시 성북구 돌곶이로41길 49, 1층 (장위동)",서초삼계탕,37.6171028,127.0471484,한식,2.8,4,6
종로구,"서울특별시 송파구 위례광장로 270, 1층 G124호 (장지동, 송파와이즈더샵)",전대감댁,37.4765219,127.1434373,한식,2.8,40,42
서초구,"서울특별시 양천구 목동동로 257, 지하2층 (목동, 목동현대백화점)",용호동낙지 파스텔시티 사당점,37.5265922,126.8744517,한식,3,5,22
강남구,"서울특별시 양천구 목동중앙북로 86, 1층 (목동)",모슬포,37.5463204,126.8726213,한식,0,0,0
성동구,"서울특별시 서초구 사평대로55길 139, 1층 (반포동)",명가 닭 한마리,37.5100193,127.0200038,한식,1.6,7,11
은평구,"서울특별시 마포구 동교로 197 (동교동, 1층)",산들식당,37.557948,126.9226613,한식,5,8,28
은평구,"서울특별시 성북구 고려대로5길 75, 1층 (삼선동5가)",서울 쭈꾸미,37.5886068,127.0184784,한식,5,1,0
중구,"서울특별시 마포구 성암로13길 43 (상암동, 1층)",호반정,37.5763307,126.8975333,한식,4.1,14,6
송파구,"서울특별시 서초구 효령로 237, 1층 101호 (서초동, 서초한신리빙타워)",딱정벌레,37.4840976,127.0099968,한식,5,4,3
종로구,"서울특별시 성동구 성덕정17길 4-1, 2층 (성수동2가)",채선당 행복 가마솥밥 대학로점,37.5376583,127.0553723,한식,2.8,17,29
종로구,"서울특별시 마포구 월드컵북로 49, 1층 (서교동)",사과나무,37.5585596,126.9174815,한식,4.8,13,0
성동구,"서울특별시 양천구 목동동로 437 (목동, 향도드림네스트 107호 일부)","흥부찜닭,삼겹본능,찌개퀵 왕십리점",37.5376621,126.8847136,한식,0,0,0
송파구,"서울특별시 성동구 동일로55길 3, 1층 (송정동)",오금 숯불구이,37.5564229,127.071444,한식,0,0,0
서초구,"서울특별시 서초구 강남대로37길 56-6, 1층 (서초동)",내고향본가,37.4850262,127.0304563,한식,3.5,6,0
영등포구,서울특별시 성동구 장터5길 5 (금호동3가),다올포차,37.5487742,127.0212177,한식,0,0,2
종로구,"서울특별시 성북구 동소문로 269 (길음동,(6층))",얌샘,37.6049606,127.0255558,한식,2.6,7,15
양천구,"서울특별시 마포구 양화로23길 10-10 (동교동, 1층일부)",참숯돌판구이,37.5593056,126.9257726,한식,4.5,2,0
성동구,"서울특별시 성동구 성수일로4길 46, 2층 (성수동2가)",바우네나주곰탕 성수역점,37.5421464,127.0538917,한식,2.3,4,4
송파구,"서울특별시 성동구 마조로 21, 1층 (행당동)",전주생막걸리,37.5599078,127.040828,한식,0,0,0
송파구,"서울특별시 송파구 거마로 22 (거여동,1층)",부안식당,37.4950189,127.1455174,한식,5,3,0
성북구,"서울특별시 성북구 장월로32길 5, 1층 (장위동)",두번째이야기,37.617606,127.0511397,한식,4,2,2
은평구,서울특별시 서대문구 이화여대1길 42-6 (대현동),바다 양푼이 동태탕 찜,37.5574785,126.9435959,한식,4.1,7,3
서초구,"서울특별시 서초구 신반포로 194, 부속상가동 2층 A-1호 (반포동, 서울고속버스터미날)",개성집,37.50568,127.0058468,한식,4.6,8,1
영등포구,"서울특별시 마포구 월드컵북로 381, 상가동 1층 211호 (상암동, 상암 월드컵파크 4단지)",옥과한우촌,37.5779529,126.8898876,한식,0,0,3
종로구,"서울특별시 마포구 성암로 267, MBC MALL PARK  지하1층 114호 (상암동)",피쉬엔그릴,37.5811234,126.890989,한식,4.5,2,54
노원구,"서울특별시 서대문구 명물1길 2, 1층 (창천동)",대머리곱창,37.557847,126.9373715,한식,2.8,20,29
중구,"서울특별시 서초구 반포대로28길 39, 1층 일부호 (서초동)",허수아비,37.4911984,127.0105179,한식,4.2,32,35
영등포구,서울특별시 성북구 보국문로29길 15 (정릉동),주문진수산,37.615957,127.0030048,한식,0,0,2
송파구,서울특별시 성북구 돌곶이로 159 (장위동),김밥나라,37.6156476,127.0508897,한식,1.9,7,0
서초구,"서울특별시 서초구 양재대로11길 36 (양재동,오토갤러리 금관(가동)지하1층 B107호의 일부)",이모네식당,37.4617956,127.0353791,한식,5,1,3
양천구,"서울특별시 서대문구 증가로10길 36-4, 1층 (남가좌동)",소문난순대집,37.5786307,126.9242096,한식,0,0,0
서초구,"서울특별시 서대문구 신촌로 87-20, 1,2층 (창천동)",하찌,37.5565131,126.9364771,한식,5,2,0
중구,"서울특별시 송파구 백제고분로7길 28-17, 지상1층 (잠실동)",The 92 산들바다,37.5099418,127.0823805,한식,3.6,18,15
성동구,"서울특별시 마포구 양화로18안길 10 (동교동, 1층)",송범식당,37.5566368,126.9252017,한식,3,6,2
강남구,"서울특별시 양천구 목동동로 53, 상가112호 (신정동, 동문굿모닝탑Ⅰ)",엔에스 푸드,37.5150233,126.8608635,한식,0,0,0
강서구,"서울특별시 마포구 마포대로 109 (공덕동, 롯데캐슬프레지던트 지하2층 207호)",쭈박사 마곡점,37.5450054,126.9512549,한식,5,1,7
성북구,"서울특별시 서초구 서운로 138, 지하1층 20호 (서초동, 서초동아타워)",마포갈매기,37.4959961,127.025266,한식,2.3,5,6
영등포구,"서울특별시 마포구 동교로 208 (동교동,3층)",남도식당,37.5585432,126.9236515,한식,5,1,6
중구,"서울특별시 마포구 성미산로28길 41, 1층 (연남동)",충무로 쭈꾸미불고기,37.5622372,126.9237137,한식,3.4,134,124
동작구,"서울특별시 성동구 연무장15길 11, 가동 1층 B129호 (성수동2가)",강여사의부엌,37.54283,127.0589872,한식,0,0,0
송파구,"서울특별시 송파구 송파대로39길 18, 1층 (석촌동)",조은김밥,37.5023911,127.1071058,한식,0,0,0
서대문구,서울특별시 성북구 한천로 620 (장위동),완도집,37.614306,127.0596653,한식,3.4,5,12
강남구,서울특별시 양천구 신월로38길 9 (신정동),아트몬스터 강남역점,37.5212072,126.8612938,한식,3.3,21,942
은평구,서울특별시 서대문구 성산로 381 (연희동),100억곱창,37.5631231,126.9312424,한식,1,1,3
강서구,"서울특별시 성동구 왕십리광장로 17, 4층 (행당동)",마곡모밀&우동,37.5614086,127.0384812,한식,4,2,3
종로구,"서울특별시 성북구 돌곶이로 221, 1층 102호 (장위동, 1,2호)",틈새라면,37.6189268,127.0455174,한식,3.9,24,24
중랑구,"서울특별시 송파구 올림픽로 293-19, 지하1층  65,66호 (신천동)",엉터리양평해장국&감자탕곱창전골,37.515133,127.102499,한식,1.8,5,10
서초구,"서울특별시 송파구 가락로28길 15, 지상1층 (송파동)",동경도,37.5058916,127.1176499,한식,3.6,12,15
서대문구,"서울특별시 송파구 가락로 162, 1층 (송파동)",밀 플랜비,37.5032392,127.1134637,한식,3.7,22,7
서초구,서울특별시 서대문구 연희로 92 (연희동),본도시락,37.5661947,126.9306348,한식,3.8,4,6
영등포구,서울특별시 성북구 서경로 75 (정릉동),고기명가,37.6099524,127.0148157,한식,0,0,0
영등포구,서울특별시 성북구 동소문로20길 29-11 (동선동1가),신원,37.5915034,127.0173881,한식,3,3,0
영등포구,"서울특별시 마포구 어울마당로 127 (동교동, 2,3층)",금산골정육식당,37.5558958,126.9239859,한식,4.5,2,0
성북구,서울특별시 성북구 정릉로31길 32 (정릉동),동선물망초,37.6038978,127.0152177,한식,0,0,23
양천구,"서울특별시 성동구 독서당로 301-101, 1층 (금호동3가)",오돌뼈앤닭발,37.5487974,127.0226356,한식,0,0,0
서대문구,"서울특별시 송파구 가락로42길 16, 지상1층 (방이동)",명품 청기와 감자탕 모래내점,37.5119785,127.12122,한식,4,11,11
중구,서울특별시 성북구 정릉로10길 62 (정릉동),중앙갈비,37.607226,126.9992446,한식,3.6,8,57
중구,"서울특별시 마포구 월드컵북로 14 (동교동, 2층)",진원,37.5564262,126.9205166,한식,0,0,0
영등포구,서울특별시 성동구 장터5길 2 (금호동3가),가시리 여의도점,37.5485581,127.0214379,한식,3.8,5,0
종로구,"서울특별시 성동구 사근동길 68, 지상1층 (사근동)",용대리 명태마을,37.5610792,127.0483664,한식,1,2,7
성동구,"서울특별시 서대문구 응암로1길 8 (북가좌동,(지상1층))",참바다,37.581346,126.911323,한식,0,0,7
종로구,"서울특별시 서대문구 수색로 42 (남가좌동,라동 112호(지상1층))",포장마차,37.5704509,126.9142751,한식,0,0,0
구로구,"서울특별시 서대문구 명지대길 34, 지하1층 (홍은동)",구로푸드,37.5818366,126.9246201,한식,0,0,0
중구,"서울특별시 송파구 올림픽로10길 21, 1층 (잠실동)",선운산풍천장어,37.5098076,127.0814776,한식,0,0,2
중랑구,"서울특별시 송파구 오금로 520 (거여동,지하1층)",공릉닭한마리,37.4927657,127.1465811,한식,2.8,11,11
관악구,"서울특별시 송파구 중대로 24, 지상1층 140-1호 (문정동, 올림픽훼밀리타운)",연소공학과,37.4902451,127.1187912,한식,4.3,4,14
성동구,"서울특별시 서초구 매헌로 25 (양재동,(2층 201호))",89장어,37.4633349,127.0350973,한식,5,1,2
강서구,"서울특별시 양천구 신목로 88 (신정동,2층)",빠샤닭꼬치,37.5224068,126.8749626,한식,0,0,7
은평구,"서울특별시 서대문구 연세로11길 35 (창천동,(지상1층))",곱길,37.5588429,126.9348529,한식,5,5,7
중랑구,"서울특별시 송파구 성내천로 136, 101호 (거여동)",태릉만두,37.49898,127.1435199,한식,4,2,3
중랑구,"서울특별시 성동구 둘레7길 18 (성수동1가,지상1층)",산채보리밥,37.5380352,127.0494464,한식,4.6,7,19
종로구,"서울특별시 서대문구 신촌로 61-1, 화현빌딩 1층 1호 (창천동)",풍류사랑,37.5566854,126.9333145,한식,4.2,5,0
송파구,"서울특별시 성북구 보문사길 111 (보문동6가, 보문파크뷰자이아파트 상가8호)",다락,37.5802161,127.0188098,한식,0,0,1
동대문구,"서울특별시 양천구 신정로 167, 서부트럭터미널 B동 지하1층 9호 (신정동)",장일포차,37.5093497,126.8418951,한식,0,0,0
성북구,"서울특별시 송파구 새말로 128 (문정동,지상1층)",웰빙여기가좋겠네,37.4828375,127.1283162,한식,2,1,1
서초구,서울특별시 성북구 한천로73길 42 (석관동),우렁식탁,37.6095791,127.0611448,한식,5,5,31
서초구,"서울특별시 송파구 새말로10길 8, 1층 (문정동)",구룡포 막회,37.4822405,127.1273298,한식,2.8,5,31
은평구,서울특별시 서대문구 수색로2길 27 (남가좌동),연희김밥,37.5700732,126.9162344,한식,3,3,2
중구,"서울특별시 서초구 나루터로 79, 1층 106호 (잠원동)",원할머니보쌈.족발 본점,37.5159638,127.0184862,한식,3.2,72,72
양천구,서울특별시 서초구 반포대로12길 51 (서초동),육감만족양천구청점,37.4853123,127.0140908,한식,4.2,10,6
용산구,"서울특별시 서초구 강남대로79길 35, 지하1층 (반포동)",꿈꾸는메밀,37.5043653,127.0223492,한식,4.4,7,127
성동구,서울특별시 마포구 만리재옛길 56 (공덕동),본도시락 한양대후문점,37.548592,126.9575414,한식,2,4,1
은평구,서울특별시 서대문구 연세로5가길 11 (창천동),징크,37.5571934,126.9360828,한식,5,6,7
성북구,"서울특별시 서초구 서초대로75길 25, 2층 (서초동)",오뚜기식당,37.4999055,127.0252471,한식,0,0,0
강북구,"서울특별시 마포구 마포대로 45 (도화동, 일진빌딩지1층일부)",수유한우,37.5404731,126.9463744,한식,0,0,0
영등포구,"서울특별시 마포구 어울마당로 60, 2층 (서교동)",돼지사랑,37.5504074,126.9213812,한식,0,0,0
용산구,"서울특별시 송파구 올림픽로10길 22, 1층 101호 (잠실동)",돈다발,37.5097461,127.0811985,한식,0,0,0
송파구,서울특별시 성북구 동소문로23길 8-5 (동선동4가),청해코다리,37.5942033,127.0176423,한식,0,0,0
성북구,"서울특별시 송파구 법원로11길 25, B106호 (문정동)",제주고깃집,37.4849481,127.1162277,한식,4.7,22,112
중랑구,"서울특별시 성동구 마조로 17 (행당동,B동13호)",소양강,37.5595596,127.0404711,한식,4,1,3
영등포구,서울특별시 성북구 돌곶이로18길 36 (석관동),광명대창집영등포점,37.609238,127.0607872,한식,3,9,95
송파구,서울특별시 서대문구 통일로39길 6 (홍제동),잠실본동점 굽네치킨,37.5884783,126.9438788,한식,2.8,22,1
송파구,"서울특별시 서초구 강남대로23길 25, 1층 (양재동)",포원,37.4764304,127.0375603,한식,4.3,7,28
은평구,"서울특별시 마포구 와우산로3길 32 (상수동, 1층일부)",할머니집,37.5459404,126.9212209,한식,0,0,0
종로구,서울특별시 마포구 토정로37길 19 (용강동),AW컨벤션센터,37.5411999,126.9449217,한식,3,8,21
동대문구,서울특별시 서대문구 가좌로 50 (홍은동),삼시세끼,37.5783368,126.9303968,한식,5,6,0
성동구,서울특별시 마포구 토정로 313 (용강동),담바골,37.5399731,126.9437803,한식,4,1,1
중구,서울특별시 성북구 성북로 18-1 (성북동),스시리짱,37.5898626,127.00486,한식,3.5,11,5
종로구,"서울특별시 서초구 효령로53길 45, 102호 (서초동, 서초이오빌)",순남시래기,37.4865404,127.0129446,한식,3.9,16,11
종로구,"서울특별시 성동구 난계로 35, 2층 (금호동1가)",수정식당,37.5555287,127.0244859,한식,4.2,44,85
중랑구,"서울특별시 성북구 고려대로24가길 8, 지하1층 (안암동5가)",이학갈비,37.5851968,127.0298654,한식,3.5,30,19
양천구,"서울특별시 서대문구 연세로9길 19, 1층 (창천동)",우리네코다리,37.5583859,126.9356944,한식,4,1,1
영등포구,"서울특별시 성북구 솔샘로6길 59 (정릉동,(1층))",고기장인,37.6089893,127.0080483,한식,0,0,2
성북구,"서울특별시 서초구 반포대로12길 41, 지하1층 (서초동)",길손식당,37.4852835,127.0136556,한식,0,0,0
양천구,"서울특별시 마포구 홍익로 25, 지2층 (서교동, 서교호텔별관)",새천년 포장마차,37.554433,126.9219995,한식,0,0,0
용산구,"서울특별시 서대문구 연세로7길 25, 3층 (창천동)",아방,37.5574963,126.935377,한식,4.3,13,52
중구,"서울특별시 마포구 와우산로32길 31-4 (동교동, 1층)",브라운빌,37.5549412,126.9318526,한식,0,0,0
영등포구,"서울특별시 서초구 강남대로65길 9, 3층 (서초동)",은성순대국,37.5002531,127.0250839,한식,3.6,5,5
성북구,"서울특별시 성동구 무학로2길 35, 지하1층 (도선동)",식당늘푸른 분식늘푸른,37.5633005,127.0337075,한식,0,0,0
영등포구,"서울특별시 성북구 종암로21길 37-2 (종암동,(1층))",덕일,37.6003119,127.0333231,한식,3,1,4
중랑구,서울특별시 서초구 서초대로 108 (방배동),신선한우촌,37.4875341,126.9942153,한식,4,10,67
영등포구,"서울특별시 서초구 방배로25길 57, 지하1층 (방배동)",궁중칼국수아구찜,37.4875759,126.9899231,한식,4,6,12
성동구,"서울특별시 서초구 동광로45길 6, 101호 (반포동)",우영푸드빌,37.4945711,127.0008682,한식,0,0,0
서대문구,"서울특별시 서대문구 연세로 42-24, 1층 (창천동)",강가네순대국,37.5592499,126.9384306,한식,4.3,5,1
송파구,"서울특별시 성동구 독서당로 173, 지상1층 101호 (옥수동, 극동그린상가)",초가집,37.5415617,127.0109203,한식,4,2,1
송파구,"서울특별시 서초구 태봉로 62, 501호 (우면동, 네이처프라자)",당신,37.4640396,127.0250144,한식,0,0,0
성동구,"서울특별시 서초구 남부순환로347길 28, 반도빌딩 1층 (서초동)",화적당,37.4856499,127.0316921,한식,2.9,17,35
용산구,"서울특별시 서대문구 충정로11길 20, 1층 102호 (충정로2가)",버들골,37.5655729,126.9652788,한식,4.2,20,20
중구,"서울특별시 송파구 송파대로14길 6, 2층 201호 (문정동)",미스사이공,37.4834605,127.1246474,한식,2.8,4,9
영등포구,"서울특별시 송파구 송파대로 167, 문정역테라타워 B동 151-1, 152호 (문정동)",호식이두마리치킨,37.4846615,127.1209336,한식,2.9,10,3
강북구,"서울특별시 양천구 목동로 186 (목동, 목동아파트 7단지 에이상가 202호)",홍초불닭발,37.5252368,126.8664056,한식,0,0,1
서초구,"서울특별시 성동구 무학로8길 33, 1층 (홍익동)",백채 김치찌개 ,37.5654201,127.0346242,한식,2.8,6,14
송파구,서울특별시 서대문구 통일로28길 5-2 (홍제동),참숯골,37.583916,126.9501298,한식,5,2,2
영등포구,서울특별시 성북구 삼양로9길 9 (길음동),미락원,37.60848,127.0226376,한식,0,0,0
성북구,"서울특별시 서초구 반포대로28길 28, 초석빌딩 1층 101호 (서초동)",청수냉면 갈비탕,37.490734,127.0101693,한식,1,1,2
서대문구,"서울특별시 마포구 양화로18안길 18 (동교동, 1층)",이종구 낙지세상,37.5566895,126.925614,한식,4,2,16
종로구,"서울특별시 마포구 만리재옛길 32, 2층 202호 (신공덕동)",옛날집,37.5468745,126.9562086,한식,4.5,2,2
중구,"서울특별시 서초구 방배로 22, 1층 106-2호, 2층 202,203호 (방배동)",본도시락  회현역점,37.4770715,127.0009608,한식,1,5,2
종로구,서울특별시 서대문구 이화여대길 52-31 (대현동),초정,37.5594539,126.9447509,한식,0,0,0
영등포구,서울특별시 성북구 창경궁로 322-6 (삼선동1가),천정향,37.5877733,127.0054025,한식,0,0,0
종로구,"서울특별시 마포구 월드컵북로54길 17, B114호 (상암동, 사보이시티디엠씨)",라인,37.5813386,126.8885633,한식,0,0,3
송파구,"서울특별시 성동구 마조로5길 4-10 (행당동,(101호))",금강산감자탕,37.5603889,127.0408586,한식,2,5,5
노원구,"서울특별시 양천구 목동중앙로 95 (목동,(1층,모새미로 95))",씨엔케이,37.5376376,126.8722286,한식,0,0,0
양천구,"서울특별시 성동구 성수이로 126 (성수동2가,외4필지(지상1층))",축산이야기,37.5461114,127.0577706,한식,4,1,0
영등포구,"서울특별시 성북구 삼선교로 85 (삼선동4가,(1층))",영등포복집,37.58995,127.0148285,한식,4.1,29,9
송파구,"서울특별시 송파구 올림픽로 505, 유원빌딩 1층 (풍납동)",을밀대,37.5273217,127.1183516,한식,3.6,31,80
송파구,"서울특별시 서대문구 인왕시장길 12, 제나동 1층 (홍제동)",명동식당,37.5910131,126.9426124,한식,4.4,13,5
용산구,"서울특별시 서대문구 연세로5다길 22, 2층 (창천동)",청기와미래회관,37.5566433,126.9344894,한식,3.8,15,3
중구,"서울특별시 송파구 오금로13길 12, 지상1층 (방이동)",브라운치킨,37.5133442,127.1092124,한식,0,0,0
영등포구,"서울특별시 서초구 서초중앙로 247 (반포동,지하1층, 지상1층)",손님칼국수,37.503524,127.0107486,한식,1,2,7
중구,서울특별시 서초구 방배천로 8 (방배동),을지차루,37.4772248,126.9829584,한식,4.5,12,37
강서구,"서울특별시 성동구 성수이로 37, 지하1층 (성수동2가)",롱타임노씨,37.5385974,127.0545847,한식,5,3,3
영등포구,"서울특별시 서대문구 증가로29길 40, 에이제이산업 1층 (북가좌동)",이화수전통육개장,37.581283,126.911473,한식,2.8,13,14
성북구,서울특별시 서대문구 통일로39가길 15 (홍제동),금테두른구공탄,37.5887412,126.9431984,한식,4.1,8,74
중구,"서울특별시 마포구 백범로1길 8 (노고산동,1층)",농촌마을,37.5542105,126.9375231,한식,0,0,0
강동구,"서울특별시 양천구 신월로38길 3 (신정동, 1층)",홍가네,37.52158,126.8612184,한식,0,0,0
은평구,"서울특별시 서대문구 연세로5가길 8-6, 1층 (창천동)",오는정,37.5574796,126.9364186,한식,2.8,51,45
은평구,서울특별시 서대문구 통일로 107-23 (미근동),명동찌개마을,37.5642723,126.9669769,한식,0,0,0
성동구,"서울특별시 마포구 와우산로27길 76, 2,3층 (서교동)",이북집찹쌀순대,37.5557336,126.9246626,한식,3.2,5,13
은평구,"서울특별시 서초구 서초중앙로22길 108, 103호 (서초동)",황금호수오리농장,37.4943873,127.0198359,한식,5,2,5
서초구,"서울특별시 서초구 반포대로 104, 1층 (서초동)",수복막창,37.4894786,127.0092005,한식,4.1,7,12
서초구,서울특별시 성북구 정릉로26길 10 (정릉동),산수정,37.6042744,127.0109918,한식,0,0,0
양천구,"서울특별시 송파구 오금로46길 5, 지상1층 (가락동)",서울식당,37.4965565,127.1364748,한식,4.8,5,0
성동구,"서울특별시 마포구 월드컵로3길 27 (합정동, 1층일부)",성동왕구이해물탕,37.5502684,126.9112581,한식,0,0,0
서초구,"서울특별시 마포구 신촌로 24, 2,3층 (동교동)",서초대가 서초법원본점,37.5577384,126.9288656,한식,3.5,18,22
중구,"서울특별시 서대문구 통일로 484, 유진상가, F열  30.31호 (홍제동)",명동칼국수,37.5915888,126.9429917,한식,2.3,4,1
서대문구,서울특별시 성북구 성북로4길 52 (돈암동),미가,37.5958787,127.0104756,한식,3.5,65,19
중랑구,"서울특별시 마포구 마포대로 143 (공덕동,파크팰리스2 B109호)",한아름,37.5474434,126.9530883,한식,5,2,1
서대문구,"서울특별시 서대문구 연대동문길 49, 지상1층 101호 (대신동)",죽해수산,37.5645845,126.9446224,한식,3.2,40,49
성북구,"서울특별시 성북구 종암로 132 (종암동,우림카이저팰리스 111호(지상1층))",버들국수,37.6019266,127.0334985,한식,4.5,6,6
송파구,"서울특별시 송파구 양재대로71길 19-7, 101호 (방이동)",강구식당,37.5105117,127.1246558,한식,3.3,4,3
중랑구,"서울특별시 성동구 장터길 35, 2층 (금호동3가)",본죽 망우동점,37.5484218,127.0198286,한식,5,1,0
영등포구,"서울특별시 서초구 강남대로89길 11, 1층 102호 (반포동)",하이채스,37.5092138,127.0212721,한식,3.7,6,32
중구,서울특별시 마포구 포은로 18 (합정동),순남시래기,37.5496572,126.9090911,한식,3.9,16,46
성북구,"서울특별시 성북구 동소문로2길 65 (동소문동2가,(지상1층))",긴자료코 성신여대점,37.5889881,127.0096246,한식,3.4,14,44
중구,"서울특별시 서초구 식유촌길 69, 1층 A호 (우면동)",의정부부대찌게,37.4582279,127.0116619,한식,0,0,3
용산구,"서울특별시 성북구 삼양로 13, 지1층 (길음동)",얌샘김밥,37.6044594,127.0248202,한식,2.1,12,22
송파구,"서울특별시 마포구 잔다리로 14 (서교동, 2층)",본도시락,37.5509708,126.9216368,한식,5,2,2
서대문구,"서울특별시 마포구 월드컵로 146 (성산동, 1층)",대창왕족발,37.5610025,126.9059475,한식,5,1,1
용산구,"서울특별시 양천구 남부순환로 357-1, 1층 (신월동)",슈퍼스타떡볶이,37.5353785,126.8292123,한식,3.9,60,32
중구,"서울특별시 서대문구 홍은중앙로 100-1 (홍은동, 지상1층)",조방낙지,37.5994018,126.948653,한식,5,1,1
강동구,"서울특별시 양천구 목동동로 226-13, 지상1층 (목동)",칠공일일,37.5255779,126.8728589,한식,0,0,0
서초구,"서울특별시 서초구 신반포로43길 11-4, 1층 (잠원동)",우리집 가정식 뷔페,37.5107073,127.0176741,한식,0,0,0
서초구,"서울특별시 성동구 성덕정15길 6-1, 1층 (성수동2가)",꼬시집,37.5381607,127.0538002,한식,4.7,18,7
종로구,"서울특별시 서대문구 통일로 143-7 (냉천동,,162-2,163)",강촌쌈밥,37.5671467,126.9648223,한식,3.3,40,28
종로구,"서울특별시 성동구 왕십리로4길 19-1, 2층 (성수동1가)",백암왕순대,37.5466004,127.0461749,한식,3.3,10,5
영등포구,"서울특별시 서대문구 연희로41길 4, 104호 (홍은동, 현대아파트상가동)",고동치,37.5893007,126.9364567,한식,4,4,5
송파구,"서울특별시 성동구 고산자로2길 65, 상가2동 지하1층 2101호 (행당동, 서울숲리버뷰자이)",채선당 잠실점,37.5548428,127.0380265,한식,2.7,21,8
성북구,서울특별시 송파구 송이로23길 6 (가락동),녹차밭돼지사냥,37.494978,127.1242921,한식,0,0,3
종로구,"서울특별시 마포구 월드컵로 156, 1층 (성산동)",일등집,37.5617382,126.905384,한식,5,1,3
종로구,"서울특별시 성북구 길음로13길 24 (길음동, 길음뉴타운프라자 101,102,103호)",제주오겹살,37.6087292,127.0191554,한식,3.9,7,3
서초구,서울특별시 서초구 방배로27길 27 (방배동),메인스타디움,37.4893664,126.9907386,한식,0,0,0
중구,"서울특별시 송파구 법원로9길 26, 에이치비지니스파크 1층 C-103호 (문정동)",0,37.4841717,127.1166254,한식,4.6,101,502
동작구,"서울특별시 서대문구 북아현로14길 21, 1층 (북아현동)",홍도,37.5630253,126.9566034,한식,0,0,0
영등포구,"서울특별시 성동구 성수일로 39, 1층 105호 (성수동1가)",문래푸드,37.5442422,127.0492652,한식,5,2,0
성동구,"서울특별시 서대문구 통일로9안길 20-16 (냉천동,(지상1층))",소양강,37.5664313,126.9648718,한식,4.6,5,1
서대문구,"서울특별시 마포구 월드컵북로6길 82 (동교동, 1층)",공룡부대찌개,37.559882,126.9224533,한식,3.1,10,4
중구,"서울특별시 송파구 마천로 331, 지상1층 (마천동)",약수회관,37.494018,127.1519016,한식,5,2,11
송파구,"서울특별시 송파구 오금로13길 6, 지상1층 (방이동)",춘향고을,37.5130837,127.1084806,한식,5,2,0
중랑구,"서울특별시 서초구 사평대로57길 77, 지상1층 101호 (반포동)",토담골,37.507493,127.0219541,한식,0,0,0
중랑구,서울특별시 성북구 정릉로10길 34 (정릉동),즉석우동,37.6078445,126.9999716,한식,5,1,2
종로구,"서울특별시 마포구 포은로 38, 1층  우측상가 (합정동)",뚱이네,37.5509958,126.907487,한식,0,0,0
중구,"서울특별시 서초구 고무래로 16, 2층 (반포동)",0,37.5031614,127.0102897,한식,4.6,101,503
서초구,"서울특별시 성동구 연무장5길 6, 2층 (성수동2가)",직화한상,37.543633,127.052443,한식,3,3,22
중구,"서울특별시 서초구 남부순환로356길 55, 1층 (양재동)",라튀순,37.4825416,127.0385798,한식,4.5,8,13
중구,"서울특별시 서초구 사평대로56길 8, 1층 나호 (서초동)",대회리 100번지,37.5032431,127.0229371,한식,0,0,0
중랑구,"서울특별시 성동구 금호로 48-1, 1층 103,104호 (금호동4가)",더,37.5476146,127.026034,한식,5,1,26
서초구,"서울특별시 마포구 독막로3길 28-7, 1층 (서교동)",돈데이,37.5495161,126.9174996,한식,5,1,2
중랑구,"서울특별시 마포구 희우정로 130 (망원동, 1층)",풍천장어,37.555929,126.8995016,한식,0,0,16
종로구,"서울특별시 마포구 포은로 48 (합정동,1층)",한우목장,37.5517423,126.907099,한식,0,0,0
종로구,"서울특별시 송파구 올림픽로4길 17 (잠실동,(상가1층175호))",성미 양꼬치,37.5086777,127.0771146,한식,4.3,3,9
중구,서울특별시 성북구 장월로1길 57 (상월곡동),오우가,37.6059999,127.045215,한식,4.2,21,11
은평구,"서울특별시 서초구 나루터로 62, 지하1층 (잠원동)",박사아구,37.5150273,127.0167727,한식,0,0,0
용산구,"서울특별시 마포구 월드컵북로 396 (상암동, 누리꿈스퀘어 B1066호 일부)",김성천스시,37.5793419,126.889819,한식,4.5,15,7
성동구,"서울특별시 서초구 논현로17길 22 (양재동,1층)",마리아주,37.4760295,127.0445847,한식,5,2,0
은평구,"서울특별시 서대문구 홍은중앙로 104, 1층 (홍은동)",은평해물탕,37.5995835,126.9487344,한식,4.2,6,6
강남구,"서울특별시 양천구 목동동로 293, 지하1층 B03,04호 (목동, 현대41타워)",부어치킨 세곡동점,37.5281774,126.8757769,한식,4.4,5,2
용산구,"서울특별시 마포구 잔다리로 13, 1,2층 (서교동)",하나식당,37.5505973,126.9216253,한식,3,6,1
서대문구,"서울특별시 서초구 방배천로 12-3, 1층 (방배동)",신촌아지트,37.4776262,126.9832078,한식,4.7,3,25
중구,"서울특별시 송파구 송이로31길 8-4, 기영빌딩 Ⅱ 1층 (문정동)",오세요추어탕,37.4883341,127.1321765,한식,3.7,3,1
종로구,"서울특별시 마포구 포은로 5, 1층 (합정동)",비어오크대학로점,37.5487262,126.9096548,한식,4.1,16,30
중구,"서울특별시 서초구 반포대로 316 (잠원동,한신시티21지층4호)",꼭지네,37.507224,127.0005608,한식,0,0,3
종로구,"서울특별시 송파구 위례광장로 188, 아이온스퀘어 1층 134호 (장지동)",가츠야마,37.4810773,127.1424444,한식,5,2,3
영등포구,"서울특별시 서초구 서초대로77길 31, 지층 (서초동)",꺼먹돼지집,37.5006169,127.0253986,한식,0,0,0
노원구,"서울특별시 양천구 목동중앙북로 95, 1층 (목동)",꼬지사께,37.5463348,126.8738582,한식,0,0,1
양천구,"서울특별시 서초구 반포대로 222, 지하1층 (반포동, 서울성모병원 본관 )",코너식당,37.5009444,127.0051154,한식,0,0,0
동대문구,서울특별시 양천구 목동중앙북로7가길 23 (목동),옛날할머니보쌈,37.5489724,126.866023,한식,4.7,3,13
양천구,"서울특별시 서초구 반포대로30길 55, 1층 (서초동)",린궁즈,37.4925072,127.0115658,한식,4.1,7,7
중구,서울특별시 서초구 남부순환로356길 33 (양재동),소공,37.4835685,127.0382388,한식,4.6,101,503
성동구,"서울특별시 서초구 사임당로 138, 신동아아파트상가 105호 (서초동)",홍춘천 치즈 닭갈비 옥수역점,37.4911287,127.0248258,한식,3.5,4,3
영등포구,"서울특별시 송파구 가락로18길 2, 지상1층 (송파동)",0,37.5019844,127.1109261,한식,3.2,14,149
중구,"서울특별시 서초구 반포대로24길 82 (서초동,1층)",육전마당,37.4887557,127.0133994,한식,3.3,3,6
서대문구,"서울특별시 서초구 서래로 5, 1층 101호 (반포동, 프라임 빌라트)",와프트 커피,37.4954679,126.9978428,한식,4.8,4,5
중랑구,"서울특별시 성북구 월곡로5길 19, 1층 (종암동)",무진장한식,37.5979453,127.0383189,한식,3,2,1
은평구,"서울특별시 마포구 와우산로29길 4-36 (서교동, 지층일부(우측))",대마족발,37.5551634,126.9296528,한식,0,0,2
서초구,"서울특별시 서초구 신반포로 49, M동 지상 1층 5호 (반포동, 구반포아파트상가)",대도식당,37.5022129,126.9900136,한식,3.2,48,92
관악구,"서울특별시 성동구 아차산로13길 48, 1층 (성수동2가)",명가쭈꾸미,37.5466621,127.0627762,한식,0,0,0
강북구,"서울특별시 양천구 목동중앙북로4길 12, 지상1층 (목동, 해오름타운)",차우린 해물짬뽕,37.5480376,126.8642933,한식,3.3,6,3
강서구,서울특별시 서대문구 모래내로 364 (홍은동),누나네 해장국,37.5818916,126.9365279,한식,0,0,1
서초구,"서울특별시 송파구 백제고분로15길 47, 지상1층 (잠실동)",밀화,37.5095387,127.0845865,한식,2.6,5,6
은평구,"서울특별시 마포구 새창로 18 (도화동, 2~3층)",홍제동 30년 우동 국수,37.5420072,126.9517903,한식,3.6,14,39
서초구,"서울특별시 서초구 서초대로73길 42, 강남역리가스퀘어 지하1층 B101~B109호 (서초동)",오복김밥,37.5012293,127.024457,한식,0,0,1
송파구,"서울특별시 성동구 성덕정길 99 (성수동2가,(지상2층))",금강산,37.5375978,127.0546247,한식,1,6,4
중구,"서울특별시 마포구 와우산로19길 6 (서교동, 1,2층)",쭈꾸미와매운갈비찜,37.5513451,126.9227607,한식,5,6,5
중구,"서울특별시 마포구 망원로11길 29 (망원동, 1층상가4호)",도깨비불고기,37.5589619,126.9063144,한식,3.8,22,41
용산구,"서울특별시 서초구 서초중앙로22길 17, 1층 (서초동)",광식이네아구찜,37.4933206,127.0148253,한식,3.6,12,7
성북구,"서울특별시 서초구 서초대로 339, 2층,3층 (서초동)",동대문 엽기 떡볶이,37.4954233,127.0185275,한식,2.8,12,10
서대문구,"서울특별시 서초구 서초대로77길 19, 3층 (서초동, 보성빌딩)",완산골명가,37.4995536,127.0257524,한식,3.9,12,5
강동구,"서울특별시 양천구 목동서로 291, 1층 102호 (신정동, 제이월드빌)",장원삼계탕,37.5216299,126.8695483,한식,4.2,22,3
중구,"서울특별시 마포구 월드컵북로 501 (상암동, 월드컵파크 9단지상가 109호)",약수 순대국,37.5834737,126.8788292,한식,2.8,96,64
강서구,"서울특별시 서대문구 모래내로 376, 지1층 (연희동, 제니스APT)",쏘원반미,37.5826324,126.9376747,한식,4.1,7,5
중구,"서울특별시 마포구 손기정로 19, 1층 (아현동)",부민옥,37.5573665,126.9613147,한식,3.5,123,85
용산구,"서울특별시 서초구 서초대로73길 42, 1층 106호 (서초동)",양푼이동태탕,37.5012293,127.024457,한식,4.4,18,23
은평구,"서울특별시 서초구 사평대로 360, 1층 (서초동)",동나루왕숯불갈비,37.5035499,127.0224213,한식,5,4,1
송파구,"서울특별시 송파구 올림픽로12길 35-1, 1층 (잠실동)",서울식당,37.5083298,127.0836806,한식,5,3,6
종로구,"서울특별시 성동구 자동차시장1길 70, B호별동 지하1층 9,10호 (용답동)",니나노 돈까스,37.5603281,127.0651626,한식,0,0,0
서초구,"서울특별시 송파구 가락로 156, 지상1층 3호 (송파동)",맛있는 김밥,37.5029953,127.1130459,한식,5,2,0
중랑구,"서울특별시 성동구 광나루로 156, 지상1층 (성수동1가)",최고집메밀촌,37.5514362,127.047582,한식,5,1,4
송파구,"서울특별시 성동구 마장로 137, 221동 1층 1136호 (상왕십리동, 텐즈힐)",조은식당,37.5692575,127.0248134,한식,4.4,11,6
중구,"서울특별시 서초구 마방로10길 34-15, 1층 2호 (양재동)",고창식당,37.4755563,127.0438265,한식,3.2,13,37
중랑구,"서울특별시 송파구 올림픽로 240 (잠실동,롯데백화점 지상11층)",두레반국수,37.5110794,127.0981638,한식,5,3,2
종로구,서울특별시 성북구 오패산로13길 7 (하월곡동),광화문고기집,37.6071263,127.0360573,한식,4.4,12,43
송파구,"서울특별시 마포구 동교로27길 80 (연남동, 1층일부)","마산 아구찜,탕",37.5611663,126.9203642,한식,4.8,5,1
중구,"서울특별시 마포구 독막로15길 3-3 (상수동, 지1층일부)",닭한마리배터지는집,37.5481034,126.9216348,한식,2.1,8,37
용산구,"서울특별시 서초구 논현로 151, 이스타빌 상가 B동 103호 (양재동)",소소한한끼밥때,37.4829304,127.0420604,한식,5,9,5
용산구,"서울특별시 서초구 신반포로23길 41, 119호 (잠원동)",한강회관,37.5094382,127.0011826,한식,4,9,85
광진구,"서울특별시 양천구 신월로17길 21, 1층 102호 (신월동)",명랑식당,37.5207049,126.8417562,한식,1,1,1
강남구,"서울특별시 양천구 곰달래로13길 48, 지상1층 103호 (신월동)",포메인 레드,37.5339474,126.8354108,한식,5,1,9
영등포구,"서울특별시 송파구 가락로16길 3-6 (석촌동,지상1층)",한강어장,37.501066,127.1089232,한식,4.5,2,3
용산구,"서울특별시 서초구 방배천로2길 2, 1층 (방배동)",전주현대옥 용산역아이파크몰점,37.4769361,126.9829592,한식,2.8,21,17
중랑구,"서울특별시 성동구 독서당로 267-6 (금호동4가,(지상1층))",본가삼대냉면,37.5470274,127.0191669,한식,0,0,3
중구,"서울특별시 마포구 토정로 193 (구수동,굿모닝마트내 1층)",은수정,37.5458348,126.9325442,한식,0,0,0
서대문구,"서울특별시 송파구 잠실로 15 (잠실동,(1층3호))",카라멘야,37.5162353,127.0934731,한식,4.1,39,177
영등포구,"서울특별시 성북구 보문로40길 11, 지1층 B102호 (동소문동5가, 성신여대역솔하임)",오징어마을,37.5918586,127.0140256,한식,2.7,24,23
성북구,"서울특별시 마포구 마포대로4길 30 (도화동, 1층)",우리소육회마왕,37.5384415,126.9465849,한식,1,1,0
영등포구,"서울특별시 서초구 서초대로53길 23, ITEA빌딩 1층 (서초동)",송이원식당,37.496202,127.0143465,한식,0,0,0
양천구,"서울특별시 서초구 강남대로 309, 코리아비지니스센타 2층 (서초동)",그집,37.4906178,127.0307491,한식,0,0,0
서초구,"서울특별시 서초구 효령로 303, 1층 104,105호 (서초동)",남도일번지,37.4854765,127.0173341,한식,4.6,7,0
용산구,"서울특별시 서초구 반포대로28길 73, 2층 (서초동)",용산양꼬치,37.4918807,127.012276,한식,3.4,12,47
양천구,"서울특별시 서초구 반포대로14길 54, A동 1층 103호 (서초동, 신성오피스텔)",신의주순대와쭈꾸미목동점,37.4859517,127.0138799,한식,4,7,15
은평구,서울특별시 마포구 양화로18안길 7 (동교동),정이네 불 곱창,37.5568246,126.9250744,한식,4.7,3,3
용산구,"서울특별시 송파구 동남로18길 23, 2층 (가락동)",마음한잎꿈한그루,37.4942272,127.1330749,한식,5,3,3
성북구,"서울특별시 성동구 독서당로 194, 3층 301호 (옥수동)",최우수,37.5426952,127.0126678,한식,4.9,7,31
강남구,"서울특별시 양천구 목동중앙서로6길 20-27 (목동,지하 1층)",크림,37.5313884,126.8643681,한식,4,3,0
강동구,"서울특별시 양천구 신월로 132, 1층 (신월동)",만분닭한마리,37.5165469,126.8385026,한식,5,2,22
강북구,"서울특별시 양천구 신목로5길 15-2, 1층 (신정동)",의정부식당,37.517491,126.8723136,한식,3,7,17
중구,"서울특별시 송파구 새말로6길 24-33, 1층 (문정동)",삼백집 서울역점,37.4818204,127.128045,한식,5,1,9
중구,"서울특별시 송파구 송이로28길 4, 1층 101호 (문정동)",에머이,37.4905604,127.1269391,한식,3.6,7,19
종로구,"서울특별시 송파구 거마로20길 15, 1층 (마천동)",일오팔닭국수,37.4976798,127.1485367,한식,3.1,8,149
중랑구,서울특별시 성북구 보문로13길 7 (보문동7가),그램그램 상봉점,37.5800889,127.021695,한식,4,1,61
용산구,"서울특별시 마포구 월드컵로 37 (합정동, 합정동웰빙센터 B101호, B102호)",황부자,37.5524796,126.9117159,한식,0,0,0
중구,"서울특별시 송파구 송파대로37길 4-23, 102호 (석촌동)",놀부부대찌개,37.500908,127.1103126,한식,4,3,6
서초구,서울특별시 성동구 마조로3길 6 (행당동),오앤콩,37.5585965,127.0401724,한식,3.5,2,7
중구,"서울특별시 서초구 동작대로 108, 1층 102호 (방배동, 디오슈페리움2)",구이대학,37.4861159,126.9826348,한식,5,1,1
영등포구,"서울특별시 성동구 용답중앙길 42, 1층 (용답동)",쭝일아찌5단계빨강떡볶이,37.5651,127.0509289,한식,4.4,15,17
서초구,서울특별시 서대문구 통일로 107-29 (미근동),우리밀 칼국수,37.5644418,126.9670041,한식,4,8,1
중구,"서울특별시 서초구 남부순환로356길 57-2, 1층 102호 (양재동)",우리집식당,37.4823601,127.0386226,한식,0,0,1
중랑구,"서울특별시 성동구 무학봉15길 26-1, 1층 10호 (하왕십리동)",동부왕족발보쌈,37.5635684,127.0304706,한식,4,7,11
영등포구,"서울특별시 마포구 독막로28길 7 (신수동, 성원아파트101동 상가103호)",본가감자탕,37.546982,126.93746,한식,4.8,13,7
송파구,"서울특별시 송파구 송이로23길 4, 1층 (가락동)",킹콩부대찌개 송파법조타운점,37.4948261,127.124049,한식,4.2,9,12
중구,"서울특별시 마포구 잔다리로 20-13, 지하1층 (서교동)",0,37.551411,126.9207184,한식,4.6,101,503
양천구,"서울특별시 서초구 바우뫼로 150, 1층 (양재동)",강고집해물품은찜,37.476828,127.0370097,한식,0,1,0
도봉구,"서울특별시 서대문구 모래내로 285, 현대빌딩 1층 (홍은동)",자매식당,37.5777559,126.929443,한식,2.7,9,22
서초구,"서울특별시 송파구 동남로2길 27, 정자빌딩 1층 101호 (문정동)",현정이네,37.487025,127.1233348,한식,5,1,0
구로구,서울특별시 양천구 목동중앙북로7가길 11 (목동),한우식당,37.5486349,126.8666027,한식,4.1,14,40
서초구,"서울특별시 서초구 강남대로99길 25, 2층 (잠원동)",남도명가,37.5149386,127.0181809,한식,5,1,74
용산구,"서울특별시 마포구 잔다리로6길 36 (서교동,동천빌딩 1층)",청해진,37.5522554,126.9212072,한식,0,0,0
서대문구,"서울특별시 성북구 삼선교로10길 81, 1층 (삼선동2가)",이모네식당,37.5846654,127.0103215,한식,0,0,0
송파구,서울특별시 성북구 돌곶이로14길 19 (석관동),갯돌,37.6086111,127.0608373,한식,3.8,14,14
양천구,"서울특별시 서초구 사평대로56길 7, 지하1층 106~109,112호 (서초동, 서초한일유앤아이주상복합상가)",뽀빠이우렁추어탕,37.5032162,127.0235331,한식,5,1,3
강남구,"서울특별시 양천구 목동동로 53, 상가동 138호 (신정동, 동문굿모닝탑Ⅰ)",무명,37.5150233,126.8608635,한식,0,0,0
양천구,"서울특별시 서초구 사임당로 25, 1층 101호 (서초동)",제주바당,37.4880073,127.0128332,한식,4.5,3,3
종로구,"서울특별시 서초구 효령로 200, 지하1층 2호 (서초동)",칼국수닷컴,37.4828475,127.006434,한식,2,3,0
용산구,"서울특별시 서대문구 연세로 50, 3층 (신촌동, 세브란스병원본관)",고바우,37.5671131,126.9390292,한식,4,3,3
영등포구,"서울특별시 마포구 숭문길 22-3 (염리동,1층)",윤가네의정부부대찌개,37.5474956,126.9456008,한식,5,1,2
서대문구,"서울특별시 송파구 오금로32길 31, 지하1층 108호 (송파동, 래미안송파파인탑상가)",내가찜한닭,37.5026987,127.1200287,한식,3.2,20,35
종로구,"서울특별시 성북구 동소문로 179-48, 1층 (돈암동)",찌개애감동,37.5983925,127.020883,한식,0,0,5
성북구,"서울특별시 마포구 성지3길 67, 2층 (합정동)",이공김밥,37.546257,126.9166553,한식,4.3,51,125
은평구,서울특별시 성북구 화랑로5길 42 (하월곡동),본도시락 디지털미디어시티역점,37.6044227,127.0395096,한식,3,2,1
용산구,서울특별시 서초구 서초대로42길 80 (서초동),아오이소라,37.4886046,127.0099898,한식,2,2,5
강동구,"서울특별시 양천구 목동중앙북로 83-1, 지상1층 102호 (목동)",전통 춘천닭갈비,37.5465226,126.8725879,한식,4,12,10
중구,서울특별시 서대문구 연희로 154 (연희동),울릉도,37.5709943,126.9344631,한식,2,4,6
영등포구,"서울특별시 마포구 어울마당로 122-1, 1층 (서교동)",전주식당,37.5554369,126.923928,한식,4.6,5,2
영등포구,"서울특별시 송파구 올림픽로35길 112, 장미아파트 에이상가1동 지하 12-1호 (신천동)",옛골,37.517819,127.1017233,한식,5,1,0
송파구,"서울특별시 성동구 왕십리로10길 9-31, 1층 (성수동1가)",잠수교집,37.5468292,127.046307,한식,3.5,17,188
송파구,"서울특별시 송파구 위례광장로 199, 105호 (장지동, 성희프라자)",완도산회포장마차,37.4817002,127.1427874,한식,3,5,6
은평구,서울특별시 성동구 왕십리로4길 20 (성수동1가),오늘은 보글부대,37.5464722,127.0463683,한식,3.6,12,91
종로구,"서울특별시 마포구 동교로3길 99, 1층 101호 (망원동)",맷돌로만 숭인점,37.5547269,126.8991885,한식,4.7,3,2
종로구,서울특별시 성북구 솔샘로6길 49 (정릉동),북창면옥,37.6093589,127.0080522,한식,2.4,5,2
영등포구,"서울특별시 서초구 서초중앙로 51, 서초신성미소시티 1층 101호 (서초동)",킹콩부대찌개동여의도점,37.4863194,127.0150061,한식,3,3,4
중구,"서울특별시 송파구 백제고분로9길 48 (잠실동,지하1층)",문어세상,37.5099279,127.084358,한식,4.3,3,8
송파구,"서울특별시 서초구 서초대로73길 50, 2층 (서초동, 대원빌딩)",밀향기칼국수,37.5016872,127.0240494,한식,4.5,11,9
영등포구,"서울특별시 성동구 뚝섬로 379, 3층 (성수동2가)",서초동 연가,37.539936,127.0534928,한식,3.8,7,1
서초구,"서울특별시 성동구 광나루로11길 36, 1층 (송정동)",호로록국수,37.5508604,127.0676331,한식,4,1,2
송파구,서울특별시 성북구 장월로 148-1 (장위동),정식당,37.6179948,127.0514084,한식,0,0,0
서대문구,서울특별시 성북구 아리랑로5길 45 (돈암동),조선 설렁탕,37.5969467,127.0127259,한식,4.4,14,13
중구,"서울특별시 마포구 새창로6길 2, 1층 (도화동)",동국파전,37.5418252,126.9524046,한식,3.3,3,0
광진구,서울특별시 서대문구 거북골로 19-1 (홍은동),왕십리곱창,37.5802192,126.9251834,한식,4.3,6,4
영등포구,"서울특별시 서대문구 증가로25길 20 (북가좌동,(지상1층))",전주본가,37.5813475,126.9131073,한식,4,5,3
영등포구,"서울특별시 송파구 올림픽로32길 22, 지상1층 (방이동)",辛 닭발 나라,37.5140651,127.1093412,한식,0,0,0
종로구,"서울특별시 서초구 주흥1길 22, 1층 (반포동)",나주곰탕,37.5038431,127.0196445,한식,2,8,7
중랑구,"서울특별시 송파구 올림픽로35다길 32, 지하1층 (신천동)",찡어찡어,37.5150259,127.1020545,한식,4.6,11,19
영등포구,"서울특별시 성동구 광나루로 319, 1층 (송정동)",본가문래점,37.5484117,127.0653615,한식,2.5,16,9
서대문구,"서울특별시 서대문구 충정로 53 (충정로2가,유원골든타워 지하1층)",가문의우동,37.5637531,126.9646501,한식,4.2,28,7
강서구,서울특별시 서대문구 모래내로 376-7 (연희동),데이루나,37.5824463,126.9377273,한식,5,1,2
동대문구,"서울특별시 송파구 중대로 24 (문정동,훼밀리타운 1상가 지하122,123호)",모퉁이,37.4902451,127.1187912,한식,0,0,0
강북구,"서울특별시 양천구 목동중앙본로 35, 1층 102호 (목동)",박가네구이,37.5393008,126.8692318,한식,5,1,0
영등포구,"서울특별시 송파구 올림픽로32길 29, 지상2층 (방이동)",곱창팩토리,37.5134183,127.1099411,한식,5,6,24
영등포구,서울특별시 송파구 위례성대로18길 31-5 (방이동),한방 명품 왕족발,37.5095714,127.1252488,한식,5,11,0
영등포구,"서울특별시 마포구 홍익로2길 27-20, 1층 (서교동)",홍어와낙지,37.5554607,126.9243672,한식,0,0,0
종로구,"서울특별시 서초구 신반포로23길 41 (잠원동,비19호)",진영이네,37.5094382,127.0011826,한식,0,0,0
송파구,서울특별시 서대문구 연세로5다길 28 (창천동),훈이 이모네,37.5568208,126.9340174,한식,0,0,0
영등포구,"서울특별시 서대문구 연세로 24, 지상2층 (창천동)",황금한방오리,37.5577727,126.9371295,한식,5,1,1
서초구,서울특별시 성북구 화랑로 316 (석관동),서초동연가,37.6140238,127.0632907,한식,0,0,0
중구,"서울특별시 서초구 강남대로 455, 지하1층 119호 (서초동, 강남태영데시앙루브 )",오복밥이야기,37.5028616,127.0245631,한식,4,1,2
영등포구,"서울특별시 서대문구 북아현로1길 50, 상가1동 지1층 106호 (북아현동, 신촌푸르지오)",재림,37.5604504,126.9524515,한식,0,0,0
용산구,"서울특별시 마포구 와우산로21길 36-4 (서교동, 지하1층)",후암족발,37.5525531,126.9220123,한식,0,0,0
종로구,"서울특별시 성동구 무학로8길 42-2, 1층 (홍익동)",봄날,37.5651558,127.0355606,한식,2.5,4,61
영등포구,"서울특별시 송파구 올림픽로12길 14, 1층 (잠실동)",어사출또,37.5103307,127.0829206,한식,1.3,6,13
종로구,"서울특별시 마포구 토정로 128, 8, 9층 (상수동)",장수분식,37.5449567,126.9253568,한식,0,0,1
중구,"서울특별시 성북구 종암로23길 10, 1층 1호 (종암동)",깊은 못,37.6000498,127.0334257,한식,4,14,72
양천구,"서울특별시 서초구 서초중앙로2길 72-5, 1층 (서초동)",엄마의 식탁,37.4848827,127.0213822,한식,5,1,1
서초구,서울특별시 서초구 효령로53길 14 (서초동),수다 라운지,37.4852818,127.0138981,한식,3.2,11,10
서대문구,"서울특별시 마포구 동교로 249, 1층 (연남동)",참치 연,37.562203,126.9242093,한식,4.8,5,5
서초구,"서울특별시 성동구 독서당로 223, 래미안 옥수 리버젠  상가동 지하3층 305,306호 (옥수동)",해정집,37.5442707,127.0151919,한식,3.5,4,7
은평구,"서울특별시 서초구 서초중앙로 51, 1층 105호 (서초동, 서초신성미소시티)",백년백세전통삼계탕,37.4863194,127.0150061,한식,4.4,5,4
영등포구,"서울특별시 송파구 송파대로37길 98, 해누리빌딩 1층 102호 (석촌동)",동경,37.4987174,127.1017145,한식,3.9,17,146
영등포구,"서울특별시 마포구 와우산로29길 60, 2층 (서교동, 일부)",보현식당,37.5561506,126.9270185,한식,0,0,0
강북구,"서울특별시 양천구 신정로 312 (신정동,목동뉴프라자 105호)",남강오리,37.5132891,126.8555404,한식,3,1,0
영등포구,"서울특별시 서초구 신반포로3길 18, 1층 2블럭3호 (반포동)",남원식당,37.5029284,126.9863661,한식,3.7,3,1
동작구,"서울특별시 송파구 중대로 127, 한화오벨리스크 1층 109-3호 (가락동)",돈키호테,37.4948535,127.1219157,한식,4.8,4,22
은평구,"서울특별시 서대문구 응암로 145 (북가좌동,,40)",시골밥상,37.5853475,126.9149941,한식,4,1,0
강남구,"서울특별시 양천구 목동중앙남로3가길 31 (목동,1층(고목2길 15))",쿠시 쿠시,37.5370537,126.8641358,한식,3.6,13,9
성동구,"서울특별시 서초구 신반포로47길 77, 두원빌딩 2층 201호 (잠원동)",국보전,37.5138304,127.0184961,한식,0,0,0
성북구,"서울특별시 송파구 백제고분로40길 25, 지상1층 (석촌동)",한선생부엌,37.502515,127.1074788,한식,0,0,0
성동구,"서울특별시 마포구 토정로 296, 2층 (용강동)",테이블,37.5407,126.942043,한식,2.7,3,15
영등포구,"서울특별시 서초구 서운로 138, 지하1층 25호 (서초동, 서초동아타워)",본도시락,37.4959961,127.025266,한식,5,2,2
성동구,"서울특별시 서대문구 인왕시장길 18, 인왕시장 3호동 1층 6호 (홍제동)",브라운돈까스 왕십리점,37.5910507,126.9434383,한식,4.1,14,10
중랑구,"서울특별시 송파구 백제고분로7길 8-12, 승현빌딩 1층 (잠실동)",본가장수촌,37.5098927,127.0797429,한식,3.9,10,43
은평구,"서울특별시 서대문구 수색로2길 24, 3층 (남가좌동)",본도시락 은평뉴타운점,37.5699168,126.9161778,한식,0,0,6
용산구,"서울특별시 서초구 서초대로73길 12, 세계빌딩 1층 (서초동)",정겨운밥상,37.4985581,127.0257556,한식,0,0,3
서대문구,"서울특별시 송파구 백제고분로45길 40, 트윈레이크팰리스빌 A동 제1층 101호 (송파동)",금호 칼국수,37.51103,127.1075149,한식,5,1,1
송파구,"서울특별시 성동구 마조로5길 9 (행당동,지상2층)",술마을 포차,37.5599011,127.0401009,한식,0,0,0
금천구,"서울특별시 양천구 신월로 99 (신월동, 신월시영아파트상가1층109호)",엄마손 설농탕갈비탕,37.5183267,126.83276,한식,5,1,2
강서구,"서울특별시 성동구 왕십리로 410, L동 B112호 (하왕십리동, 센트라스)",맛있는식탁,37.5665508,127.0247865,한식,0,0,2
영등포구,서울특별시 서대문구 명지대길 68-1 (남가좌동),갈비삼대,37.5831122,126.9234998,한식,5,2,27
중랑구,"서울특별시 성동구 행당로17길 5 (행당동, 행당동 317-90,91 지상1층)",맛김밥세상,37.5588723,127.0334913,한식,0,0,0
송파구,"서울특별시 송파구 가락로 235, 지상1층 (방이동)",애바다횟집,37.5093433,127.1174913,한식,4.2,5,1
종로구,"서울특별시 성북구 동소문로 315, 현대백화점미아점 B1층 (길음동)",광희 칼국수,37.6084082,127.0287466,한식,3.7,3,13
송파구,"서울특별시 송파구 백제고분로15길 59, 지상1층 (잠실동)",토마루칼국수,37.5105587,127.084343,한식,4.2,22,22
서대문구,"서울특별시 양천구 목동동로12길 37-1, 지상1층 (목동, 남영빌딩)",국민삼오통닭,37.5226341,126.8754936,한식,0,0,0
종로구,"서울특별시 성동구 독서당로 194, 3층 305호 (옥수동)",오븐에 빠진 닭,37.5426952,127.0126678,한식,2.3,16,3
서대문구,"서울특별시 송파구 백제고분로7길 24-11 (잠실동,지상2층)",마포숯불갈비,37.5101678,127.0818528,한식,4,1,0
은평구,"서울특별시 서대문구 포방터길 44, 1층 (홍은동)",시골막국수,37.5986129,126.94911,한식,3.8,6,3
송파구,"서울특별시 서대문구 연세로 50, 3층 (신촌동)",후포항,37.5671131,126.9390292,한식,4,3,1
서초구,서울특별시 송파구 동남로 226 (가락동),맛기행 사계절,37.4970184,127.1329587,한식,3.4,5,13
성동구,"서울특별시 서초구 강남대로83길 21, 1층 (반포동)",낚시꾼김춘복의도시어부 왕십리점,37.5060921,127.0223884,한식,4,2,4
용산구,서울특별시 서대문구 연세로7안길 30 (창천동),용문숯불생고기,37.5581785,126.9352169,한식,4.5,2,0
성동구,"서울특별시 서초구 사평대로 353 (반포동,서일빌딩 1층 (103-107호))",나나센,37.5042494,127.0217889,한식,3.3,4,14
중구,"서울특별시 마포구 양화로6길 73, 1층 103호 (서교동)",카페 프리아스,37.5486179,126.9182982,한식,5,1,1
중구,"서울특별시 마포구 만리재로 23, 1층 25호 (공덕동)",화포식당,37.5447875,126.9537336,한식,4.5,34,21
종로구,서울특별시 성동구 금호로11길 1 (금호동2가),솔밭식당,37.5546123,127.0194542,한식,4,18,20
서대문구,서울특별시 성북구 장월로11길 25 (장위동),해주면가,37.6119164,127.0476625,한식,5,1,0
서대문구,"서울특별시 서초구 바우뫼로12길 70, 1층 (양재동, 더케이서울호텔)",선희네 명태조림,37.466282,127.0328287,한식,0,0,5
영등포구,"서울특별시 서대문구 경기대로 28, 지하1층 (충정로3가)",우리식당,37.562001,126.9619369,한식,3.7,4,3
영등포구,"서울특별시 성북구 화랑로7길 32 (하월곡동,월곡송림건강랜드내)",톨스토이,37.6037182,127.0401706,한식,0,0,0
종로구,"서울특별시 마포구 월드컵로 102 (성산동, 지상1층)",박리분식,37.5577775,126.9088973,한식,0,0,0
서대문구,"서울특별시 마포구 백범로1길 21, 7층동 (노고산동)",왕가,37.5548545,126.937873,한식,4,3,2
서초구,"서울특별시 서초구 남부순환로 2385, 2층 (서초동)",참이맛 감자탕,37.4801453,127.0113456,한식,2.4,35,159
영등포구,서울특별시 서대문구 연세로5가길 3 (창천동),준이네당산양꼬치,37.5572133,126.9362079,한식,4.5,15,35
종로구,"서울특별시 성동구 무학봉15다길 4, 1층 (하왕십리동)",북촌연잎밥,37.562316,127.0305584,한식,4,4,3
영등포구,"서울특별시 서대문구 증가로 114 (남가좌동,(지상1층))",생고기집,37.577002,126.9250044,한식,4.6,46,155
종로구,"서울특별시 마포구 월드컵북로 497 (상암동, 대원빌딩 101-2호)",라커스,37.5844426,126.8795124,한식,4.7,6,1
은평구,서울특별시 서대문구 연세로7안길 20 (창천동),더함깍둑도새기,37.5582232,126.935721,한식,4.9,8,37
서대문구,"서울특별시 마포구 와우산로29다길 11-1, 지하1층 (서교동)",한양왕족발,37.5549184,126.9279236,한식,0,0,0
영등포구,서울특별시 성북구 한천로78길 71 (석관동),조마루뼈다귀,37.6135526,127.0649678,한식,5,3,4
용산구,"서울특별시 서초구 서운로 138, 지하1층 주방6호 (서초동, 서초동아타워)",방태산,37.4959961,127.025266,한식,2.7,3,0
종로구,"서울특별시 서초구 서초대로25길 24, 1층 (방배동)",상원,37.4889732,126.9939327,한식,4,3,3
성동구,"서울특별시 마포구 잔다리로 62, 1,2층 (서교동)",도선동똥돼지,37.5533974,126.9177143,한식,0,0,0
중랑구,"서울특별시 성동구 서울숲2길 40-7, 1층 (성수동1가)",장수식당,37.5463228,127.042963,한식,0,0,0
금천구,"서울특별시 성동구 왕십리로 58, 1층 104호 (성수동1가, 포휴)",꾸미,37.5427172,127.0452444,한식,5,4,50
영등포구,"서울특별시 서초구 남부순환로356길 51, 부연빌딩 1층 (양재동)",공원불고기,37.4827003,127.0385591,한식,0,0,0
종로구,"서울특별시 성동구 서울숲4길 28, 지하1층 (성수동1가)",커플피그,37.5469518,127.0438255,한식,5,9,0
종로구,"서울특별시 송파구 삼학사로 91, 지상1층 (삼전동)",도원,37.5054638,127.0969621,한식,5,2,0
중구,"서울특별시 송파구 삼전로 89, 지상1층 (잠실동)",서울회관 명동점,37.506559,127.0894599,한식,0,0,2
종로구,"서울특별시 송파구 올림픽로 240 (잠실동,롯데백화점 지상11층)",정원,37.5110794,127.0981638,한식,5,1,12
동대문구,"서울특별시 양천구 목동중앙서로1길 8, 지상1층 (목동)",북촌,37.5328786,126.8645043,한식,4,1,4
강남구,"서울특별시 양천구 목동서로 133-2, 목동하나프라자 101,102호 (목동)",강남불고기,37.5315991,126.8759917,한식,4,1,0
종로구,"서울특별시 마포구 숭문길 226 (염리동, 1층)",한방통닭,37.5564597,126.946698,한식,3.5,6,19
중구,서울특별시 서초구 서초중앙로 105 (서초동),덕수정,37.4910338,127.0138649,한식,3.8,48,69
강남구,"서울특별시 양천구 목동중앙서로 6 (목동,1층)",죽이야기양재역점,37.5323742,126.8645493,한식,4,3,2
은평구,"서울특별시 마포구 월드컵로13길 9 (망원동, 1층일부)",드러머 민경록 라이브,37.5555865,126.909744,한식,0,0,0
중구,"서울특별시 송파구 가락로 210, 1층 101호 (송파동)",주교네순대,37.5069775,127.1165063,한식,0,0,1
양천구,"서울특별시 마포구 성미산로1길 67, 114호 (성산동)",서정갈비,37.5606867,126.9064961,한식,4.4,14,44
종로구,"서울특별시 성동구 성수이로14길 7, 2층 (성수동2가)",진곰,37.5410636,127.0564267,한식,3,2,0
영등포구,"서울특별시 양천구 목동동로8길 3 (신정동, 2층)",편백집 타임스퀘어점,37.5182902,126.8706472,한식,1.5,14,37
송파구,"서울특별시 서초구 효령로 289, 1층 101호 (서초동, 장곡빌딩)",옛촌매운갈비찜,37.4851385,127.0158522,한식,3.5,28,89
서대문구,"서울특별시 성북구 성북로4길 52 (돈암동, 한신한진@상가 417동 1325호)",손큰할매순대국 홍제간호대점,37.5958787,127.0104756,한식,4.5,2,0
영등포구,"서울특별시 성북구 동소문로 71-1, 1층 (동소문동6가)",미주포차,37.5921486,127.0133006,한식,1,2,3
영등포구,"서울특별시 성북구 보문로34길 94, 지상2층 (동선동2가)",주전,37.5912516,127.0205572,한식,0,0,0
양천구,"서울특별시 양천구 목동동로 339 (목동,목동트윈빌101-2(목동동로 309))",양평뼈해장국,37.5321777,126.8767457,한식,0,0,0
서초구,"서울특별시 송파구 동남로2길 4, 1층 (문정동)",일등 추어탕,37.4887363,127.122204,한식,4,2,1
도봉구,"서울특별시 성동구 아차산로7나길 14, 1층 (성수동2가)",고향식당,37.5479016,127.0569262,한식,0,0,0
서대문구,서울특별시 서대문구 통일로 371 (홍제동),신촌 원조 철판 동태찜,37.5832762,126.9495084,한식,3,3,11
은평구,"서울특별시 마포구 백범로 152, 201동 5호 (공덕동, 공덕파크자이)",꼬치먹고 맴맴,37.5451678,126.9472415,한식,0,0,0
서초구,"서울특별시 성동구 왕십리로5길 12-3, 1층 (성수동1가, 656-936)",양평서울해장국큰아들집 양재점,37.5471251,127.0442985,한식,2.5,4,2
서대문구,"서울특별시 서대문구 세무서길 49, 1층 (홍제동)",고향촌,37.590272,126.9460097,한식,4.2,45,30
중구,서울특별시 서초구 반포대로12길 10 (서초동),맹산집,37.4846453,127.0119896,한식,3.7,11,12
용산구,서울특별시 성북구 종암로36길 35-2 (하월곡동),이촌참숯구이,37.606004,127.033686,한식,5,3,3
용산구,"서울특별시 서초구 강남대로6길 36-1 (양재동,1층101호)",로즈앤크라운2,37.4675844,127.0431626,한식,3.9,54,110
성동구,"서울특별시 서초구 강남대로89길 14, 1층 (반포동)",한국집식당,37.5094649,127.0211235,한식,5,25,3
중랑구,"서울특별시 서초구 사평대로57길 96, 1층 (반포동)",소문난감자탕,37.5084734,127.0219347,한식,4.8,4,1
동대문구,"서울특별시 양천구 등촌로 160 (목동,라호1층1호)",백반집,37.5439153,126.862466,한식,4.1,222,227
서초구,서울특별시 성북구 지봉로 177-1 (보문동2가),돈거돈락,37.5851592,127.0184877,한식,3.5,8,5
성북구,"서울특별시 성북구 종암로21길 128, 1층 (종암동)",준이네,37.6035156,127.0304705,한식,0,0,0
영등포구,서울특별시 서대문구 통일로 405 (홍제동),후퉁꼬치튀김,37.5857972,126.9470995,한식,0,0,2
서초구,"서울특별시 송파구 오금로46길 13, 지상1층 (가락동)",행복한식당,37.4960629,127.1358174,한식,4,1,0
성북구,"서울특별시 서대문구 연세로7안길 2 (창천동,(지상2,3층))",솥뚜껑생삼겹살,37.5577527,126.9364522,한식,2.8,4,7
종로구,"서울특별시 서대문구 홍은중앙로 110-2 (홍은동,(지상1층))",고창집,37.6002418,126.9489669,한식,3.2,13,37
영등포구,"서울특별시 양천구 목동동로 258, 지상1층 101~104호 (목동,  금호아파트 근린생활시설)",10000원이네,37.5251092,126.8744362,한식,0,0,0
은평구,"서울특별시 마포구 성암로3길 15 (중동,101호)",고기원칙 ,37.5688911,126.911382,한식,3,1,37
서대문구,"서울특별시 서초구 서초대로 272, 지하1층 (서초동)",토모토모,37.4927215,127.0115949,한식,0,0,1
중구,"서울특별시 성북구 숭인로 50, 근린생활시설-1동 지하2층 1119호 (길음동, 래미안길음센터피스)",호반집,37.6116278,127.0271556,한식,3.1,8,17
중구,서울특별시 성동구 용답중앙11길 12 (용답동),생어거스틴,37.5658548,127.0520045,한식,3.7,50,60
성북구,"서울특별시 성북구 정릉로 307 (정릉동, 라온유@상가 B217호)",떡고물즉석떡볶이,37.6032228,127.0182591,한식,4,2,3
은평구,"서울특별시 마포구 동교로38안길 5 (연남동, 1층)",제주은희네해장국 구파발점,37.5621164,126.9246722,한식,3.1,8,11
은평구,"서울특별시 서초구 신반포로 22, H동 4호, 5호, 6호 (반포동)",참숯꺼먹돼지,37.5011079,126.9871461,한식,2.8,6,0
성동구,서울특별시 마포구 와우산로29길 45 (서교동),돼지네,37.5555518,126.9275181,한식,0,0,0
강남구,"서울특별시 양천구 목동중앙남로11길 29, 지상1층 (목동)",유로포차,37.5390316,126.8643048,한식,2.5,2,27
강남구,"서울특별시 양천구 신정중앙로 107, 지상1층 (신정동)",에스,37.5264384,126.863711,한식,2.2,6,4
동대문구,"서울특별시 양천구 목동중앙북로7가길 14, 지상1층 (목동)",길섶함박,37.5488109,126.866654,한식,0,0,0
은평구,"서울특별시 서초구 방배로23길 13, 2층 (방배동)",항아리,37.4862385,126.9935378,한식,2.8,7,7
성동구,"서울특별시 서대문구 통일로 143-3, 지하1층 (냉천동)",골목집,37.5670558,126.9650048,한식,4,1,0
성동구,"서울특별시 서초구 반포대로13길 7, 1층 102호 (서초동)",몽실이네토종한우,37.4844222,127.010568,한식,3.9,25,17
용산구,"서울특별시 서대문구 신촌역로 14, 2층 (대현동)",도시주막,37.5578447,126.9430727,한식,4.7,3,0
양천구,"서울특별시 성동구 왕십리로14길 10, 1층 (성수동1가)",락감,37.5491795,127.0450031,한식,3.7,21,8
종로구,서울특별시 서초구 방배중앙로 174-2 (방배동),맛보래 떡쳄,37.4945504,126.986273,한식,3.7,29,38
송파구,"서울특별시 성동구 서울숲2길 20-8, 2층 (성수동1가)",부산식당,37.5469116,127.0407412,한식,0,0,0
송파구,"서울특별시 송파구 위례성대로18길 28-13, 1층 (방이동)",또와치킨,37.509999,127.1243156,한식,0,0,0
영등포구,"서울특별시 마포구 잔다리로3안길 21 (서교동, 1~2층)",매일낙지,37.5507876,126.9197338,한식,4.3,7,10
종로구,"서울특별시 서대문구 연세로11길 8, 1층 (창천동)",아리가또 맘마,37.5590464,126.9364853,한식,4,5,17
동대문구,서울특별시 서대문구 북아현로 20 (북아현동),만냥회,37.5591482,126.9568344,한식,4,6,9
성북구,서울특별시 송파구 올림픽로12길 28 (잠실동),옥터펍스타코야끼,37.5091151,127.0832085,한식,1,1,3
송파구,"서울특별시 성동구 연무장길 98, 1층 (성수동2가)",유가네닭갈비 위례신도시점,37.5409157,127.0599433,한식,3.1,8,15
종로구,"서울특별시 마포구 마포대로21길 71 (아현동, 1층)",이다,37.5561094,126.9550533,한식,3.6,25,70
종로구,"서울특별시 성동구 아차산로 78, 1층 (성수동2가)",경복궁,37.5452605,127.0526252,한식,2.9,15,24
서초구,"서울특별시 성동구 광나루로6길 35, 지상1층 104호 (성수동2가)",방배골숯불갈비,37.5468025,127.0633159,한식,4,5,7
서초구,서울특별시 성북구 창경궁로43길 9 (성북동1가),도라지김밥,37.5884282,127.0043232,한식,5,1,3
서초구,"서울특별시 마포구 어울마당로 146 (서교동, 1층)",곽만근 갈비탕 이야기 서초점,37.5562223,126.9261253,한식,3.2,6,28
송파구,"서울특별시 성동구 고산자로 177, 상가동 1층 108호 (행당동, 서울숲행당푸르지오아파트)",목포 짱뚱어,37.5551893,127.0321246,한식,5,1,31
서초구,"서울특별시 서초구 강남대로 545-12, 진령빌딩 1층 102호 (반포동)",오징어나라,37.510441,127.0207291,한식,2,8,7
중구,서울특별시 서초구 식유촌길 71 (우면동),고릴라 김밥,37.4584122,127.0115738,한식,2.7,6,12
서초구,"서울특별시 송파구 거마로5길 16, 1층 (거여동)",서청미역,37.495129,127.1436349,한식,4.3,3,1
은평구,"서울특별시 서대문구 연세로7길 24, 지하1층 (창천동)",소문난 맛집,37.5578166,126.9354546,한식,5,1,0
동작구,서울특별시 양천구 목동중앙남로 51-1 (목동),이고집쭈꾸미,37.5384131,126.8661842,한식,4.3,6,26
양천구,"서울특별시 송파구 오금로46길 30, 경원빌딩 1층 103호 (가락동)",모성동태가좋아,37.4951377,127.1342392,한식,0,0,0
동작구,"서울특별시 양천구 목동동로 233-1, 지하1층 B101,102,103호 (목동, 현대드림타워)",바른식당,37.5275117,126.8715493,한식,0,0,0
중구,서울특별시 마포구 토정로 277-1 (용강동),비비큐,37.5421354,126.940723,한식,5,4,4
종로구,서울특별시 서대문구 증가로10길 41 (남가좌동),시골집,37.5790294,126.9242862,한식,4.5,4,5
은평구,"서울특별시 서초구 서초대로78길 44 (서초동,2층 203호)",명태마당,37.4938139,127.0284742,한식,5,5,2
성동구,서울특별시 서초구 서초대로50길 84-3 (서초동),옛날통닭 성수,37.4894166,127.0136282,한식,5,3,5
중구,"서울특별시 마포구 월드컵북로44길 76-3 (상암동, 1층,2층)",돈우가식당,37.5778252,126.8937404,한식,4,1,1
강북구,"서울특별시 성동구 왕십리로 94, 1층 (성수동1가)",치킨주막,37.5458884,127.0449657,한식,0,0,0
광진구,"서울특별시 양천구 목동서로 77, 현대월드타워 지상1층 136호 (목동)",대패상회,37.5359472,126.8780787,한식,4,1,5
종로구,서울특별시 성동구 성덕정19길 16 (성수동2가),셰프팝업 레스토랑,37.5374707,127.0570165,한식,0,0,0
영등포구,서울특별시 송파구 가락로 71 (석촌동),홍수계찜닭타임스퀘어점,37.5002639,127.1041325,한식,2.5,13,92
중랑구,"서울특별시 송파구 오금로36길 14, 1층 (가락동)",장우족발,37.5024416,127.1249657,한식,4.8,5,7
서초구,"서울특별시 마포구 양화로11길 46 (서교동, 1층)",텐쿡,37.552365,126.9142755,한식,4.7,3,2
종로구,"서울특별시 마포구 와우산로23길 52 (서교동,지하 1층)",쟁반집,37.5551411,126.9237327,한식,4.7,3,23
용산구,"서울특별시 서대문구 통일로36길 14 (홍제동,(지상1,2층))",아임히어,37.5874994,126.9467358,한식,4.2,17,7
중구,"서울특별시 송파구 송파대로 567 (잠실동,B-4)",최가네 소곱창,37.5157588,127.0939387,한식,4,7,64
중구,"서울특별시 서초구 서초대로38길 12, 1층 119호 (서초동, 마제스타시티, 힐스테이트 서리풀)",은성,37.4902698,127.0051245,한식,2.9,11,32
성동구,"서울특별시 서초구 강남대로 545-15, 1층 102호 (반포동, 미주빌딩)",목포식당,37.5101537,127.0205053,한식,3.8,112,91
영등포구,"서울특별시 양천구 공항대로 634, 지상2층 (목동)",언주옥,37.5466891,126.8751713,한식,2.5,6,31
중구,서울특별시 성동구 마조로1가길 16 (행당동),사랑채,37.5602969,127.0402387,한식,4,1,0
은평구,"서울특별시 양천구 목동동로10길 12-24, 101호 (신정동, 목동주택)",김군비어,37.5176927,126.8710129,한식,0,0,2
영등포구,"서울특별시 서대문구 증가로 112, 1층 (남가좌동)",정식이네,37.5768949,126.9251462,한식,3,3,8
영등포구,"서울특별시 서초구 사임당로 28 (서초동,,3호 (지하 1층))",한우정,37.4877223,127.0132187,한식,0,0,0
송파구,"서울특별시 서대문구 연세로2길 94, 1층 (대현동)",양평해장국,37.5570735,126.9419945,한식,4.2,11,0
성동구,서울특별시 마포구 월드컵북로 37 (서교동),진선미식당,37.5575984,126.9181324,한식,0,0,1
중구,"서울특별시 서초구 방배중앙로27길 2, 지하 1층 (방배동)",연주참치,37.4954058,126.9856705,한식,0,0,0
중구,"서울특별시 성북구 장월로1길 107, 1층 (하월곡동)",미미네 식당,37.604446,127.0432271,한식,0,0,1
중랑구,"서울특별시 서초구 청계산로 10, 농협하나로클럽 1층 (양재동)",압구정찌개마을,37.4632288,127.0435302,한식,4,1,0
양천구,"서울특별시 서대문구 서소문로 53, 1층 (합동)",병록이네,37.5616741,126.9671619,한식,0,0,1
